[{"name":"FM Musical","lat":"-32.41096878","long":"-63.24386978","store_key":4,"city":"Villa María"},{"name":"Hâus Records","lat":"-34.58601500","long":"-58.39260680","store_key":127,"city":"Buenos Aires"},{"name":"El Gallo Cantor","lat":"-34.60430908","long":"-58.38620758","store_key":197,"city":"Buenos Aires"},{"name":"Zivals","lat":"-34.60461780","long":"-58.39205400","store_key":242,"city":"Buenos Aires"},{"name":"Discos Opus - Todo En Discos Antiguos y Agotados","lat":"-34.62902710","long":"-58.46570400","store_key":407,"city":"Buenos Aires"},{"name":"Oldies Music DISQUERIA","lat":"-34.75959778","long":"-58.40041733","store_key":555,"city":"Buenos Aires"},{"name":"Abraxas","lat":"-34.59566300","long":"-58.38509820","store_key":700,"city":"Buenos Aires"},{"name":"Eureka Records","lat":"-34.62284930","long":"-58.37137850","store_key":705,"city":"Buenos Aires"},{"name":"Tango Cerouno","lat":"-34.58852700","long":"-58.39191700","store_key":799,"city":"Buenos Aires"},{"name":"Melomania Discos","lat":"-34.60397770","long":"-58.38433230","store_key":983,"city":"Buenos Aires"},{"name":"Cactus Discos","lat":"-34.60548401","long":"-58.38652802","store_key":995,"city":"Buenos Aires"},{"name":"Magical Mystery Records","lat":"-34.55903625","long":"-58.45864105","store_key":1013,"city":"Buenos Aires"},{"name":"djproaudio","lat":"-34.59648280","long":"-58.44320950","store_key":1256,"city":"Buenos Aires"},{"name":"Tienda Inerme","lat":"-34.59471660","long":"-58.40188720","store_key":1326,"city":"Buenos Aires"},{"name":"QuartoPensante","lat":"-34.60777900","long":"-58.37474200","store_key":1348,"city":"Buenos Aires"},{"name":"Discover - Symphonic Progressive Rock and Classic","lat":"-34.60172840","long":"-58.37523840","store_key":1457,"city":"Buenos Aires"},{"name":"Disquería El Palacio de la Música","lat":"-34.90530710","long":"-57.94955910","store_key":1699,"city":"La Plata"},{"name":"Bonus Track","lat":"-34.60382720","long":"-58.38436610","store_key":1772,"city":"Buenos Aires"},{"name":"Utopía Records","lat":"-32.94683470","long":"-60.63521770","store_key":1822,"city":"Rosario"},{"name":"Rockabilly Discos","lat":"-34.60478973","long":"-58.38429260","store_key":1850,"city":"Buenos Aires"},{"name":"El Ateneo","lat":"-31.41356000","long":"-64.18572800","store_key":1875,"city":"Córdoba"},{"name":"ALMACEN REGGAE","lat":"-31.40248871","long":"-64.22321320","store_key":1998,"city":"Córdoba"},{"name":"BVM RECORDS","lat":"-34.56178000","long":"-58.45733500","store_key":2052,"city":"Buenos Aires"},{"name":"Cocktail Discos","lat":"-34.60647400","long":"-58.43751950","store_key":2066,"city":"Buenos Aires"},{"name":"Disquería Primal Scream","lat":"-34.58525730","long":"-58.41560730","store_key":2209,"city":"Buenos Aires"},{"name":"La Cápsula","lat":"-34.59578323","long":"-58.38288116","store_key":2225,"city":"Buenos Aires"},{"name":"Lon Records","lat":"-34.56061850","long":"-58.45833620","store_key":2289,"city":"Buenos Aires"},{"name":"CD Market Florida Games","lat":"-34.60160700","long":"-58.37525300","store_key":2297,"city":"Buenos Aires"},{"name":"Minton's","lat":"-34.60431000","long":"-58.38620680","store_key":2571,"city":"Buenos Aires"},{"name":"Notorious","lat":"-34.59777340","long":"-58.39336920","store_key":2753,"city":"Buenos Aires"},{"name":"Bayiyo Records","lat":"-34.63448715","long":"-58.49106216","store_key":2770,"city":"Buenos Aires"},{"name":"Vinyls are Cool","lat":"-34.58160890","long":"-58.43511070","store_key":2823,"city":"Buenos Aires"},{"name":"Maniac Records","lat":"-34.56278800","long":"-58.45654310","store_key":2929,"city":"Buenos Aires"},{"name":"Disqueria Brujas","lat":"-34.60377121","long":"-58.39081955","store_key":3183,"city":"Buenos Aires"},{"name":"OREJAS al ACECHO","lat":"-34.61956024","long":"-58.43992615","store_key":3235,"city":"Buenos Aires"},{"name":"Jazz 46","lat":"-34.60273580","long":"-58.37815460","store_key":3504,"city":"Buenos Aires"},{"name":"Tienda Rufián","lat":"-38.88219190","long":"-62.07855500","store_key":3530,"city":"Punta Alta"},{"name":"Mondo Rabioso","lat":"-34.60276413","long":"-58.37741852","store_key":3555,"city":"Buenos Aires"},{"name":"Tienda Catch","lat":"-34.58006287","long":"-58.43685150","store_key":3560,"city":"Buenos Aires"},{"name":"Lef Casa de Música","lat":"-34.57441350","long":"-58.48617040","store_key":3595,"city":"Buenos Aires"},{"name":"Lp records","lat":"-31.39136490","long":"-64.18569620","store_key":3675,"city":"Córdoba"},{"name":"Pesadilla Rockeria","lat":"-31.41236220","long":"-64.18795830","store_key":3676,"city":"Córdoba"},{"name":"Centro Cultural del Disco","lat":"-41.13393510","long":"-71.30509300","store_key":3742,"city":"San Carlos de Bariloche"},{"name":"TODELEC Division Vinilos","lat":"-34.75976944","long":"-58.40094757","store_key":3915,"city":"Buenos Aires"},{"name":"Smile Discos","lat":"-34.58897510","long":"-58.42954520","store_key":4008,"city":"Buenos Aires"},{"name":"La Disquería","lat":"-34.91777280","long":"-57.94833960","store_key":4034,"city":"La Plata"},{"name":"Disquería Bird","lat":"-34.60427190","long":"-58.38502610","store_key":4081,"city":"Buenos Aires"},{"name":"Jarana Records","lat":"-34.58822430","long":"-58.43210310","store_key":4082,"city":"Buenos Aires"},{"name":"Pagano Rock Store","lat":"-34.45768356","long":"-58.91317749","store_key":4102,"city":"Pilar Centro"},{"name":"Yenny","lat":"-27.45297140","long":"-58.98873790","store_key":4263,"city":"Resistencia"},{"name":"El Peringundín","lat":"-34.58664140","long":"-58.41617880","store_key":4442,"city":"Buenos Aires"},{"name":"Estimado Vinilo","lat":"-34.61942830","long":"-58.37187320","store_key":4443,"city":"Buenos Aires"},{"name":"Animals Records","lat":"-34.58252470","long":"-58.47162110","store_key":4562,"city":"Buenos Aires"},{"name":"Magimusica","lat":"-34.60445786","long":"-58.38997650","store_key":4578,"city":"Buenos Aires"},{"name":"Record Shop \"Casa Piscitelli\"","lat":"-34.60262680","long":"-58.37392426","store_key":4579,"city":"Buenos Aires"},{"name":"Rik Records","lat":"-34.56056213","long":"-58.45838928","store_key":4738,"city":"Buenos Aires"},{"name":"Cementerio Club","lat":"-32.94787660","long":"-60.63915560","store_key":4824,"city":"AYO"},{"name":"Feria de Vinilos Usados. Parque Centenario","lat":"-34.60643387","long":"-58.43729782","store_key":4846,"city":"Buenos Aires"},{"name":"Music Shop","lat":"-32.94620540","long":"-60.63820830","store_key":4932,"city":"Rosario"},{"name":"Big Bang Rock","lat":"-34.60338910","long":"-58.42090150","store_key":4978,"city":"Buenos Aires"},{"name":"Disquería Brunelli","lat":"-34.63663240","long":"-58.40387550","store_key":4979,"city":"Buenos Aires"},{"name":"Disqueria Lado B","lat":"-31.41342545","long":"-64.18764496","store_key":4994,"city":"Córdoba"},{"name":"ABASTO Records","lat":"-31.41352760","long":"-64.20063670","store_key":5135,"city":"Córdoba"},{"name":"Siempre Acampa","lat":"-34.59572060","long":"-58.38336730","store_key":5253,"city":"Buenos Aires"},{"name":"Disquería Rock'N Freud","lat":"-34.58672410","long":"-58.41161460","store_key":5494,"city":"Buenos Aires"},{"name":"Cinema Records","lat":"-34.60131620","long":"-58.37481210","store_key":5565,"city":"Buenos Aires"},{"name":"Exiles Records","lat":"-34.58710350","long":"-58.43273360","store_key":5571,"city":"Buenos Aires"},{"name":"Strobe Records","lat":"-34.56060791","long":"-58.45836258","store_key":5577,"city":"Buenos Aires"},{"name":"El Coleccionista","lat":"-31.41432940","long":"-64.18562750","store_key":5685,"city":"Córdoba"},{"name":"Ragged Music","lat":"-34.43735504","long":"-58.56147003","store_key":5731,"city":"Gran Buenos Aires Norte"},{"name":"El Coleccionista","lat":"-34.60172200","long":"-58.37823840","store_key":5685,"city":"Buenos Aires"},{"name":"Vintage Club Librería & Disquería","lat":"-34.60045980","long":"-58.42540700","store_key":5815,"city":"Buenos Aires"},{"name":"Musical Cave","lat":"-34.60255840","long":"-58.37816310","store_key":5871,"city":"Buenos Aires"},{"name":"Oid Mortales","lat":"-34.60343040","long":"-58.38293720","store_key":5896,"city":"Buenos Aires"},{"name":"El Agujerito","lat":"-34.59679500","long":"-58.37682600","store_key":5937,"city":"Buenos Aires"},{"name":"Devoto Vintage Librería Disquería","lat":"-34.60623740","long":"-58.48163140","store_key":5995,"city":"Buenos Aires"},{"name":"Cnel. Pablo Zufriategui 830","lat":"-34.65880585","long":"-58.66678619","store_key":6006,"city":"Ituzaingó"},{"name":"Disquería RGS","lat":"-34.59939800","long":"-58.43893500","store_key":6135,"city":"Buenos Aires"},{"name":"Liverpool Rock Shop","lat":"-34.56177902","long":"-58.45730972","store_key":6343,"city":"Buenos Aires"},{"name":"Twilight Records (1er piso local 55)","lat":"-34.60326767","long":"-58.37754822","store_key":6349,"city":"Buenos Aires"},{"name":"Musicono","lat":"-34.60772250","long":"-58.37483560","store_key":6382,"city":"Buenos Aires"},{"name":"El Perseguidor","lat":"-34.60457510","long":"-58.39101410","store_key":6420,"city":"Buenos Aires"},{"name":"Compro libros","lat":"-34.60393540","long":"-58.38751750","store_key":6512,"city":"Buenos Aires"},{"name":"Disquería Pugliese Pugliese Pugliese","lat":"-34.61915588","long":"-58.37160873","store_key":6571,"city":"Buenos Aires"},{"name":"Cd Isqueria","lat":"-34.60401917","long":"-58.38466644","store_key":6580,"city":"Buenos Aires"},{"name":"TIME MACHINE ROCK","lat":"-34.60635757","long":"-58.37515259","store_key":6598,"city":"Buenos Aires"},{"name":"Tempo de Borges Disquería","lat":"-34.58820000","long":"-58.42941300","store_key":6655,"city":"Buenos Aires"},{"name":"Disqueria Ecomusica","lat":"-32.41247680","long":"-63.24229130","store_key":6788,"city":"Villa María"},{"name":"Red Box Records","lat":"-34.61157608","long":"-58.42076874","store_key":6821,"city":"Buenos Aires"},{"name":"Disquería Lomas","lat":"-34.75982285","long":"-58.39639282","store_key":6831,"city":"Buenos Aires"},{"name":"maxisyvinilos","lat":"-34.59657130","long":"-58.44292890","store_key":7029,"city":"Buenos Aires"},{"name":"Club de Tango","lat":"-34.60743630","long":"-58.38773110","store_key":7166,"city":"Buenos Aires"},{"name":"Feria de Vinilos Usados, Parque Rivadavia","lat":"-34.61909485","long":"-58.43442535","store_key":7237,"city":"Buenos Aires"},{"name":"Mercurio Discos","lat":"-34.59291840","long":"-58.40531540","store_key":7255,"city":"Buenos Aires"},{"name":"Cassetería Carlos Gardel","lat":"-27.45219550","long":"-58.98793860","store_key":7576,"city":"Resistencia"},{"name":"Alexis31 / Discos Bizarros Argentinos","lat":"-34.58323288","long":"-58.45308685","store_key":7604,"city":"Buenos Aires"},{"name":"Just 7\" Vinyl","lat":"-34.59654980","long":"-58.43575370","store_key":7656,"city":"Buenos Aires"}]