[{"name":"Good Things","lat":"47.91969299","long":"13.79888153","store_key":290,"city":"Gmunden"},{"name":"Dynamicrecords","lat":"48.19733429","long":"16.34908295","store_key":349,"city":"Wien"},{"name":"Minerva Records","lat":"47.80487442","long":"13.05053139","store_key":686,"city":"Salzburg"},{"name":"Rock Shop","lat":"48.22356580","long":"16.38305810","store_key":894,"city":"Wien"},{"name":"Griller Records","lat":"48.19503570","long":"16.35317570","store_key":977,"city":"Wien"},{"name":"NENTWICH","lat":"47.84693680","long":"16.52496330","store_key":1080,"city":"Eisenstadt"},{"name":"Records & More","lat":"48.32954720","long":"14.30284460","store_key":1164,"city":"Linz"},{"name":"Rave Up Records","lat":"48.19300842","long":"16.35365677","store_key":1181,"city":"Wien"},{"name":"EMI - the music store","lat":"48.20483017","long":"16.37069130","store_key":1258,"city":"Wien"},{"name":"MediaMarkt","lat":"47.01363950","long":"15.41368370","store_key":1425,"city":"Seiersberg"},{"name":"SingSing Records","lat":"48.20532990","long":"16.35366390","store_key":1568,"city":"Wien"},{"name":"Happy Records","lat":"48.04481480","long":"14.41635290","store_key":1597,"city":"Steyr"},{"name":"WIENYL","lat":"48.19666790","long":"16.29849180","store_key":1809,"city":"Wien"},{"name":"Top Records","lat":"48.16136932","long":"14.38703156","store_key":1831,"city":"Rappersdorf"},{"name":"Gramola","lat":"48.20909880","long":"16.36885060","store_key":1918,"city":"Wien"},{"name":"TWOSIDES - recordstore, print & more","lat":"47.26406550","long":"11.39028630","store_key":1977,"city":"Innsbruck"},{"name":"Jetlag","lat":"47.79649180","long":"13.04931450","store_key":2195,"city":"Salzburg"},{"name":"Musikladen","lat":"47.23630905","long":"9.59656525","store_key":2381,"city":"Feldkirch"},{"name":"Record Shack","lat":"48.18764270","long":"16.35234830","store_key":2396,"city":"Wien"},{"name":"Ibis Sammlerstube","lat":"48.22637400","long":"16.35508970","store_key":2447,"city":"Wien"},{"name":"Vinyl Corner","lat":"48.29870224","long":"14.29343414","store_key":2065,"city":"Linz"},{"name":"Seven Star Records","lat":"48.20257670","long":"16.35616350","store_key":2719,"city":"Wien"},{"name":"DaCapo Klassik","lat":"48.20373270","long":"16.37318830","store_key":2740,"city":"Wien"},{"name":"RAP - Records and Prints","lat":"48.20411230","long":"16.34937550","store_key":2873,"city":"Wien"},{"name":"Blue Danube Records","lat":"48.33014090","long":"16.05378230","store_key":2993,"city":"Tulln an der Donau"},{"name":"Market","lat":"48.20199585","long":"16.34514999","store_key":3127,"city":"Wien"},{"name":"Black Monk","lat":"48.20293550","long":"16.34871910","store_key":3149,"city":"Wien"},{"name":"di marcos high fidelity","lat":"46.62212720","long":"14.31053680","store_key":3194,"city":"Klagenfurt am Wörthersee"},{"name":"Lenny's Music Store","lat":"48.13897420","long":"16.36306560","store_key":3339,"city":"Wien"},{"name":"Audiocenter","lat":"48.21191406","long":"16.36941147","store_key":3383,"city":"Wien"},{"name":"Heavy Rotation Musicstore","lat":"47.80489349","long":"13.05165005","store_key":3467,"city":"Salzburg"},{"name":"Substance","lat":"48.20188522","long":"16.34621429","store_key":3698,"city":"Wien"},{"name":"That's Music","lat":"48.22149277","long":"16.37405777","store_key":3730,"city":"Wien"},{"name":"La Pelote - Künstlerbedarf + Records","lat":"47.81121450","long":"16.23976320","store_key":3833,"city":"Wiener Neustadt"},{"name":"Recordbag Music & Fashion","lat":"48.19830890","long":"16.35154930","store_key":3990,"city":"Wien"},{"name":"Pop Shop","lat":"46.82927920","long":"12.76972190","store_key":4209,"city":"Lienz"},{"name":"Monroe","lat":"47.84580270","long":"16.52472530","store_key":4428,"city":"Eisenstadt"},{"name":"Musikladen Salzburg","lat":"47.80388641","long":"13.04782581","store_key":4460,"city":"Salzburg"},{"name":"Teuchtler Schallplattenhandlung u. Antiquariat","lat":"48.19958730","long":"16.35698290","store_key":4463,"city":"Wien"},{"name":"Music store FRIEBE GmbH","lat":"47.07249370","long":"15.43902540","store_key":4784,"city":"Graz"},{"name":"Supersense","lat":"48.21692480","long":"16.38924170","store_key":4785,"city":"Wien"},{"name":"Sissysound Record Store","lat":"48.19405330","long":"16.36217720","store_key":4810,"city":"Wien"},{"name":"Nabu Records","lat":"47.27074690","long":"11.39142450","store_key":5095,"city":"Innsbruck"},{"name":"creative beans - coffee & records","lat":"48.21753350","long":"16.34611690","store_key":5127,"city":"Wien"},{"name":"Wiener LP Café","lat":"48.20242260","long":"16.39363300","store_key":5437,"city":"Wien"},{"name":"Musik Hasslwanter","lat":"47.26728821","long":"11.39831448","store_key":5532,"city":"Innsbruck"},{"name":"Inandout Records","lat":"47.06780710","long":"15.43771890","store_key":5897,"city":"Graz"},{"name":"Deep Soul Records","lat":"48.18412980","long":"16.32387890","store_key":5913,"city":"Wien"},{"name":"Das Lokal","lat":"48.19937134","long":"16.34846878","store_key":6071,"city":"Wien"},{"name":"Onvinyl","lat":"47.10464096","long":"15.70849323","store_key":6136,"city":"Gleisdorf"},{"name":"Moses Records","lat":"48.20621109","long":"16.35079575","store_key":6173,"city":"Wien"},{"name":"Duxrecords","lat":"47.07105637","long":"15.43161964","store_key":6176,"city":"Graz"},{"name":"SR-Archiv österreichischer Popularmusik","lat":"48.20349860","long":"16.35911750","store_key":6323,"city":"Wien"},{"name":"VinylTon","lat":"48.15817261","long":"14.01087856","store_key":6421,"city":"Wels"},{"name":"dr. dub vinyl recording service","lat":"47.47354126","long":"12.54633808","store_key":6525,"city":"Fieberbrunn"},{"name":"Schallter Audio & Records","lat":"48.20173264","long":"16.34583664","store_key":6555,"city":"Wien"},{"name":"Ohrenschmaus","lat":"48.21394680","long":"16.38370470","store_key":6701,"city":"Wien"},{"name":"Vintage Vinyl","lat":"48.18068686","long":"16.33323264","store_key":1178,"city":"Wien"},{"name":"Wahn & Sinn Records","lat":"48.30793990","long":"14.29050570","store_key":6762,"city":"Linz"},{"name":"Lindi's Schallplatten Laden","lat":"48.20418280","long":"16.34577100","store_key":7116,"city":"Wien"},{"name":"Galea Records","lat":"48.20347950","long":"16.34006130","store_key":7120,"city":"Wien"},{"name":"Musikladen Innsbruck","lat":"47.26558950","long":"11.39533230","store_key":7418,"city":"Innsbruck"},{"name":"Totem Records","lat":"48.20082855","long":"16.35065079","store_key":7493,"city":"Wien"}]