[{"name":"Nowhere Special","lat":"-37.77076630","long":"144.97162810","store_key":8,"city":"Melbourne"},{"name":"Transition Records","lat":"-34.92650280","long":"138.59589020","store_key":64,"city":"Adelaide"},{"name":"Rocking Horse Records","lat":"-27.46905950","long":"153.02491410","store_key":175,"city":"Brisbane"},{"name":"A Fan's Notes","lat":"-37.78088000","long":"144.97755900","store_key":294,"city":"Melbourne"},{"name":"Soundwaves Music & More","lat":"-33.95227050","long":"115.07340890","store_key":295,"city":"Margaret River"},{"name":"Underground Records","lat":"-34.89002620","long":"138.59405640","store_key":296,"city":"Adelaide"},{"name":"Richmond Records & Cafe","lat":"-33.59771370","long":"150.75309330","store_key":297,"city":"Richmond"},{"name":"Red Eye Records","lat":"-33.87250520","long":"151.20635020","store_key":337,"city":"Sydney"},{"name":"Monster Robot Party","lat":"-27.45551370","long":"153.00753330","store_key":422,"city":"Brisbane"},{"name":"Rhubarb Records Vinyl Cafe","lat":"-31.93794870","long":"115.84239840","store_key":449,"city":"Perth"},{"name":"Relove Vinyl","lat":"-27.56944810","long":"152.98105000","store_key":465,"city":"Oxley"},{"name":"Midland Records","lat":"-31.88897030","long":"116.00173930","store_key":709,"city":"Midland"},{"name":"Music Bizarre","lat":"-28.80900680","long":"153.27661480","store_key":730,"city":"Lismore"},{"name":"Sandy's Music Centre","lat":"-33.75369644","long":"151.28552246","store_key":742,"city":"Dee Why"},{"name":"Lost and Found Market","lat":"-37.79877000","long":"144.97850120","store_key":757,"city":"Melbourne"},{"name":"Clinic 116 PTY Ltd.","lat":"-34.92353300","long":"138.60449330","store_key":783,"city":"Adelaide"},{"name":"Canberra Vinyl Records & Music","lat":"-35.32654580","long":"149.16877510","store_key":803,"city":"Fyshwick"},{"name":"The Book Buff","lat":"-32.92402340","long":"151.73800080","store_key":886,"city":"Broadmeadow"},{"name":"Bounce Audio","lat":"-37.84708550","long":"144.99312030","store_key":941,"city":"Melbourne"},{"name":"Readings Carlton","lat":"-37.79801800","long":"144.96713700","store_key":944,"city":"Melbourne"},{"name":"HUB301 Records","lat":"-37.80031220","long":"144.99657610","store_key":1001,"city":"Melbourne"},{"name":"Oh! Jean Records","lat":"-37.79662450","long":"144.97534960","store_key":1010,"city":"Melbourne"},{"name":"CASA DEL DISCO","lat":"-33.88886600","long":"151.15581100","store_key":1024,"city":"Sydney"},{"name":"The Emporium","lat":"-41.38175860","long":"146.32341570","store_key":1117,"city":"Sheffield"},{"name":"JB Hi-Fi Melbourne Central","lat":"-37.81024350","long":"144.96264430","store_key":1156,"city":"Melbourne"},{"name":"The Record Exchange","lat":"-27.46931050","long":"153.02413870","store_key":956,"city":"Brisbane"},{"name":"Hum On King","lat":"-33.89620790","long":"151.18022920","store_key":1196,"city":"Sydney"},{"name":"The Record Store","lat":"-33.88059450","long":"151.21459990","store_key":1197,"city":"Sydney"},{"name":"Vintage Records","lat":"-33.88754110","long":"151.17080190","store_key":898,"city":"Sydney"},{"name":"Poison City Records","lat":"-37.79519610","long":"144.97912610","store_key":1200,"city":"Melbourne"},{"name":"Gould's Book Arcade","lat":"-33.90288100","long":"151.17963930","store_key":1217,"city":"Sydney"},{"name":"Vinyl Space","lat":"-37.79962380","long":"144.98869980","store_key":1279,"city":"Melbourne"},{"name":"Lo Fi","lat":"-37.79825592","long":"144.97602844","store_key":1280,"city":"Melbourne"},{"name":"Network Connection Records","lat":"-33.90160080","long":"151.17866610","store_key":1281,"city":"Sydney"},{"name":"The Funky Pickers Shed","lat":"-38.59637780","long":"145.59262250","store_key":1296,"city":"Wonthaggi"},{"name":"Music Without Frontiers","lat":"-42.88293350","long":"147.32522050","store_key":1318,"city":"Hobart"},{"name":"Antique Emporium","lat":"-41.18268070","long":"146.36170860","store_key":1372,"city":"Devonport"},{"name":"Johnny The Fox Records","lat":"-34.66775270","long":"150.85355460","store_key":1416,"city":"Kiama"},{"name":"Retro and Rare Emporium","lat":"-35.25660950","long":"149.44117230","store_key":1437,"city":"Bungendore"},{"name":"Pearls Book n Music","lat":"-16.92327560","long":"145.77644940","store_key":1449,"city":"Cairns City"},{"name":"2nd Spin Vinyl","lat":"-38.04660120","long":"145.14153110","store_key":1529,"city":"Melbourne"},{"name":"Jet Black Cat Music","lat":"-27.48076640","long":"153.01143880","store_key":1567,"city":"Brisbane"},{"name":"Junction Records","lat":"-32.05508520","long":"115.74837940","store_key":1576,"city":"Fremantle"},{"name":"Music Jungle","lat":"-37.75590300","long":"145.00138700","store_key":1583,"city":"Melbourne"},{"name":"Wolfies Records","lat":"-34.94425010","long":"138.62147000","store_key":1628,"city":"Adelaide"},{"name":"High Fidelity","lat":"-31.95227051","long":"115.85398102","store_key":1658,"city":"Perth"},{"name":"High on Vinyl","lat":"-37.76178580","long":"145.00020190","store_key":1667,"city":"Melbourne"},{"name":"LP Records","lat":"-16.92355537","long":"145.77607727","store_key":1671,"city":"Cairns City"},{"name":"Butter Beats","lat":"-27.96848869","long":"153.41343689","store_key":1765,"city":"Southport"},{"name":"Tommy Gun Records","lat":"-42.88036500","long":"147.32534780","store_key":1804,"city":"Hobart"},{"name":"Howl & Moan Records","lat":"-28.64652450","long":"153.61319680","store_key":1855,"city":"Byron Bay"},{"name":"Cobblers Cleveland","lat":"-27.52772400","long":"153.26719800","store_key":1872,"city":"Cleveland"},{"name":"Discrepancy Records & Gallery","lat":"-37.80059220","long":"145.11132910","store_key":1897,"city":"Melbourne"},{"name":"Hiss & Crackle","lat":"-32.90139500","long":"151.66918270","store_key":1953,"city":"Wallsend"},{"name":"Station 2 Station","lat":"-37.81629800","long":"144.95259870","store_key":2077,"city":"Melbourne"},{"name":"Valiant Music","lat":"-28.54019450","long":"153.54894710","store_key":2111,"city":"Brunswick Heads"},{"name":"Greville Records","lat":"-37.84946823","long":"144.99177551","store_key":2127,"city":"Melbourne"},{"name":"The Basement Discs","lat":"-37.81588090","long":"144.96447330","store_key":2148,"city":"Melbourne"},{"name":"Clarity Records","lat":"-34.92321620","long":"138.60578550","store_key":2149,"city":"Adelaide"},{"name":"Streetlight Adelaide","lat":"-34.92190740","long":"138.60874870","store_key":2212,"city":"Adelaide"},{"name":"Rediscovery CD's","lat":"-37.56088140","long":"143.85454330","store_key":2256,"city":"Ballarat Central"},{"name":"Papa Disquo Records","lat":"-33.89854690","long":"151.17413490","store_key":2266,"city":"Sydney"},{"name":"Ricks Record Store","lat":"-37.79973600","long":"144.99047000","store_key":2272,"city":"Melbourne"},{"name":"Multisonics","lat":"-37.76177400","long":"144.99992200","store_key":2284,"city":"Melbourne"},{"name":"Franks Wild Years","lat":"-34.31621000","long":"150.92192500","store_key":2309,"city":"Thirroul"},{"name":"Atlantis Music","lat":"-27.97061500","long":"153.39241100","store_key":2463,"city":"Southport"},{"name":"Air Raid Records","lat":"-12.46182905","long":"130.84175045","store_key":2508,"city":"Darwin City"},{"name":"Alley Tunes","lat":"-37.82181100","long":"145.03612100","store_key":2554,"city":"Melbourne"},{"name":"Beatdisc Records","lat":"-33.81626800","long":"151.00247400","store_key":2565,"city":"Parramatta"},{"name":"Mojo Record Bar","lat":"-33.86842170","long":"151.20583330","store_key":2566,"city":"Sydney"},{"name":"The Sound Exchange","lat":"-33.35737500","long":"151.48588660","store_key":2594,"city":"Long Jetty"},{"name":"Rhubarb Records","lat":"-31.98504400","long":"115.90286470","store_key":2639,"city":"Perth"},{"name":"Essex St Bazaar","lat":"-32.05688095","long":"115.74829102","store_key":2659,"city":"Fremantle"},{"name":"High On Music","lat":"-36.79557040","long":"144.24448870","store_key":2679,"city":"Kangaroo Flat"},{"name":"Avenue Records","lat":"-41.43646300","long":"147.13999490","store_key":2688,"city":"Launceston"},{"name":"The Record Market","lat":"-27.96555250","long":"153.41245100","store_key":2739,"city":"Southport"},{"name":"Red Door Records","lat":"-26.80465580","long":"153.13492230","store_key":2764,"city":"Caloundra"},{"name":"Sauce Records","lat":"-34.01591750","long":"151.06535940","store_key":2847,"city":"Jannali"},{"name":"Sugar Sounds","lat":"-36.67377360","long":"149.84150210","store_key":2880,"city":"Bega"},{"name":"CD's Records & DVD's","lat":"-28.03041626","long":"153.38934744","store_key":2899,"city":"Carrara"},{"name":"Odditorium Vintage & Vinyl","lat":"-32.92741590","long":"151.78024110","store_key":2915,"city":"Newcastle"},{"name":"Egg Records","lat":"-33.89724300","long":"151.17953800","store_key":2916,"city":"Sydney"},{"name":"TITLE Store","lat":"-33.88844860","long":"151.21327700","store_key":2945,"city":"Sydney"},{"name":"Eclectico","lat":"-37.86909200","long":"144.97999300","store_key":2946,"city":"Melbourne"},{"name":"Soldas Sound and Music Centre","lat":"-42.87992300","long":"147.32336300","store_key":2984,"city":"Hobart"},{"name":"Plug Seven Records","lat":"-37.79967000","long":"144.98396400","store_key":2990,"city":"Melbourne"},{"name":"Leading Edge Music","lat":"-32.56697350","long":"151.16590810","store_key":3004,"city":"Singleton"},{"name":"The Velvet Fog","lat":"-33.71214730","long":"150.31067330","store_key":3006,"city":"Katoomba"},{"name":"Crackerbox Palace","lat":"-16.91124130","long":"145.76328830","store_key":3061,"city":"Cairns North"},{"name":"Sgt. Peppers Vintage and Vinyl Collective","lat":"-31.94568050","long":"115.85953340","store_key":3092,"city":"Perth"},{"name":"JB Hi-Fi HOME Superstore","lat":"-35.41549360","long":"149.06655640","store_key":3100,"city":"Greenway"},{"name":"Utopia Records","lat":"-33.87427700","long":"151.20506000","store_key":3143,"city":"Sydney"},{"name":"White Rabbit Record Bar","lat":"-37.79364160","long":"144.93000050","store_key":3166,"city":"Melbourne"},{"name":"The Audio Room","lat":"-28.80950140","long":"153.27686280","store_key":3272,"city":"Lismore"},{"name":"Something Else Records","lat":"-33.90152560","long":"151.17901510","store_key":3292,"city":"Sydney"},{"name":"Real Music Vinyl","lat":"-38.14786400","long":"144.35920770","store_key":3314,"city":"Geelong"},{"name":"Mills","lat":"-32.05378470","long":"115.74748780","store_key":3420,"city":"Fremantle"},{"name":"567 King","lat":"-33.90480330","long":"151.18035010","store_key":3425,"city":"Sydney"},{"name":"Lost Ark Antiques & Collectables","lat":"-37.85530760","long":"144.86679340","store_key":3441,"city":"Melbourne"},{"name":"Rocksteady Records","lat":"-37.81209800","long":"144.96181900","store_key":3485,"city":"Melbourne"},{"name":"Station 2 Station","lat":"-37.81584490","long":"144.95218920","store_key":2077,"city":"Melbourne"},{"name":"Tangent","lat":"-16.92442810","long":"145.77860580","store_key":3541,"city":"Cairns City"},{"name":"Duratone Hi-Fi","lat":"-35.35067100","long":"149.08703900","store_key":3550,"city":"Canberra"},{"name":"Revolution CD Belconnen","lat":"-35.23759710","long":"149.06673860","store_key":3627,"city":"Belconnen"},{"name":"Sounds Espresso","lat":"-33.91094800","long":"151.16138300","store_key":3673,"city":"Sydney"},{"name":"Counterweight Vinyl & Espresso","lat":"-37.80059000","long":"144.90040700","store_key":3674,"city":"Melbourne"},{"name":"JB Hi-Fi City - Bourke Street","lat":"-37.81295470","long":"144.96697590","store_key":3682,"city":"Melbourne"},{"name":"Record Paradise","lat":"-37.77363300","long":"144.96083000","store_key":3695,"city":"Melbourne"},{"name":"Listen Up Records","lat":"-33.87838950","long":"151.22104220","store_key":3738,"city":"Sydney"},{"name":"De Bretts Antique Market","lat":"-37.77026470","long":"144.92631790","store_key":3751,"city":"Melbourne"},{"name":"Desire Books and Records","lat":"-33.79749140","long":"151.28534380","store_key":3774,"city":"Manly"},{"name":"Songland Records","lat":"-35.34110260","long":"149.05287170","store_key":3786,"city":"Canberra"},{"name":"Strangeworld Records","lat":"-37.79142800","long":"144.97943000","store_key":3789,"city":"Melbourne"},{"name":"Goldmine Records","lat":"-37.77946600","long":"144.98678800","store_key":2567,"city":"Melbourne"},{"name":"Magpie Music","lat":"-36.67439000","long":"149.84050900","store_key":3823,"city":"Bega"},{"name":"Highgate Continental","lat":"-31.94659150","long":"115.86107230","store_key":3847,"city":"Perth"},{"name":"Wax Museum Records","lat":"-37.81749600","long":"144.96598200","store_key":3999,"city":"Melbourne"},{"name":"Music Farmers","lat":"-34.42550630","long":"150.89287030","store_key":4083,"city":"Wollongong"},{"name":"Reload Records","lat":"-38.35913330","long":"144.89471240","store_key":4084,"city":"Rosebud"},{"name":"Tym Guitars","lat":"-27.45781680","long":"153.03606620","store_key":4086,"city":"Brisbane"},{"name":"Discography Vinyl Records","lat":"-32.06307000","long":"115.77182000","store_key":4132,"city":"Beaconsfield"},{"name":"Round Again","lat":"-37.73326180","long":"144.96122660","store_key":4164,"city":"Melbourne"},{"name":"Trash Cult Store","lat":"-36.71787490","long":"144.25300990","store_key":4179,"city":"Eaglehawk"},{"name":"Butter Beats Record Store","lat":"-27.47015300","long":"153.02360700","store_key":4241,"city":"Brisbane"},{"name":"Abicus","lat":"-32.93102540","long":"151.77241250","store_key":4356,"city":"Newcastle"},{"name":"Dada","lat":"-31.95497530","long":"115.86249000","store_key":4357,"city":"Perth"},{"name":"Vicious Sloth Collectables","lat":"-37.85762190","long":"145.03778880","store_key":4381,"city":"Melbourne"},{"name":"Big Star CD's & Records","lat":"-34.91520500","long":"138.63510400","store_key":4385,"city":"Adelaide"},{"name":"Rathdowne Records","lat":"-37.77343000","long":"144.99846540","store_key":4400,"city":"Melbourne"},{"name":"Dutch Vinyl","lat":"-37.80028250","long":"144.99544850","store_key":4417,"city":"Melbourne"},{"name":"Sonic Sherpa","lat":"-27.49906830","long":"153.04558410","store_key":4444,"city":"Brisbane"},{"name":"Goldmine Records","lat":"-37.79127500","long":"144.97588200","store_key":2567,"city":"Melbourne"},{"name":"Revolution CD Woden","lat":"-35.34623730","long":"149.08738020","store_key":4583,"city":"Canberra"},{"name":"New England Records","lat":"-30.51431340","long":"151.66794150","store_key":4598,"city":"Armidale"},{"name":"Captain Stomp Records","lat":"-37.88326000","long":"145.29722200","store_key":4604,"city":"Ferntree Gully"},{"name":"Jason's Vinyl @ Bribie","lat":"-27.06967310","long":"153.20249940","store_key":4629,"city":"Woorim"},{"name":"Vinyl Revival Brunswick","lat":"-37.77504000","long":"144.96100900","store_key":4725,"city":"Melbourne"},{"name":"Resist Records","lat":"-33.90782547","long":"151.16548157","store_key":4739,"city":"Sydney"},{"name":"Revolution CD Goulburn","lat":"-34.75092380","long":"149.72133130","store_key":4740,"city":"Goulburn"},{"name":"Halcyon Daze Records","lat":"-33.90175800","long":"151.17910700","store_key":4760,"city":"Sydney"},{"name":"Polyester Records","lat":"-37.79561900","long":"144.97882600","store_key":4915,"city":"Melbourne"},{"name":"Readings Hawthorn","lat":"-37.81966360","long":"145.03569840","store_key":4916,"city":"Melbourne"},{"name":"Holy Vinyl","lat":"-34.95402410","long":"138.60795030","store_key":4982,"city":"Adelaide"},{"name":"Cool Rock'n Records","lat":"-25.28420920","long":"152.85391110","store_key":5025,"city":"Scarness"},{"name":"JB Hi-Fi Canberra City","lat":"-35.27756240","long":"149.13324440","store_key":5109,"city":"Canberra"},{"name":"Radio Gnome Records","lat":"-12.46182840","long":"130.84178800","store_key":5113,"city":"Darwin City"},{"name":"Bookmania","lat":"-33.43523310","long":"151.38819790","store_key":5148,"city":"Erina"},{"name":"Licorice Pie Records","lat":"-37.85213350","long":"144.99635350","store_key":5164,"city":"Melbourne"},{"name":"Vital Solutions Music","lat":"-34.91477280","long":"138.55925730","store_key":5228,"city":"Adelaide"},{"name":"Skydiver Record Store","lat":"-37.79976610","long":"144.99059520","store_key":5257,"city":"Melbourne"},{"name":"Phase 4 Records & Cassettes","lat":"-27.45805100","long":"153.03510900","store_key":5258,"city":"Brisbane"},{"name":"Diabolik","lat":"-31.92176210","long":"115.83927880","store_key":5259,"city":"Perth"},{"name":"Profile Music","lat":"-37.84917100","long":"144.99164700","store_key":5260,"city":"Melbourne"},{"name":"Mixup Music","lat":"-33.70187200","long":"151.09781100","store_key":5261,"city":"Hornsby"},{"name":"Audiophile Utopia","lat":"-33.68774430","long":"151.09454740","store_key":5295,"city":"Hornsby"},{"name":"Dynomite Records","lat":"-35.38026360","long":"149.05807670","store_key":5355,"city":"Canberra"},{"name":"Bayside Collect","lat":"-32.97375488","long":"151.64418030","store_key":5369,"city":"Warners Bay"},{"name":"The Mosh Pit","lat":"-32.94023100","long":"151.66054500","store_key":5371,"city":"Cardiff"},{"name":"Beatniks Records","lat":"-28.02896690","long":"153.43201810","store_key":5425,"city":"Broadbeach"},{"name":"Prehistoric Sounds","lat":"-38.38294700","long":"142.48086600","store_key":5510,"city":"Warrnambool"},{"name":"The Record Finder","lat":"-32.05522000","long":"115.74432850","store_key":5574,"city":"Fremantle"},{"name":"Round & Round Records","lat":"-37.76486990","long":"144.96279410","store_key":5576,"city":"Melbourne"},{"name":"Dixon Recycled Records","lat":"-37.81833330","long":"145.15750000","store_key":5585,"city":"Melbourne"},{"name":"Pacific Records","lat":"-33.67774220","long":"151.30360850","store_key":5655,"city":"Mona Vale"},{"name":"Picture Search Video","lat":"-37.82528260","long":"144.99588430","store_key":5660,"city":"Melbourne"},{"name":"Hat Hill Gallery","lat":"-33.63249200","long":"150.28634900","store_key":5664,"city":"Blackheath"},{"name":"JB Hi-Fi","lat":"-35.34516120","long":"149.08567770","store_key":2535,"city":"Canberra"},{"name":"Audio Junction","lat":"-32.92424330","long":"151.74908090","store_key":5769,"city":"Hamilton"},{"name":"Championship Vinyl","lat":"-35.44563960","long":"149.80199210","store_key":5845,"city":"Braidwood"},{"name":"Rare Groove","lat":"-28.05828990","long":"153.43842750","store_key":5864,"city":"Mermaid Beach"},{"name":"Off The Hip Records","lat":"-37.81822330","long":"144.96141640","store_key":5912,"city":"Melbourne"},{"name":"PLAY Music & DVDs","lat":"-37.81135180","long":"144.97146980","store_key":6042,"city":"Melbourne"},{"name":"The Searchers Records","lat":"-37.80603710","long":"144.98294400","store_key":6079,"city":"Melbourne"},{"name":"Readings St Kilda","lat":"-37.86831020","long":"144.97990000","store_key":6080,"city":"Melbourne"},{"name":"Replay Records","lat":"-32.03667820","long":"115.96824770","store_key":1589,"city":"Perth"},{"name":"Half Back Book & Record Exchange","lat":"-33.82670150","long":"151.20177770","store_key":6175,"city":"Sydney"},{"name":"RPM Records Posters & Memorabilia","lat":"-33.91242070","long":"151.16090750","store_key":6191,"city":"Sydney"},{"name":"Revival Records Port Fairy","lat":"-38.38521080","long":"142.23702830","store_key":6226,"city":"Port Fairy"},{"name":"Bookmania","lat":"-33.48467410","long":"151.32434180","store_key":5148,"city":"Woy Woy"},{"name":"TRU HI-FI","lat":"-36.08620970","long":"146.91181810","store_key":6246,"city":"South Albury"},{"name":"Natural Selection Records","lat":"-37.79700420","long":"144.97894250","store_key":6313,"city":"Melbourne"},{"name":"Union Heights","lat":"-37.85347366","long":"144.99320984","store_key":6337,"city":"Melbourne"},{"name":"Cottonmouth Records","lat":"-33.89902290","long":"151.17224780","store_key":6462,"city":"Sydney"},{"name":"The Record Store","lat":"-35.01841200","long":"138.53451250","store_key":1197,"city":"Adelaide"},{"name":"Mainly Jazz Records & Books","lat":"-37.85915300","long":"144.98426500","store_key":6508,"city":"Melbourne"},{"name":"Radical Records","lat":"-37.98680700","long":"145.21541600","store_key":6558,"city":"Melbourne"},{"name":"Fish Fine Music","lat":"-33.87372320","long":"151.20549920","store_key":6561,"city":"Sydney"},{"name":"Vinyl Squeeze","lat":"-34.85738180","long":"138.65466880","store_key":6606,"city":"Adelaide"},{"name":"Argyle Emporium","lat":"-34.75663670","long":"149.71951570","store_key":6648,"city":"Goulburn"},{"name":"Stereophonic","lat":"-37.79497970","long":"144.97884190","store_key":6715,"city":"Melbourne"},{"name":"JB Hi-Fi Traralgon","lat":"-38.19743420","long":"146.53675610","store_key":6719,"city":"Traralgon"},{"name":"Rockaway Records","lat":"-27.50357010","long":"153.10143110","store_key":4341,"city":"Brisbane"},{"name":"Repressed Records","lat":"-33.90021896","long":"151.17805481","store_key":6761,"city":"Sydney"},{"name":"Heartland Records","lat":"-37.80513630","long":"144.95195630","store_key":6820,"city":"Melbourne"},{"name":"Dixon Recycled Records","lat":"-37.79456830","long":"144.97923960","store_key":5585,"city":"Melbourne"},{"name":"Muscle Shoals Records","lat":"-37.76283130","long":"144.97339500","store_key":6881,"city":"Melbourne"},{"name":"Vinyl Revival","lat":"-37.79498200","long":"144.97889600","store_key":4367,"city":"Melbourne"},{"name":"Urban Records","lat":"-31.93756190","long":"115.84112350","store_key":6951,"city":"Perth"},{"name":"Wah Wah Records","lat":"-37.80296740","long":"144.98370900","store_key":5279,"city":"Melbourne"},{"name":"Dutch Vinyl Brisbane â€“ We Buy & Sell vinyl records","lat":"-27.45861920","long":"152.99405190","store_key":7066,"city":"Paddington"},{"name":"Lou's Shack","lat":"-35.26734140","long":"138.47909290","store_key":7074,"city":"Aldinga"},{"name":"Hunter & Co. Vintage","lat":"-37.73405340","long":"145.01362150","store_key":7081,"city":"Melbourne"},{"name":"Revolution CD","lat":"-35.27891800","long":"149.13042900","store_key":7092,"city":"Canberra"},{"name":"Sound One","lat":"-31.91057070","long":"115.84714650","store_key":7176,"city":"Perth"},{"name":"Audiophile Reference Recordings","lat":"-37.96306490","long":"145.05679320","store_key":7274,"city":"Melbourne"},{"name":"Cameron's Antiques & Collectables","lat":"-32.05331130","long":"115.74255720","store_key":7280,"city":"Fremantle"},{"name":"Rare Records","lat":"-37.77148720","long":"144.88842630","store_key":7282,"city":"Melbourne"},{"name":"Planet Books","lat":"-31.93502530","long":"115.87210410","store_key":7299,"city":"Perth"},{"name":"Birdland","lat":"-33.86993900","long":"151.20737600","store_key":5854,"city":"Sydney"},{"name":"Rerun Records & Photography","lat":"-34.92241700","long":"138.60421900","store_key":7340,"city":"Adelaide"},{"name":"Mr V Music","lat":"-34.83952760","long":"138.48826230","store_key":7341,"city":"Adelaide"},{"name":"Landspeed Records","lat":"-35.27845210","long":"149.13241560","store_key":7352,"city":"Canberra"},{"name":"Revolution CD","lat":"-34.31272500","long":"148.29363810","store_key":7092,"city":"Young"},{"name":"Noise Pollution Records","lat":"-31.94739370","long":"115.86049310","store_key":3230,"city":"Perth"},{"name":"Northside Records","lat":"-37.80641900","long":"144.98253160","store_key":7413,"city":"Melbourne"},{"name":"Thornbury Records","lat":"-37.76293200","long":"144.99969100","store_key":7420,"city":"Melbourne"},{"name":"Safaris Record Shack","lat":"-31.94929504","long":"115.85885620","store_key":7449,"city":"Perth"},{"name":"Rocktherapy CD's & Records","lat":"-34.97965450","long":"138.59147200","store_key":7451,"city":"Adelaide"},{"name":"backbeat records","lat":"-26.62683600","long":"152.96017300","store_key":7491,"city":"Nambour"},{"name":"Radio Free Alice","lat":"-33.87858100","long":"151.22042630","store_key":7507,"city":"Sydney"},{"name":"Cafe Vinyl","lat":"-31.95201090","long":"115.85246620","store_key":7543,"city":"Perth"}]