[{"name":"Major Tom Record Store","lat":"50.93392563","long":"5.32416582","store_key":91,"city":"Hasselt"},{"name":"Nextgenfono","lat":"50.99671630","long":"5.33732300","store_key":111,"city":"Zonhoven"},{"name":"Initiales CD","lat":"50.64585080","long":"3.92122780","store_key":283,"city":"Silly"},{"name":"Rombaux","lat":"51.20946830","long":"3.22760540","store_key":284,"city":"Brugge"},{"name":"Music House","lat":"50.84314240","long":"3.60788790","store_key":285,"city":"Oudenaarde"},{"name":"Tune Up","lat":"51.22039032","long":"4.40249586","store_key":344,"city":"Antwerpen"},{"name":"Vdp Records","lat":"51.06969970","long":"4.98696360","store_key":403,"city":"Laakdal"},{"name":"Kortom","lat":"50.82747300","long":"3.26948500","store_key":485,"city":"Kortrijk"},{"name":"Livre aux Trésors","lat":"50.64279938","long":"5.56771994","store_key":651,"city":"Liège"},{"name":"Juke Box","lat":"50.46450043","long":"4.86372089","store_key":708,"city":"Namur"},{"name":"Art & Music","lat":"50.00385284","long":"5.71959209","store_key":811,"city":"Bastogne"},{"name":"Pêle-Mêle","lat":"50.71614838","long":"4.39734697","store_key":921,"city":"Waterloo"},{"name":"Seymour Kassel Records","lat":"50.85271072","long":"4.34598780","store_key":987,"city":"Bruxelles"},{"name":"Mark Sound","lat":"50.84026570","long":"4.46705530","store_key":1021,"city":"Kraainem"},{"name":"RecordPlanets","lat":"50.64256270","long":"5.57424800","store_key":1055,"city":"Liège"},{"name":"Keep on Rockin'","lat":"51.17364502","long":"4.31424522","store_key":1206,"city":"Kruibeke"},{"name":"Tørst Vinyl_Food_Drinks","lat":"51.13027540","long":"4.56928260","store_key":1515,"city":"Lier"},{"name":"Chelsea Records","lat":"51.21731650","long":"4.39574290","store_key":1547,"city":"Antwerpen"},{"name":"Giraffe Leuven","lat":"50.88069153","long":"4.71227694","store_key":1549,"city":"Leuven"},{"name":"Compact Center - Ostensche Ploate","lat":"51.22780228","long":"2.91990495","store_key":1633,"city":"Oostende"},{"name":"DUST DEALERS","lat":"50.83131560","long":"4.34325210","store_key":1634,"city":"Bruxelles"},{"name":"Ramd'Âm","lat":"50.46696210","long":"4.86397410","store_key":1703,"city":"Namur"},{"name":"Pêle-Mêle Bruxelles","lat":"50.84421921","long":"4.34502077","store_key":1757,"city":"Bruxelles"},{"name":"Backtrack","lat":"51.21975660","long":"4.40516040","store_key":1774,"city":"Antwerpen"},{"name":"72 Records","lat":"50.84572983","long":"4.34955883","store_key":1788,"city":"Bruxelles"},{"name":"Fnac","lat":"50.64405590","long":"5.57256390","store_key":872,"city":"Liège"},{"name":"Juke Box Shop","lat":"50.84591230","long":"4.34672930","store_key":1950,"city":"Bruxelles"},{"name":"Lost in Sound","lat":"50.64716260","long":"5.57918330","store_key":2037,"city":"Liège"},{"name":"Vinyl Corner","lat":"50.82517230","long":"3.26097560","store_key":2065,"city":"Kortrijk"},{"name":"Space Fuzz Records","lat":"50.98705540","long":"5.05492890","store_key":2189,"city":"Diest"},{"name":"Fnac","lat":"50.67035060","long":"4.61636120","store_key":872,"city":"Ottignies-Louvain-la-Neuve"},{"name":"MusikAalst","lat":"50.93952972","long":"4.04007968","store_key":2339,"city":"Aalst"},{"name":"DUNE","lat":"51.05794907","long":"3.72093511","store_key":2455,"city":"Gent"},{"name":"Popcorn Music","lat":"50.94879210","long":"3.12951700","store_key":2458,"city":"Roeselare"},{"name":"Cherry Picker","lat":"51.21035210","long":"3.23522950","store_key":2533,"city":"Brugge"},{"name":"Fnac","lat":"51.20888420","long":"3.22331060","store_key":872,"city":"Brugge"},{"name":"Fnac","lat":"50.41836600","long":"4.45907200","store_key":872,"city":"Charleroi"},{"name":"Game Buster","lat":"51.21198580","long":"4.40285200","store_key":2784,"city":"Antwerpen"},{"name":"Toekan Records","lat":"51.07556700","long":"4.72560120","store_key":2901,"city":"Heist-op-den-Berg"},{"name":"Gigaswing","lat":"50.92981720","long":"5.33515310","store_key":2974,"city":"Hasselt"},{"name":"Crevette Records","lat":"50.83783340","long":"4.34761810","store_key":2996,"city":"Bruxelles"},{"name":"Visé Musique","lat":"50.73742040","long":"5.68847660","store_key":3017,"city":"Visé"},{"name":"La Boîte à Musique","lat":"50.84304470","long":"4.35859830","store_key":3129,"city":"Bruxelles"},{"name":"Lido Music","lat":"50.46736110","long":"4.86282680","store_key":3130,"city":"Namur"},{"name":"Den Elder","lat":"51.21057390","long":"3.23578550","store_key":3147,"city":"Brugge"},{"name":"Morbus Gravis - Music Space","lat":"51.21296990","long":"4.41886550","store_key":3204,"city":"Antwerpen"},{"name":"Disque tu veux","lat":"50.44436700","long":"3.82061790","store_key":3221,"city":"Saint-Ghislain"},{"name":"Vynilla Record Shop","lat":"51.04536010","long":"3.72287410","store_key":3376,"city":"Gent"},{"name":"Arlequin","lat":"50.84469980","long":"4.35017660","store_key":3400,"city":"Bruxelles"},{"name":"Just For The Record","lat":"50.93039650","long":"5.33328090","store_key":1128,"city":"Hasselt"},{"name":"Fnac","lat":"51.21922810","long":"4.40285600","store_key":872,"city":"Antwerpen"},{"name":"Hors Serie","lat":"50.84580231","long":"4.34916592","store_key":3745,"city":"Bruxelles"},{"name":"retro vinyl lounge","lat":"50.93739010","long":"4.04141680","store_key":3779,"city":"Aalst"},{"name":"Music Express","lat":"51.03335450","long":"2.86080690","store_key":3780,"city":"Diksmuide"},{"name":"Fnac","lat":"50.87943530","long":"4.70589310","store_key":872,"city":"Leuven"},{"name":"Tweedehandswinkel Bonte","lat":"51.17710495","long":"3.22785592","store_key":3913,"city":"Brugge"},{"name":"Veals & Geeks","lat":"50.84552383","long":"4.34851789","store_key":4000,"city":"Bruxelles"},{"name":"Elektrocution","lat":"50.84706497","long":"4.35040998","store_key":4021,"city":"Bruxelles"},{"name":"Panoply Books & Records","lat":"51.22173610","long":"4.40258040","store_key":4146,"city":"Antwerpen"},{"name":"Ty Records","lat":"50.74370290","long":"3.21704840","store_key":4176,"city":"Mouscron"},{"name":"Vinylkitchen","lat":"51.04549026","long":"3.73482490","store_key":4348,"city":"Gent"},{"name":"Wally's Groove World","lat":"51.21948242","long":"4.41358280","store_key":4359,"city":"Antwerpen"},{"name":"Sax - World Music","lat":"50.87872120","long":"4.69932690","store_key":4375,"city":"Leuven"},{"name":"Fat Kat Records Antwerpen","lat":"51.21986310","long":"4.40376950","store_key":4431,"city":"Antwerpen"},{"name":"United Scooters","lat":"50.72250540","long":"4.24927890","store_key":4541,"city":"Halle"},{"name":"[CHEZ PIAS]","lat":"50.85055500","long":"4.35997650","store_key":4558,"city":"Bruxelles"},{"name":"The Collector","lat":"50.84825897","long":"4.35089016","store_key":4895,"city":"Bruxelles"},{"name":"Inside Records","lat":"51.22003220","long":"4.41367480","store_key":4907,"city":"Antwerpen"},{"name":"CD & Vinyl Pick-up Shop","lat":"51.02647930","long":"5.26588080","store_key":4971,"city":"Heusden-Zolder"},{"name":"Lost Culture Records","lat":"51.07492230","long":"4.70960010","store_key":5017,"city":"Heist-op-den-Berg"},{"name":"WARRECORDS","lat":"51.21971980","long":"4.40519110","store_key":5026,"city":"Antwerpen"},{"name":"Vinylfort","lat":"50.92743140","long":"4.43139020","store_key":5045,"city":"Vilvoorde"},{"name":"The Rocking Bull","lat":"51.22006680","long":"4.41442130","store_key":5226,"city":"Antwerpen"},{"name":"Caroline Music","lat":"50.84732056","long":"4.34832907","store_key":5227,"city":"Bruxelles"},{"name":"Topdisc","lat":"51.06415176","long":"3.10135198","store_key":5248,"city":"Torhout"},{"name":"dunk!store","lat":"51.04250717","long":"3.71944690","store_key":5273,"city":"Gent"},{"name":"George and the Bear","lat":"50.97265244","long":"5.48757696","store_key":5410,"city":"Genk"},{"name":"Grey Vinyl Treasures","lat":"51.22053070","long":"4.40328290","store_key":5513,"city":"Antwerpen"},{"name":"K-Records Dj Shop & Distribution","lat":"51.05905914","long":"4.62731218","store_key":5554,"city":"Putte"},{"name":"Bilbo Records","lat":"50.87876129","long":"4.70561314","store_key":5572,"city":"Leuven"},{"name":"BPM Recordstore","lat":"50.53680910","long":"3.52635200","store_key":5587,"city":"Antoing"},{"name":"Fonorama","lat":"50.99671860","long":"5.33733640","store_key":5630,"city":"Zonhoven"},{"name":"Ernest Shop","lat":"50.57792200","long":"4.07150500","store_key":5707,"city":"Soignies"},{"name":"ZoeZoe Records","lat":"51.05585500","long":"3.72532140","store_key":5710,"city":"Gent"},{"name":"Kosmic Music","lat":"50.71823290","long":"4.39770960","store_key":5783,"city":"Waterloo"},{"name":"Tony's Music House","lat":"51.15948105","long":"4.99000597","store_key":5905,"city":"Geel"},{"name":"Evasions Livres 1","lat":"50.84545135","long":"4.34891081","store_key":5919,"city":"Bruxelles"},{"name":"Disco-Bath","lat":"50.64628350","long":"5.58193640","store_key":5979,"city":"Liège"},{"name":"Retro Shack","lat":"51.23207580","long":"2.92131520","store_key":6033,"city":"Oostende"},{"name":"Technology Factory","lat":"51.20651627","long":"4.39062023","store_key":6133,"city":"Antwerpen"},{"name":"Disquaire - Ets Vansippe","lat":"50.41199110","long":"4.16898300","store_key":6149,"city":"Binche"},{"name":"Cook & Book","lat":"50.84803391","long":"4.43729782","store_key":6169,"city":"Woluwe-Saint-Lambert"},{"name":"Disc Kid","lat":"50.92242150","long":"5.68584670","store_key":6227,"city":"Rekem"},{"name":"Vinyl & Chill","lat":"50.85235410","long":"2.88259130","store_key":6230,"city":"Ieper"},{"name":"Flugzeug Music Art Design","lat":"50.88189020","long":"4.71234400","store_key":6369,"city":"Leuven"},{"name":"Bookz&Booze","lat":"51.05517660","long":"3.72419500","store_key":6398,"city":"Gent"},{"name":"Imagine Coppée disquaire","lat":"50.40766830","long":"4.43983400","store_key":6607,"city":"Charleroi"},{"name":"Rolling Vinyles","lat":"50.79643080","long":"4.37355650","store_key":6612,"city":"Bruxelles"},{"name":"Music Media Corner","lat":"51.08531560","long":"4.36610420","store_key":6825,"city":"Boom"},{"name":"Balades Sonores Bruxelles","lat":"50.85454178","long":"4.36664391","store_key":6847,"city":"Bruxelles"},{"name":"Pêle-Mêle","lat":"50.81903458","long":"4.36239386","store_key":921,"city":"Bruxelles"},{"name":"Arlequin St Gilles","lat":"50.82957458","long":"4.34325695","store_key":6855,"city":"Bruxelles"},{"name":"Carnaby Records Sc","lat":"50.64319920","long":"5.58025570","store_key":6869,"city":"Liège"},{"name":"Consouling Store","lat":"51.05769140","long":"3.72646030","store_key":6892,"city":"Gent"},{"name":"Coffee & Vinyl","lat":"51.21044159","long":"4.39544201","store_key":6977,"city":"Antwerpen"},{"name":"NOISKI RECORDS - PLATENWINKEL","lat":"50.95722790","long":"4.20190440","store_key":7185,"city":"Opwijk"},{"name":"Music Mania Gent","lat":"51.04789190","long":"3.72745560","store_key":7324,"city":"Gent"},{"name":"Doctor Vinyl","lat":"50.84760284","long":"4.34687805","store_key":7426,"city":"Bruxelles"},{"name":"Park Music Sa","lat":"49.68278200","long":"5.81412560","store_key":7460,"city":"Arlon"},{"name":"Phonophil","lat":"50.40212980","long":"4.42931160","store_key":7502,"city":"Charleroi"}]