[{"name":"Hot.shot.vinyl","lat":"42.14534390","long":"24.75732240","store_key":488,"city":"Plovdiv"},{"name":"Vintage Stereo","lat":"42.69537735","long":"23.32146454","store_key":718,"city":"Sofia"},{"name":"TABA Record Store","lat":"42.68942820","long":"23.31771540","store_key":1049,"city":"Sofia"},{"name":"Dukyan Meloman / Дюкян Меломан","lat":"42.69375760","long":"23.32977690","store_key":2471,"city":"Sofia"},{"name":"Stefani Multimedia / Yo Music","lat":"42.69738040","long":"23.31912110","store_key":2563,"city":"Sofia"},{"name":"Vinyl Sound","lat":"42.70075989","long":"23.31861115","store_key":2848,"city":"Sofia"},{"name":"Vinyl's Homeplace \"SOUL SEARCHIN\"","lat":"42.14860535","long":"24.74989319","store_key":2969,"city":"Plovdiv"},{"name":"Vinyl Home Varna","lat":"43.20344410","long":"27.91955930","store_key":3455,"city":"Varna"},{"name":"The Records Corner","lat":"42.69110170","long":"23.31547090","store_key":3825,"city":"Sofia"},{"name":"Boogie Exchange","lat":"42.69456100","long":"23.31084061","store_key":4372,"city":"Sofia"},{"name":"Polymusic - Магазин за музика и филми","lat":"42.68660800","long":"23.31791900","store_key":4984,"city":"Sofia"},{"name":"Catch A Fire","lat":"42.69026000","long":"23.32172000","store_key":6378,"city":"Sofia"}]