[{"name":"Império Sebo e Antiquário","lat":"-3.12621188","long":"-60.02774048","store_key":35,"city":"Manaus"},{"name":"O Canto da Música","lat":"-8.28753185","long":"-35.97454071","store_key":99,"city":"Caruaru"},{"name":"Discos Fitas Viola de Ouro","lat":"-27.81639671","long":"-50.32861328","store_key":105,"city":"Lages"},{"name":"Riva Rock Discos","lat":"-22.90067230","long":"-47.05889990","store_key":155,"city":"Campinas"},{"name":"Dynasty Raridades","lat":"-23.54365349","long":"-46.64019775","store_key":259,"city":"São Paulo"},{"name":"Cel som discos","lat":"-23.54363170","long":"-46.64009870","store_key":260,"city":"São Paulo"},{"name":"Full Vinyl Store","lat":"-3.73381080","long":"-38.49523120","store_key":278,"city":"Fortaleza"},{"name":"Sebo Estação Cultural","lat":"-23.18625690","long":"-45.88501090","store_key":385,"city":"São José dos Campos"},{"name":"Sebo Luis Borges","lat":"-23.54571342","long":"-46.63968277","store_key":387,"city":"São Paulo"},{"name":"Dance Division Records","lat":"-23.56423759","long":"-46.66700745","store_key":436,"city":"São Paulo"},{"name":"Vinil Alternativo","lat":"-8.06206180","long":"-34.88374980","store_key":497,"city":"Recife"},{"name":"Loja Billy Willy","lat":"-28.93611145","long":"-49.48466873","store_key":556,"city":"Araranguá"},{"name":"Discos de Vinil Feira Largo da Ordem de Curitiba","lat":"-25.42775630","long":"-49.27220610","store_key":589,"city":"Curitiba"},{"name":"Beco do Disco","lat":"-23.02471070","long":"-45.55588330","store_key":664,"city":"Taubaté"},{"name":"Embaixada Do Rock","lat":"-29.76633910","long":"-51.14824910","store_key":670,"city":"São Leopoldo"},{"name":"Augusta Discos","lat":"-23.55566025","long":"-46.65784073","store_key":675,"city":"São Paulo"},{"name":"Sampa Discos LTDA","lat":"-23.54287690","long":"-46.63964829","store_key":676,"city":"São Paulo"},{"name":"Nostalgia","lat":"-23.54399109","long":"-46.63959122","store_key":677,"city":"São Paulo"},{"name":"Araça Azul Discos","lat":"-23.54334700","long":"-46.63871200","store_key":678,"city":"São Paulo"},{"name":"Mr. CD/DVD","lat":"-23.54408264","long":"-46.63965988","store_key":679,"city":"São Paulo"},{"name":"Pop's Discos","lat":"-23.55789600","long":"-46.67751300","store_key":751,"city":"São Paulo"},{"name":"Dark Side Records","lat":"-28.66805280","long":"-49.42448420","store_key":793,"city":"Criciúma"},{"name":"Sebo Musical Center","lat":"-15.73893550","long":"-47.88874140","store_key":794,"city":"Brasilia"},{"name":"Casarão do Vinil","lat":"-23.55382156","long":"-46.59781647","store_key":809,"city":"São Paulo"},{"name":"Midi Maxi Music","lat":"-23.18443871","long":"-45.88589859","store_key":831,"city":"São José dos Campos"},{"name":"Transa Som Discos","lat":"-23.49974590","long":"-47.45920610","store_key":852,"city":"Sorocaba"},{"name":"Badauê - Livraria, vinil e Café","lat":"-14.79659040","long":"-39.03279380","store_key":867,"city":"Ilhéus"},{"name":"HEAVY METAL ROCK","lat":"-22.73863200","long":"-47.33139090","store_key":868,"city":"Americana"},{"name":"Mundo dos Cds, Dvds e Bazares","lat":"-22.90608610","long":"-43.18143220","store_key":970,"city":"Rio de Janeiro"},{"name":"A Magica do Hip Hop","lat":"-23.54409200","long":"-46.63969420","store_key":972,"city":"São Paulo"},{"name":"Mega Som LPs","lat":"-30.03297234","long":"-51.22808456","store_key":1022,"city":"Porto Alegre"},{"name":"Fatiado Discos","lat":"-23.54208770","long":"-46.68174020","store_key":1023,"city":"São Paulo"},{"name":"Sound of Fish","lat":"-23.96702957","long":"-46.33377838","store_key":1026,"city":"Santos"},{"name":"Trato Feito Petrópolis","lat":"-22.51222410","long":"-43.17962350","store_key":1064,"city":"Petrópolis"},{"name":"Bric Conceição","lat":"-30.02805500","long":"-51.21928600","store_key":1114,"city":"Porto Alegre"},{"name":"Curto Vinil","lat":"-22.93939972","long":"-43.17672348","store_key":1115,"city":"Rio de Janeiro"},{"name":"Patuá Discos","lat":"-23.55518723","long":"-46.69057465","store_key":1116,"city":"São Paulo"},{"name":"Faunus Records","lat":"-22.79471016","long":"-43.30332565","store_key":1235,"city":"Duque de Caxias"},{"name":"Gera Discos","lat":"-19.92128000","long":"-43.94217200","store_key":1308,"city":"Belo Horizonte"},{"name":"Disconcert","lat":"-23.54232380","long":"-46.67158800","store_key":1325,"city":"São Paulo"},{"name":"Sabiá Discos","lat":"-23.54392250","long":"-46.64836510","store_key":1353,"city":"São Paulo"},{"name":"USADOS COM ARTE discos de vinil","lat":"-19.92471770","long":"-43.93790910","store_key":1396,"city":"Belo Horizonte"},{"name":"O Alienígena - Espaço Cultural®️","lat":"-3.13559008","long":"-60.01996994","store_key":1398,"city":"Manaus"},{"name":"Music Matters","lat":"-30.02854347","long":"-51.21419144","store_key":1483,"city":"Porto Alegre"},{"name":"Toca Do Vinil Discos","lat":"-26.29415530","long":"-48.85384620","store_key":1608,"city":"Joinville"},{"name":"Promosampa Discos e Livros LTDA","lat":"-23.54294205","long":"-46.63914108","store_key":1617,"city":"São Paulo"},{"name":"Chico & Zico","lat":"-23.54361343","long":"-46.64019394","store_key":1618,"city":"São Paulo"},{"name":"Baratos da Ribeiro","lat":"-22.95257310","long":"-43.18610070","store_key":1623,"city":"Rio de Janeiro"},{"name":"Sempre Música","lat":"-22.92754420","long":"-43.17753620","store_key":1659,"city":"Rio de Janeiro"},{"name":"Vinil SP UP LPS","lat":"-23.54553795","long":"-46.63989258","store_key":1665,"city":"São Paulo"},{"name":"Nova Garagem","lat":"-25.40893420","long":"-49.23760970","store_key":1716,"city":"Curitiba"},{"name":"SEBO CAMOBI","lat":"-29.70521820","long":"-53.72264650","store_key":1718,"city":"Camobi"},{"name":"Outside Rock","lat":"-22.90250969","long":"-43.28107071","store_key":1789,"city":"Rio de Janeiro"},{"name":"Planet Rock","lat":"-5.85898685","long":"-35.23255157","store_key":1801,"city":"Natal"},{"name":"Promo Only Djs","lat":"-23.54392624","long":"-46.63953781","store_key":1819,"city":"São Paulo"},{"name":"Fiel Discos","lat":"-23.56679040","long":"-46.69564960","store_key":1943,"city":"São Paulo"},{"name":"Roots Records","lat":"-27.59651080","long":"-48.55245390","store_key":2024,"city":"Florianópolis"},{"name":"Sertão Discos","lat":"-23.49105263","long":"-46.44233322","store_key":2050,"city":"São Paulo"},{"name":"Only Music Records","lat":"-22.90638542","long":"-43.18169785","store_key":2142,"city":"Rio de Janeiro"},{"name":"Krautrock Point","lat":"-22.92408752","long":"-43.22397232","store_key":2158,"city":"Rio de Janeiro"},{"name":"Arquivo Musical","lat":"-22.90425682","long":"-43.17715454","store_key":2165,"city":"Rio de Janeiro"},{"name":"Embaixada Dance Music","lat":"-23.54573059","long":"-46.63970184","store_key":2187,"city":"São Paulo"},{"name":"Paradiscos","lat":"-22.90624809","long":"-47.05784225","store_key":2203,"city":"Campinas"},{"name":"Bolacha Preta","lat":"-3.74904394","long":"-38.51538086","store_key":2234,"city":"Fortaleza"},{"name":"Ponto Do Disco","lat":"-14.85017178","long":"-40.83938405","store_key":2271,"city":"Vitória da Conquista"},{"name":"Casa Elefante","lat":"-23.54423580","long":"-46.64881210","store_key":2316,"city":"São Paulo"},{"name":"Discos Antigos O Augusto","lat":"-3.72527830","long":"-38.52966620","store_key":2423,"city":"Fortaleza"},{"name":"Opus","lat":"-3.72603440","long":"-38.52944370","store_key":2424,"city":"Fortaleza"},{"name":"Zoyd Music","lat":"-23.54404449","long":"-46.63975906","store_key":2436,"city":"São Paulo"},{"name":"Gato Preto - Discos & Livros","lat":"-25.38557080","long":"-51.46818390","store_key":2481,"city":"Guarapuava"},{"name":"Stoned Discos Memorabilia Colecionaveis","lat":"-30.03077000","long":"-51.14535200","store_key":2499,"city":"Porto Alegre"},{"name":"Conceição Discos","lat":"-23.53858600","long":"-46.65364800","store_key":2518,"city":"São Paulo"},{"name":"O Porão Discos","lat":"-23.42165110","long":"-51.89546350","store_key":2547,"city":"Maringá"},{"name":"Sebo Espaço Alternativo","lat":"-25.42607960","long":"-49.27093950","store_key":2615,"city":"Curitiba"},{"name":"Records & Beers","lat":"-23.54587180","long":"-46.64033340","store_key":2629,"city":"São Paulo"},{"name":"Sebo MUTANTES Bolacharia","lat":"-22.72465600","long":"-47.64415700","store_key":2704,"city":"Piracicaba"},{"name":"Rasta","lat":"-30.00896645","long":"-51.15169525","store_key":2841,"city":"Porto Alegre"},{"name":"Patti Songs Ltda","lat":"-19.92004430","long":"-43.93904050","store_key":2842,"city":"Belo Horizonte"},{"name":"Discos Incomum","lat":"-23.54628944","long":"-46.64071274","store_key":2844,"city":"São Paulo"},{"name":"Tuarez Discos","lat":"-23.54581270","long":"-46.63998610","store_key":2852,"city":"São Paulo"},{"name":"Facchi Records","lat":"-22.95495840","long":"-43.18883760","store_key":2859,"city":"Rio de Janeiro"},{"name":"Die Hard Classic Rock and Heavy Metal Collectibles","lat":"-23.54375900","long":"-46.63876720","store_key":2862,"city":"São Paulo"},{"name":"Recordistori Discos","lat":"-22.91061980","long":"-43.17677180","store_key":2867,"city":"Rio de Janeiro"},{"name":"Garagem do Som","lat":"-29.68987840","long":"-53.82017530","store_key":2884,"city":"Santa Maria"},{"name":"Baratos Afins","lat":"-23.54425240","long":"-46.63912110","store_key":2905,"city":"São Paulo"},{"name":"Ponto do Disco Espaço da Musica","lat":"-25.43373580","long":"-49.27184640","store_key":3050,"city":"Curitiba"},{"name":"Melômano Discos","lat":"-23.42456290","long":"-51.93601880","store_key":3059,"city":"Maringá"},{"name":"Dom Pedro Discos","lat":"-15.74765020","long":"-47.88387930","store_key":3085,"city":"Brasilia"},{"name":"Prisma Discos","lat":"-29.91923490","long":"-51.17951660","store_key":3086,"city":"Canoas"},{"name":"Sonic Discos","lat":"-25.43487430","long":"-49.27721610","store_key":3088,"city":"Curitiba"},{"name":"Scheherazade","lat":"-22.92399788","long":"-43.23291779","store_key":3181,"city":"Rio de Janeiro"},{"name":"Velvet","lat":"-23.54391479","long":"-46.63964844","store_key":3182,"city":"São Paulo"},{"name":"Midialouca","lat":"-12.97394480","long":"-38.50838770","store_key":3190,"city":"Salvador"},{"name":"Baú Dos Discos","lat":"-23.54613113","long":"-46.64070511","store_key":3200,"city":"São Paulo"},{"name":"Rock Shock","lat":"-23.54399872","long":"-46.63967514","store_key":3201,"city":"São Paulo"},{"name":"VinylMania","lat":"-23.54357910","long":"-46.64016724","store_key":3205,"city":"São Paulo"},{"name":"Elwo Cd e Dvd","lat":"-26.29972330","long":"-48.85153760","store_key":3225,"city":"Joinville"},{"name":"Armazém do Livro BH","lat":"-19.92902565","long":"-43.93275452","store_key":3234,"city":"Belo Horizonte"},{"name":"Neves Records","lat":"-22.76334000","long":"-47.36354828","store_key":3243,"city":"Americana"},{"name":"Óliver CDs Discos e Tapes","lat":"-7.11238680","long":"-34.82894580","store_key":3247,"city":"Tambaú"},{"name":"Sebo Café","lat":"-24.01302338","long":"-46.43165207","store_key":3262,"city":"Praia Grande"},{"name":"Passa Disco","lat":"-8.04469776","long":"-34.89299774","store_key":3277,"city":"Recife"},{"name":"Space X","lat":"-22.92738710","long":"-45.46015910","store_key":3307,"city":"Pindamonhangaba"},{"name":"Figaro Used Books","lat":"-25.43743520","long":"-49.27701420","store_key":3312,"city":"Curitiba"},{"name":"Midwest Discos","lat":"-22.22201270","long":"-49.95270430","store_key":3315,"city":"Marília"},{"name":"The Scream Discos","lat":"-23.54489480","long":"-46.63879580","store_key":3337,"city":"São Paulo"},{"name":"Amigos do Vinil ES","lat":"-20.34189300","long":"-40.28896620","store_key":3361,"city":"Vila Velha"},{"name":"CD Rock Store","lat":"-7.20534420","long":"-48.21670151","store_key":3443,"city":"Araguaína"},{"name":"Música Urbana","lat":"-7.11781979","long":"-34.88337326","store_key":3499,"city":"João Pessoa"},{"name":"HIT THE DECK DISCOS","lat":"-23.55601692","long":"-46.65761185","store_key":3566,"city":"São Paulo"},{"name":"Planet Rock","lat":"-19.91994300","long":"-43.93897000","store_key":1801,"city":"Belo Horizonte"},{"name":"Museu do Disco","lat":"-21.76155472","long":"-43.34494400","store_key":3583,"city":"Juiz de Fora"},{"name":"Livraria Silverio","lat":"-22.90558052","long":"-43.18260574","store_key":3594,"city":"Rio de Janeiro"},{"name":"78 Rotações Discos e Audio","lat":"-3.73423520","long":"-38.51047480","store_key":3623,"city":"Fortaleza"},{"name":"Tuaregs Discos","lat":"-23.54581451","long":"-46.63998795","store_key":3757,"city":"São Paulo"},{"name":"Sebo Luis Borges","lat":"-23.54658699","long":"-46.64088821","store_key":387,"city":"São Paulo"},{"name":"Extreme Noise Discos","lat":"-23.54569740","long":"-46.63974530","store_key":3808,"city":"São Paulo"},{"name":"Som Livre Discos","lat":"-16.67287460","long":"-49.25203080","store_key":3809,"city":"Goiânia"},{"name":"Bau dos discos","lat":"-19.92134285","long":"-43.94215012","store_key":3898,"city":"Belo Horizonte"},{"name":"Madrahgora Música e Fotografia","lat":"-19.91797220","long":"-43.93467040","store_key":3899,"city":"Belo Horizonte"},{"name":"Loja DiscoX","lat":"-22.54992020","long":"-47.91679730","store_key":3933,"city":"São Pedro"},{"name":"Print Vinil","lat":"-29.68952130","long":"-51.45883420","store_key":3960,"city":"Montenegro"},{"name":"Possebon Antiquarium","lat":"-29.25367130","long":"-51.53006010","store_key":3961,"city":"Garibaldi"},{"name":"Locomotiva Discos","lat":"-23.54615800","long":"-46.64068780","store_key":4017,"city":"São Paulo"},{"name":"London Calling Discos","lat":"-23.54426990","long":"-46.63944360","store_key":4055,"city":"São Paulo"},{"name":"Relíquias Musicais","lat":"-19.92134290","long":"-43.94215140","store_key":4070,"city":"Belo Horizonte"},{"name":"Eric Discos","lat":"-23.56642532","long":"-46.68791199","store_key":4112,"city":"São Paulo"},{"name":"Be Bop Discos","lat":"-26.92060089","long":"-49.06742096","store_key":4113,"city":"Blumenau"},{"name":"Livraria Colecionador","lat":"-29.16677475","long":"-51.18217468","store_key":4129,"city":"Caxias do Sul"},{"name":"Power Discos","lat":"-30.03480148","long":"-51.22582626","store_key":4130,"city":"Porto Alegre"},{"name":"Tamba Discos","lat":"-30.02977620","long":"-51.22730740","store_key":4131,"city":"Porto Alegre"},{"name":"Blackout Discos","lat":"-8.06000020","long":"-34.88237470","store_key":4187,"city":"Recife"},{"name":"Together Discos","lat":"-23.64980096","long":"-46.70322476","store_key":4233,"city":"São Paulo"},{"name":"Vinylmania Discos Ltda ME","lat":"-23.54362300","long":"-46.64010100","store_key":4323,"city":"São Paulo"},{"name":"Headbanger","lat":"-22.92399788","long":"-43.23291779","store_key":2978,"city":"Rio de Janeiro"},{"name":"Raridade","lat":"-25.43126490","long":"-49.27973600","store_key":4401,"city":"Curitiba"},{"name":"Toca do Disco","lat":"-30.02998710","long":"-51.21524160","store_key":4409,"city":"Porto Alegre"},{"name":"SEREN.O","lat":"-23.54359055","long":"-46.64009857","store_key":4421,"city":"São Paulo"},{"name":"The Records","lat":"-23.54626050","long":"-46.64083450","store_key":4513,"city":"São Paulo"},{"name":"Mechanix","lat":"-23.54355560","long":"-46.63860960","store_key":4523,"city":"São Paulo"},{"name":"Raros Play Discos","lat":"-23.54572790","long":"-46.63978090","store_key":4525,"city":"São Paulo"},{"name":"Sunset Beer & Records","lat":"-23.55663681","long":"-46.69852066","store_key":4567,"city":"São Paulo"},{"name":"Livraria Catarinense","lat":"-26.91059685","long":"-48.67095184","store_key":4650,"city":"Itajaí"},{"name":"Medusa Records","lat":"-23.54593750","long":"-46.64029220","store_key":89,"city":"São Paulo"},{"name":"Lovinyl Records","lat":"-22.90394670","long":"-43.17954860","store_key":4723,"city":"Rio de Janeiro"},{"name":"Planet CD","lat":"-3.72603440","long":"-38.52944370","store_key":4842,"city":"Fortaleza"},{"name":"Jazigo Loja & Distro","lat":"-3.74039210","long":"-38.53576310","store_key":4843,"city":"Fortaleza"},{"name":"Digitraxx","lat":"-19.92396110","long":"-43.94114500","store_key":4858,"city":"Belo Horizonte"},{"name":"Universal Music","lat":"-3.72667240","long":"-38.52908960","store_key":4935,"city":"Fortaleza"},{"name":"Aurisom","lat":"-12.97365590","long":"-38.51090790","store_key":4936,"city":"Salvador"},{"name":"Discomania","lat":"-23.55155563","long":"-46.65135574","store_key":4957,"city":"São Paulo"},{"name":"Aqualung Records","lat":"-23.54385100","long":"-46.63881920","store_key":4958,"city":"São Paulo"},{"name":"Musicale","lat":"-22.97961617","long":"-43.19092178","store_key":4992,"city":"Rio de Janeiro"},{"name":"Jam Sons Raros","lat":"-29.68764990","long":"-51.13165650","store_key":5000,"city":"Novo Hamburgo"},{"name":"Cogumelo Discos","lat":"-19.92392159","long":"-43.94106674","store_key":5001,"city":"Belo Horizonte"},{"name":"Sebo Uraricoera","lat":"-21.79936981","long":"-48.18120575","store_key":5002,"city":"Araraquara"},{"name":"Point Rock Discos","lat":"-19.92004395","long":"-43.93904114","store_key":5003,"city":"Belo Horizonte"},{"name":"Good Times","lat":"-23.18437160","long":"-45.88585570","store_key":72,"city":"São José dos Campos"},{"name":"Bobby Digital","lat":"-29.68868300","long":"-53.81450000","store_key":5047,"city":"Santa Maria"},{"name":"Arco da Velha Bazar & Brechó Pop","lat":"-20.46541977","long":"-54.61145020","store_key":5092,"city":"Campo Grande"},{"name":"12inches Brasil","lat":"-22.92835100","long":"-43.35629800","store_key":5093,"city":"Rio de Janeiro"},{"name":"Sebo Ponto de Cultura","lat":"-20.33410000","long":"-40.29867700","store_key":5094,"city":"Vila Velha"},{"name":"Esporro Records","lat":"-30.06495890","long":"-51.20766230","store_key":5224,"city":"Porto Alegre"},{"name":"Blue Sonic","lat":"-23.54569700","long":"-46.63974500","store_key":5232,"city":"São Paulo"},{"name":"Boca do Disco","lat":"-30.03294563","long":"-51.22698975","store_key":5297,"city":"Porto Alegre"},{"name":"Hunter Records","lat":"-23.54361520","long":"-46.63881110","store_key":5338,"city":"São Paulo"},{"name":"Engenharia do Vinil","lat":"-23.54581260","long":"-46.63998610","store_key":5340,"city":"São Paulo"},{"name":"Junior Discos","lat":"-22.90660477","long":"-43.18171310","store_key":5406,"city":"Rio de Janeiro"},{"name":"Almanac Library & Sebo","lat":"-20.53586388","long":"-47.39821625","store_key":5408,"city":"Franca"},{"name":"Trem Azul Discos","lat":"-19.92647850","long":"-43.93833330","store_key":5409,"city":"Belo Horizonte"},{"name":"Made in Quebrada discos","lat":"-23.54626490","long":"-46.64084150","store_key":5483,"city":"São Paulo"},{"name":"Supernut MaraRecords","lat":"-22.95337486","long":"-43.19510651","store_key":5521,"city":"Rio de Janeiro"},{"name":"Jazz & Companhia Discos","lat":"-23.41079000","long":"-51.94580890","store_key":5543,"city":"Maringá"},{"name":"Sensorial Cervejas, Cafés e Discos","lat":"-23.55610630","long":"-46.65752060","store_key":5593,"city":"São Paulo"},{"name":"Casa da Música","lat":"-22.55347740","long":"-47.39529620","store_key":5662,"city":"Limeira"},{"name":"Disco Voador","lat":"-29.68427330","long":"-53.82104300","store_key":5668,"city":"Santa Maria"},{"name":"Big Papa Records","lat":"-23.54624900","long":"-46.64054100","store_key":5672,"city":"São Paulo"},{"name":"Densidade Do Som","lat":"-23.56130750","long":"-46.63476880","store_key":5673,"city":"São Paulo"},{"name":"Sebo e Livraria Lebrasil","lat":"-22.90094020","long":"-47.05948740","store_key":5708,"city":"Campinas"},{"name":"Sebomania Toys","lat":"-25.42766390","long":"-49.27143830","store_key":5709,"city":"Curitiba"},{"name":"Música Rara Ltda","lat":"-19.92506360","long":"-43.94150310","store_key":5739,"city":"Belo Horizonte"},{"name":"Classic Rock","lat":"-30.03064000","long":"-51.23190100","store_key":5741,"city":"Porto Alegre"},{"name":"Loja Mutantes","lat":"-12.98193741","long":"-38.51611710","store_key":5742,"city":"Salvador"},{"name":"Canto das Letras","lat":"-22.02341770","long":"-47.89293440","store_key":5868,"city":"São Carlos"},{"name":"Garimpo Cultural / Corsário Discos","lat":"-23.54569740","long":"-46.63974530","store_key":5944,"city":"São Paulo"},{"name":"Estrando","lat":"-23.54393959","long":"-46.63970184","store_key":5945,"city":"São Paulo"},{"name":"Vinil do Mustafa","lat":"-22.92109250","long":"-43.19012590","store_key":5964,"city":"Rio de Janeiro"},{"name":"Amo Lps Discos","lat":"-26.88989449","long":"-49.09813690","store_key":5986,"city":"Blumenau"},{"name":"Época Som","lat":"-30.03316810","long":"-51.22755970","store_key":6004,"city":"Porto Alegre"},{"name":"Monstro Discos","lat":"-16.67638410","long":"-49.25048510","store_key":6097,"city":"Goiânia"},{"name":"zeppelin rock wear","lat":"-30.03055110","long":"-51.22706910","store_key":6111,"city":"Porto Alegre"},{"name":"Revivendo Discos & Livros","lat":"-23.54865646","long":"-46.64381027","store_key":6117,"city":"São Paulo"},{"name":"Gringos Records","lat":"-23.54391480","long":"-46.63957810","store_key":6118,"city":"São Paulo"},{"name":"Sempre Música Discos Ipanema","lat":"-22.98445760","long":"-43.20629510","store_key":6189,"city":"Rio de Janeiro"},{"name":"Hocus Pocus Com de Discos e CD's","lat":"-29.68616300","long":"-51.13538200","store_key":6197,"city":"Novo Hamburgo"},{"name":"Cdu's Discos Raros","lat":"-19.92130089","long":"-43.94210815","store_key":6198,"city":"Belo Horizonte"},{"name":"Edmar Discos","lat":"-3.76535296","long":"-38.54936218","store_key":6199,"city":"Fortaleza"},{"name":"Taberna do Vinil","lat":"-8.05795790","long":"-34.88548990","store_key":6243,"city":"Recife"},{"name":"Groovit Discos","lat":"-26.30101120","long":"-48.85060470","store_key":6250,"city":"Joinville"},{"name":"Joaquim Livros e Discos","lat":"-25.42858124","long":"-49.26880264","store_key":6289,"city":"Curitiba"},{"name":"Discoplay","lat":"-19.92189407","long":"-43.93753433","store_key":6339,"city":"Belo Horizonte"},{"name":"Bugio Discos","lat":"-30.03441100","long":"-51.22201470","store_key":6341,"city":"Porto Alegre"},{"name":"Acústica CDs","lat":"-19.93910027","long":"-43.93670273","store_key":6342,"city":"Belo Horizonte"},{"name":"Disqueria Música e Leitura","lat":"-23.97186089","long":"-46.32446289","store_key":6344,"city":"Santos"},{"name":"Givaldo Discos","lat":"-15.83469510","long":"-48.10720070","store_key":6360,"city":"Brasilia"},{"name":"Jota Sebo and Lojão 2","lat":"-22.90228970","long":"-47.06792310","store_key":6396,"city":"Campinas"},{"name":"Savarin Music","lat":"-25.42979470","long":"-49.27506280","store_key":6417,"city":"Curitiba"},{"name":"Super Vinyl","lat":"-30.10366370","long":"-51.23513930","store_key":6469,"city":"Porto Alegre"},{"name":"Tumba do Faraó Discos","lat":"-27.61561370","long":"-48.62714020","store_key":6471,"city":"São José"},{"name":"La Macchina Del Tempo","lat":"-23.00260110","long":"-43.32217460","store_key":6480,"city":"Unknown"},{"name":"Bazar Som Três","lat":"-12.97955250","long":"-38.51228530","store_key":6531,"city":"Salvador"},{"name":"Florida Records","lat":"-23.54391479","long":"-46.63964844","store_key":6547,"city":"São Paulo"},{"name":"Purple Records Discos","lat":"-19.92004430","long":"-43.93904050","store_key":6557,"city":"Belo Horizonte"},{"name":"Enigma Discos","lat":"-26.92084010","long":"-49.06660870","store_key":5294,"city":"Blumenau"},{"name":"All Wave Discos","lat":"-19.91994286","long":"-43.93896866","store_key":6675,"city":"Belo Horizonte"},{"name":"Ajuda 39","lat":"-12.97483635","long":"-38.51218796","store_key":6678,"city":"Salvador"},{"name":"Densidage do Som","lat":"-23.54613495","long":"-46.64064789","store_key":6803,"city":"São Paulo"},{"name":"Stock Cultural","lat":"-23.54829570","long":"-46.64961620","store_key":6804,"city":"São Paulo"},{"name":"Som Lemos","lat":"-23.18089250","long":"-45.88719320","store_key":6805,"city":"São José dos Campos"},{"name":"Tracks","lat":"-22.97467790","long":"-43.22698890","store_key":6851,"city":"Rio de Janeiro"},{"name":"Big Papa Records","lat":"-23.54581270","long":"-46.63998610","store_key":5672,"city":"São Paulo"},{"name":"Rock Session","lat":"-22.92392310","long":"-43.22407180","store_key":6897,"city":"Rio de Janeiro"},{"name":"Darklands","lat":"-22.92387199","long":"-43.23306656","store_key":6898,"city":"Rio de Janeiro"},{"name":"Discos Raros","lat":"-3.72351750","long":"-38.51371880","store_key":6909,"city":"Fortaleza"},{"name":"Tok Discos","lat":"-3.73585892","long":"-38.49854279","store_key":6910,"city":"Fortaleza"},{"name":"Gordo Discos","lat":"-23.54363441","long":"-46.64019775","store_key":6923,"city":"São Paulo"},{"name":"Botija Discos","lat":"-3.74910593","long":"-38.53090668","store_key":6995,"city":"Fortaleza"},{"name":"Midiatorium Sebo & Vinil","lat":"-23.54847900","long":"-46.76355340","store_key":7023,"city":"Vila Yara"},{"name":"Bolacha discos e coisas","lat":"-8.04782867","long":"-34.89887238","store_key":7079,"city":"Recife"},{"name":"Demúsica","lat":"-19.92148080","long":"-43.94552450","store_key":7082,"city":"Belo Horizonte"},{"name":"Sempre Música","lat":"-22.51756096","long":"-44.10781479","store_key":1659,"city":"Volta Redonda"},{"name":"Túnel do Tempo","lat":"-8.28408680","long":"-35.97340430","store_key":7162,"city":"Caruaru"},{"name":"Discosaoleo","lat":"-1.45463800","long":"-48.49752808","store_key":7163,"city":"Belém"},{"name":"Hard Heavy","lat":"-22.93939510","long":"-43.17781110","store_key":7182,"city":"Rio de Janeiro"},{"name":"Sonzera Records","lat":"-23.54634460","long":"-46.64087000","store_key":7195,"city":"São Paulo"},{"name":"8\" Record Shop","lat":"-3.72368200","long":"-38.51783900","store_key":7200,"city":"Fortaleza"},{"name":"Garimpo Discos","lat":"-22.96790030","long":"-43.18506050","store_key":7205,"city":"Rio de Janeiro"},{"name":"Sebo & Lojão","lat":"-22.90072350","long":"-47.05932170","store_key":7211,"city":"Campinas"},{"name":"Sebo do Messias","lat":"-23.55232820","long":"-46.63508300","store_key":7244,"city":"São Paulo"},{"name":"Tropicália Discos","lat":"-22.90340440","long":"-43.17969260","store_key":7350,"city":"Rio de Janeiro"},{"name":"Na Figueredo","lat":"-1.45584030","long":"-48.48846850","store_key":7361,"city":"Belém"},{"name":"Lado C Discos","lat":"-23.54626050","long":"-46.64083450","store_key":7364,"city":"São Paulo"},{"name":"Disco 7 Vinil","lat":"-23.54626050","long":"-46.64083450","store_key":7365,"city":"São Paulo"},{"name":"Mr. Groove Records","lat":"-23.54391550","long":"-46.63957780","store_key":7373,"city":"São Paulo"},{"name":"Tony Hits","lat":"-23.54369800","long":"-46.64019200","store_key":7396,"city":"São Paulo"},{"name":"Tuca Discos","lat":"-23.54572868","long":"-46.63978195","store_key":7474,"city":"São Paulo"},{"name":"Sebo Luis Borges","lat":"-23.54605190","long":"-46.64011250","store_key":387,"city":"São Paulo"},{"name":"Truck's Discos Moda Cultura","lat":"-23.54391370","long":"-46.63964890","store_key":7483,"city":"São Paulo"},{"name":"Acervo Discos","lat":"-19.93590610","long":"-43.93519740","store_key":7564,"city":"Belo Horizonte"},{"name":"Golias Discos","lat":"-20.32025010","long":"-40.33439610","store_key":7628,"city":"Vitoria"}]