[{"name":"Roly Poly Records & Vintage","lat":"43.16154870","long":"-79.24063290","store_key":90,"city":"St. Catharines"},{"name":"Old Speakers","lat":"42.98481369","long":"-79.25096130","store_key":103,"city":"Welland"},{"name":"Le Rappel","lat":"45.56308190","long":"-73.65641710","store_key":106,"city":"Montréal"},{"name":"Franks Music","lat":"46.11460710","long":"-64.82349570","store_key":107,"city":"Moncton"},{"name":"ZAP Records","lat":"44.30659570","long":"-78.32030580","store_key":124,"city":"Peterborough"},{"name":"Moon Money Vintage","lat":"48.43537190","long":"-89.21933040","store_key":144,"city":"Thunder Bay"},{"name":"Sloth Records","lat":"51.03795130","long":"-114.07899570","store_key":170,"city":"Calgary"},{"name":"Musique-Disque Sonik","lat":"45.52173233","long":"-73.57511139","store_key":183,"city":"Montréal"},{"name":"Lukes Drug Mart","lat":"51.05309600","long":"-114.05133690","store_key":224,"city":"Calgary"},{"name":"Song & Script Music Store","lat":"43.67050590","long":"-79.38715640","store_key":292,"city":"Toronto"},{"name":"Blackbyrd Myoozik","lat":"51.03799280","long":"-114.08814340","store_key":298,"city":"Calgary"},{"name":"X-Disc-C Music","lat":"43.44869840","long":"-80.48449920","store_key":300,"city":"Kitchener"},{"name":"Sensation Musicale","lat":"45.40162540","long":"-72.72200840","store_key":304,"city":"Granby"},{"name":"Sound Exchange","lat":"49.88962173","long":"-97.15531921","store_key":31,"city":"Winnipeg"},{"name":"Dr. Disc","lat":"43.25905000","long":"-79.86716300","store_key":321,"city":"Hamilton"},{"name":"The Rad Zone","lat":"46.52058792","long":"-84.27408600","store_key":350,"city":"Sault Ste. Marie"},{"name":"Vinyl Records","lat":"49.28312480","long":"-123.11024900","store_key":353,"city":"Vancouver"},{"name":"Liquidation Treasures","lat":"49.10694240","long":"-122.73481560","store_key":379,"city":"Surrey"},{"name":"T+A Vinyl and Fashion","lat":"50.44694900","long":"-104.60365800","store_key":412,"city":"Regina"},{"name":"Vinyl Envy","lat":"48.42947290","long":"-123.35864590","store_key":413,"city":"Victoria"},{"name":"Planet of Sound","lat":"49.93791450","long":"-97.09251900","store_key":431,"city":"Winnipeg"},{"name":"Audiopile","lat":"49.26692880","long":"-123.06952340","store_key":626,"city":"Vancouver"},{"name":"Circus Books & Music","lat":"43.68003090","long":"-79.34006180","store_key":631,"city":"Toronto"},{"name":"Crash Landing Music","lat":"43.24776680","long":"-79.81837050","store_key":684,"city":"Hamilton"},{"name":"The ODDs & SODs Shoppe","lat":"45.35677120","long":"-75.73647280","store_key":689,"city":"Ottawa"},{"name":"Mindbomb Records","lat":"43.15845290","long":"-79.24507030","store_key":695,"city":"St. Catharines"},{"name":"The Beat Goes On","lat":"43.35464478","long":"-79.78398895","store_key":710,"city":"Burlington"},{"name":"ZAP Records","lat":"43.96016250","long":"-78.16359530","store_key":124,"city":"Cobourg"},{"name":"PCV Records","lat":"43.43371480","long":"-79.70147910","store_key":712,"city":"Oakville"},{"name":"Possible Worlds","lat":"45.41068000","long":"-75.70730940","store_key":713,"city":"Ottawa"},{"name":"Marché du Disque","lat":"45.38462250","long":"-73.99470760","store_key":714,"city":"Pincourt"},{"name":"Our Favourite Shop Records","lat":"43.12387848","long":"-79.20085907","store_key":715,"city":"Thorold"},{"name":"Vinyle Scene","lat":"45.42490670","long":"-75.71913990","store_key":725,"city":"Gatineau"},{"name":"Sunrise Records","lat":"49.03841930","long":"-123.08341690","store_key":727,"city":"Delta"},{"name":"TreaJah Isle","lat":"43.69779540","long":"-79.44125520","store_key":755,"city":"Toronto"},{"name":"Vinyl Dayz","lat":"45.82572937","long":"-77.11542511","store_key":845,"city":"Pembroke"},{"name":"Cosmos Records","lat":"43.64743042","long":"-79.40232086","store_key":905,"city":"Toronto"},{"name":"Brian's Record Option","lat":"44.23306200","long":"-76.49127750","store_key":912,"city":"Kingston"},{"name":"Vintage Vinyl & Hemp Emporium","lat":"50.39127410","long":"-105.53492310","store_key":927,"city":"Moose Jaw"},{"name":"Frequences Le Disquaire","lat":"45.62526370","long":"-72.94500900","store_key":945,"city":"Saint-Hyacinthe"},{"name":"Cédé Troqué","lat":"45.43344116","long":"-75.73295593","store_key":946,"city":"Gatineau"},{"name":"Jello Musique","lat":"48.53490480","long":"-71.64824450","store_key":947,"city":"Alma"},{"name":"Second Chance Records","lat":"43.07358070","long":"-79.95179000","store_key":990,"city":"Caledonia"},{"name":"Paramusic Records","lat":"43.65631104","long":"-79.37855530","store_key":998,"city":"Toronto"},{"name":"Press books. coffee. vinyl.","lat":"43.68785860","long":"-79.30461120","store_key":999,"city":"Toronto"},{"name":"Speed City Records","lat":"42.97122270","long":"-81.27707700","store_key":1000,"city":"London"},{"name":"Spin-It Records & Video","lat":"46.09069824","long":"-64.77155304","store_key":1002,"city":"Moncton"},{"name":"La Boîte Musicale","lat":"45.63888090","long":"-73.83648210","store_key":1005,"city":"Sainte-Thérèse"},{"name":"EROC Records","lat":"53.55817980","long":"-113.52991660","store_key":1062,"city":"Edmonton"},{"name":"Art Noise","lat":"44.23228020","long":"-76.48858220","store_key":1065,"city":"Kingston"},{"name":"Video Game Buzz","lat":"43.91362060","long":"-80.12585120","store_key":1132,"city":"Orangeville"},{"name":"Le Backstore","lat":"45.51666900","long":"-73.57393700","store_key":1149,"city":"Montréal"},{"name":"Bouquinerie Rock'n livre","lat":"46.81585700","long":"-71.21971600","store_key":1157,"city":"Québec"},{"name":"Moon's Records Cumberland","lat":"49.61878330","long":"-125.02884990","store_key":1165,"city":"Cumberland"},{"name":"Paradise Bound","lat":"43.65665720","long":"-79.40310080","store_key":1173,"city":"Toronto"},{"name":"Blackbyrd Myoozik","lat":"53.51837200","long":"-113.49912950","store_key":298,"city":"Edmonton"},{"name":"Into The Music","lat":"49.89747238","long":"-97.14129639","store_key":1176,"city":"Winnipeg"},{"name":"Argy's Records & Entertainment Shop","lat":"49.82190600","long":"-97.11406300","store_key":1177,"city":"Winnipeg"},{"name":"Cheeky Monkey","lat":"42.97155120","long":"-82.40740300","store_key":1226,"city":"Sarnia"},{"name":"Comix Plus & Music Exchange","lat":"48.43128430","long":"-89.23021890","store_key":1249,"city":"Thunder Bay"},{"name":"Quixotic Sounds","lat":"43.65377130","long":"-79.42623390","store_key":1278,"city":"Toronto"},{"name":"Nuggets Used Books","lat":"49.17206350","long":"-121.95615680","store_key":1282,"city":"Chilliwack"},{"name":"Orange Monkey Music","lat":"43.46662700","long":"-80.52333100","store_key":1283,"city":"Waterloo"},{"name":"Roller Records","lat":"44.26147079","long":"-80.54884338","store_key":1297,"city":"Flesherton"},{"name":"Old East Village Vinyl","lat":"42.99135500","long":"-81.22104300","store_key":1306,"city":"London"},{"name":"Sunrise Records","lat":"43.77572810","long":"-79.25744870","store_key":727,"city":"Toronto"},{"name":"(TEMPORARILY CLOSED) Sunrise Records","lat":"43.42476030","long":"-80.43857270","store_key":1399,"city":"Kitchener"},{"name":"Freecloud Records","lat":"53.55281830","long":"-113.49405670","store_key":1545,"city":"Edmonton"},{"name":"Turning Point","lat":"45.41599655","long":"-75.69734192","store_key":1552,"city":"Ottawa"},{"name":"Planet of Sound","lat":"45.39172170","long":"-75.68147360","store_key":431,"city":"Ottawa"},{"name":"Planet of Sound","lat":"43.64416504","long":"-79.41956329","store_key":431,"city":"Toronto"},{"name":"Village Vinyl Music Emporium","lat":"43.60068960","long":"-79.50487730","store_key":1639,"city":"Toronto"},{"name":"The Beat Goes On","lat":"43.20500760","long":"-79.89267640","store_key":710,"city":"Hamilton"},{"name":"Vinyl Room","lat":"42.39879660","long":"-82.17959120","store_key":1640,"city":"Chatham-Kent"},{"name":"Currie's Music","lat":"44.91882780","long":"-79.37332390","store_key":1641,"city":"Gravenhurst"},{"name":"Compact Music","lat":"45.41742370","long":"-75.69828870","store_key":1650,"city":"Ottawa"},{"name":"Main St Market Bazaar","lat":"44.58334910","long":"-79.86737090","store_key":1662,"city":"Elmvale"},{"name":"Neurotica Records","lat":"43.65531600","long":"-79.41245100","store_key":1666,"city":"Toronto"},{"name":"Vintage Vinyl & Hemp Emporium","lat":"50.45027120","long":"-104.61485060","store_key":927,"city":"Regina"},{"name":"The Record Centre","lat":"45.40300960","long":"-75.72575950","store_key":1750,"city":"Ottawa"},{"name":"Marche au puces Saint-Michel","lat":"45.56241090","long":"-73.60481510","store_key":1786,"city":"Montréal"},{"name":"Beatmerchant Record Store","lat":"49.12427280","long":"-123.18403420","store_key":1800,"city":"Richmond"},{"name":"Music MadHouse Records","lat":"49.25161890","long":"-122.90160650","store_key":1813,"city":"Burnaby"},{"name":"Record Collector's Paradise","lat":"53.55620810","long":"-113.58021380","store_key":1857,"city":"Edmonton"},{"name":"Dogwood Records","lat":"50.26332060","long":"-119.27394750","store_key":1914,"city":"Vernon"},{"name":"Sound Fixation","lat":"43.37080400","long":"-80.98356100","store_key":1916,"city":"Stratford"},{"name":"Market Road Antiques","lat":"43.50900470","long":"-80.55786040","store_key":1965,"city":"Waterloo"},{"name":"Vinyl Variety","lat":"45.36741370","long":"-63.27255730","store_key":2075,"city":"Truro"},{"name":"Audiovideo Centre","lat":"45.40296100","long":"-75.72576500","store_key":2181,"city":"Ottawa"},{"name":"Zap Records","lat":"44.23263460","long":"-76.49003390","store_key":2183,"city":"Kingston"},{"name":"Stardust Records","lat":"43.24590930","long":"-79.81807520","store_key":2194,"city":"Hamilton"},{"name":"Apollo Music","lat":"49.25629740","long":"-122.77497430","store_key":2214,"city":"Port Coquitlam"},{"name":"Planète Claire","lat":"48.42775850","long":"-71.05748950","store_key":235,"city":"Saguenay"},{"name":"Tabagie C M","lat":"48.42774290","long":"-71.06471850","store_key":2254,"city":"Saguenay"},{"name":"CAVITY Curiosity Shop","lat":"48.43614010","long":"-123.36603530","store_key":2263,"city":"Victoria"},{"name":"The Handwork Department","lat":"43.68495920","long":"-79.31677410","store_key":2269,"city":"Toronto"},{"name":"Johnstone's Music Land","lat":"44.74962234","long":"-79.88533783","store_key":2285,"city":"Midland"},{"name":"Les Disquaires Sunrise","lat":"45.40118040","long":"-71.95435460","store_key":2310,"city":"Sherbrooke"},{"name":"Sunrise Records","lat":"48.40508140","long":"-89.24343700","store_key":727,"city":"Thunder Bay"},{"name":"High Tides Music & Head Shop","lat":"45.19520290","long":"-67.27526300","store_key":2315,"city":"Saint Stephen"},{"name":"Le Vacarme","lat":"45.53494890","long":"-73.60081360","store_key":2334,"city":"Montréal"},{"name":"Highlife Records & Music","lat":"49.27269850","long":"-123.06972300","store_key":2376,"city":"Vancouver"},{"name":"Birdman Sound","lat":"45.40770820","long":"-75.69071630","store_key":2378,"city":"Ottawa"},{"name":"X20","lat":"45.51722900","long":"-73.56852180","store_key":2383,"city":"Montréal"},{"name":"Second Spin","lat":"45.31120870","long":"-66.01409950","store_key":2386,"city":"Saint John"},{"name":"Ransack The Universe","lat":"43.65874880","long":"-79.43979260","store_key":2464,"city":"Toronto"},{"name":"Executive Stereo","lat":"43.73657780","long":"-79.42046070","store_key":2465,"city":"Toronto"},{"name":"The Beat Goes On","lat":"43.39498290","long":"-80.32275070","store_key":710,"city":"Cambridge"},{"name":"The Beat Goes On","lat":"43.54176960","long":"-80.24363710","store_key":710,"city":"Guelph"},{"name":"FanFare","lat":"45.06749000","long":"-64.45069070","store_key":2469,"city":"New Minas"},{"name":"Music Capricorne","lat":"45.43541900","long":"-73.67274900","store_key":2473,"city":"Montréal"},{"name":"Sunrise Records","lat":"43.21720540","long":"-79.86089370","store_key":727,"city":"Hamilton"},{"name":"Sunrise Records","lat":"44.40150910","long":"-79.70231640","store_key":727,"city":"Barrie"},{"name":"Nith River Records","lat":"43.19202000","long":"-80.38511500","store_key":2536,"city":"Brant"},{"name":"Old Gold Vintage Vinyl","lat":"49.87636310","long":"-97.14366270","store_key":2541,"city":"Winnipeg"},{"name":"Paul's Boutique","lat":"45.52121020","long":"-73.58522360","store_key":2555,"city":"Montréal"},{"name":"Backbeat Books Music & Gifts","lat":"44.90059040","long":"-76.25294410","store_key":2578,"city":"Perth"},{"name":"Sonorama Disques","lat":"45.52408000","long":"-73.60493340","store_key":2582,"city":"Montréal"},{"name":"Blue Mountain Music","lat":"44.49951800","long":"-80.21649700","store_key":2583,"city":"Collingwood"},{"name":"L'Indicatif Disquaire","lat":"45.55820100","long":"-73.69677990","store_key":2598,"city":"Montréal"},{"name":"Backstreet Records","lat":"45.96309662","long":"-66.64377594","store_key":2602,"city":"Fredericton"},{"name":"Ob'CD Du Disque","lat":"45.87188380","long":"-72.47422050","store_key":2642,"city":"Drummondville"},{"name":"Barnacle Records","lat":"50.67512430","long":"-120.33467510","store_key":2660,"city":"Kamloops"},{"name":"BJ Records & Nostalgia","lat":"44.38990800","long":"-79.68991140","store_key":2661,"city":"Barrie"},{"name":"The Beat Goes On","lat":"43.44624870","long":"-79.70513600","store_key":710,"city":"Oakville"},{"name":"The Gramophone Inc","lat":"53.51528800","long":"-113.49600000","store_key":2662,"city":"Edmonton"},{"name":"The Turntable","lat":"48.42898941","long":"-123.36787415","store_key":2663,"city":"Victoria"},{"name":"Sunrise Records","lat":"49.22748450","long":"-122.99983210","store_key":727,"city":"Burnaby"},{"name":"Sunrise Records","lat":"49.27929420","long":"-122.79762530","store_key":727,"city":"Coquitlam"},{"name":"Back Alley Music","lat":"46.23656082","long":"-63.13086319","store_key":2686,"city":"Charlottetown"},{"name":"The Record Works","lat":"43.12973620","long":"-80.76003550","store_key":2690,"city":"Woodstock"},{"name":"X-Ray Records","lat":"50.45012820","long":"-104.61541250","store_key":2792,"city":"Regina"},{"name":"Russell Red Records","lat":"45.04662130","long":"-78.50848210","store_key":2805,"city":"Haliburton"},{"name":"Rabbit Dash Coffee House","lat":"44.43780000","long":"-81.38776870","store_key":2834,"city":"Saugeen Shores"},{"name":"Kemp Lake Music Cafe","lat":"48.36573940","long":"-123.79375370","store_key":2854,"city":"Sooke"},{"name":"Forch's Record Store","lat":"43.13912650","long":"-80.26549990","store_key":2906,"city":"Brantford"},{"name":"Zulu Records","lat":"49.26788500","long":"-123.14968300","store_key":2914,"city":"Vancouver"},{"name":"The Grooveyard","lat":"49.49963730","long":"-119.59305990","store_key":2964,"city":"Penticton"},{"name":"Cosmos West Records","lat":"43.64696920","long":"-79.40673620","store_key":2975,"city":"Toronto"},{"name":"Rotate This","lat":"43.64846600","long":"-79.42056200","store_key":2983,"city":"Toronto"},{"name":"Raven’s Nest Antiques & Collectibles","lat":"43.91313370","long":"-80.87150960","store_key":3025,"city":"Minto"},{"name":"Black Diamond Vinyl","lat":"45.10199600","long":"-64.45216100","store_key":3030,"city":"Port Williams"},{"name":"Sunrise Records","lat":"44.28214040","long":"-78.33177580","store_key":727,"city":"Peterborough"},{"name":"Sound Heritage","lat":"49.16333950","long":"-123.93555760","store_key":3089,"city":"Nanaimo"},{"name":"Village Idiot The","lat":"42.97321190","long":"-81.25433550","store_key":3099,"city":"London"},{"name":"Listen Records","lat":"53.54739600","long":"-113.53568800","store_key":3103,"city":"Edmonton"},{"name":"Cheap Thrills","lat":"45.50186080","long":"-73.57507090","store_key":3108,"city":"Montréal"},{"name":"Recordland Limited","lat":"51.04211807","long":"-114.03627777","store_key":3114,"city":"Calgary"},{"name":"Cosmic Dave's Vinyl Emporium","lat":"46.50023910","long":"-81.00569240","store_key":3118,"city":"Sudbury"},{"name":"Vertigo Records","lat":"45.42765680","long":"-75.68891720","store_key":1319,"city":"Ottawa"},{"name":"Francophonies","lat":"45.52640970","long":"-73.55874140","store_key":3169,"city":"Montréal"},{"name":"Grooves","lat":"42.98462240","long":"-81.24684990","store_key":327,"city":"London"},{"name":"The Beat Goes On","lat":"43.42029850","long":"-80.44035830","store_key":710,"city":"Kitchener"},{"name":"Librairie Laforce","lat":"46.80970001","long":"-71.22058868","store_key":3217,"city":"Quebec"},{"name":"High Road Records","lat":"46.52254486","long":"-80.95127106","store_key":3257,"city":"Sudbury"},{"name":"Hanover Market","lat":"44.15892960","long":"-81.02836510","store_key":3284,"city":"Hanover"},{"name":"Bouquinerie Du Plateau (La)","lat":"45.52614560","long":"-73.58129610","store_key":3349,"city":"Montréal"},{"name":"Pandemonium","lat":"43.66554830","long":"-79.46690610","store_key":3375,"city":"Toronto"},{"name":"Cheapies Records & Tapes","lat":"43.25614640","long":"-79.86700190","store_key":3389,"city":"Hamilton"},{"name":"She Said Boom","lat":"43.65713780","long":"-79.40500110","store_key":3399,"city":"Toronto"},{"name":"Select Sounds","lat":"44.73035431","long":"-63.66119003","store_key":3403,"city":"Bedford"},{"name":"Recordings / Records on Wheels Oakville","lat":"43.43995480","long":"-79.67529870","store_key":3405,"city":"Oakville"},{"name":"Cédé Troqué","lat":"45.47169880","long":"-75.70192830","store_key":946,"city":"Gatineau"},{"name":"Vinyl Frontier Records","lat":"43.15928268","long":"-79.24283600","store_key":3458,"city":"St. Catharines"},{"name":"Deja Vu Discs","lat":"43.77302630","long":"-79.28229810","store_key":3484,"city":"Toronto"},{"name":"Live Wire Music Emporium","lat":"46.09633255","long":"-64.79164886","store_key":3486,"city":"Moncton"},{"name":"It's Mostly Harmless","lat":"44.24776120","long":"-76.95006160","store_key":3487,"city":"Napanee"},{"name":"Pop Music","lat":"43.66542990","long":"-79.35228030","store_key":3496,"city":"Toronto"},{"name":"Sunrise Records","lat":"49.19024040","long":"-122.80346130","store_key":727,"city":"Surrey"},{"name":"Mostly Music","lat":"49.26348114","long":"-122.78030396","store_key":3572,"city":"Port Coquitlam"},{"name":"33 1/3 Record Store","lat":"44.07894220","long":"-79.42709230","store_key":3628,"city":"Newmarket"},{"name":"ID Shop","lat":"45.68873450","long":"-73.76589170","store_key":3689,"city":"Terrebonne"},{"name":"Compact Music","lat":"45.40330590","long":"-75.68839640","store_key":1650,"city":"Ottawa"},{"name":"Hammer City Records","lat":"43.26248550","long":"-79.86636353","store_key":3712,"city":"Hamilton"},{"name":"Musique Cité","lat":"45.40064810","long":"-71.89202390","store_key":3739,"city":"Sherbrooke"},{"name":"La Table Tournante","lat":"45.69330000","long":"-73.63196300","store_key":3761,"city":"Terrebonne"},{"name":"Kops Records - The Warehouse","lat":"43.68421950","long":"-79.31852430","store_key":3769,"city":"Toronto"},{"name":"Waxman Records","lat":"46.31073990","long":"-79.46395480","store_key":3771,"city":"North Bay"},{"name":"Class One Record Promotions","lat":"43.77160440","long":"-79.18701720","store_key":3787,"city":"Toronto"},{"name":"Eat'em Up Records","lat":"49.89271210","long":"-97.15894660","store_key":3803,"city":"Winnipeg"},{"name":"Track Nine Vinyl","lat":"43.83743590","long":"-66.11964700","store_key":3832,"city":"Yarmouth"},{"name":"The Record Shoppe","lat":"45.32610820","long":"-79.21984460","store_key":3843,"city":"Huntsville"},{"name":"A Matter Of Records","lat":"45.34106500","long":"-63.29430100","store_key":3845,"city":"Truro"},{"name":"In Yer Ear Records","lat":"49.14107180","long":"-102.99332730","store_key":3854,"city":"Estevan"},{"name":"Les Disquaires Sunrise","lat":"46.83032720","long":"-71.29824900","store_key":2310,"city":"Québec"},{"name":"Sunrise Records","lat":"42.93143845","long":"-81.22386932","store_key":727,"city":"London"},{"name":"Sunrise Records","lat":"43.13608690","long":"-79.22409760","store_key":727,"city":"St. Catharines"},{"name":"Sunrise Records","lat":"43.71638390","long":"-79.72224700","store_key":727,"city":"Brampton"},{"name":"Electronic Depot","lat":"43.08889680","long":"-79.10697900","store_key":3965,"city":"Niagara Falls"},{"name":"Phonopolis Record Store","lat":"45.52484800","long":"-73.60466250","store_key":3992,"city":"Montreal"},{"name":"Disques Beatnick","lat":"45.51899338","long":"-73.57232666","store_key":3996,"city":"Montréal"},{"name":"Atom Heart, musique alternative","lat":"45.51656960","long":"-73.56733550","store_key":3997,"city":"Montréal"},{"name":"Underground Music and Records","lat":"49.89034650","long":"-119.49327520","store_key":4026,"city":"Kelowna"},{"name":"Last Gen Used Toronto","lat":"43.65874770","long":"-79.39493400","store_key":4085,"city":"Toronto"},{"name":"Bop City Records","lat":"49.69095740","long":"-124.99746490","store_key":4088,"city":"Courtenay"},{"name":"Revolver Inc.","lat":"53.52055990","long":"-113.45745970","store_key":4089,"city":"Edmonton"},{"name":"Vinyle Chope","lat":"45.53165817","long":"-73.57559967","store_key":4147,"city":"Montréal"},{"name":"Willys Rehome Records","lat":"45.13103280","long":"-76.16694230","store_key":4161,"city":"Carleton Place"},{"name":"Looney Tunes","lat":"43.30938330","long":"-79.85002510","store_key":2279,"city":"Burlington"},{"name":"Antikka - Cafe And Records","lat":"43.64465240","long":"-79.41713430","store_key":4185,"city":"Toronto"},{"name":"Villeneuve Audio Video","lat":"46.03849750","long":"-73.43572910","store_key":4216,"city":"Notre-Dame-des-Prairies"},{"name":"Les Bons Débarras","lat":"45.45800760","long":"-73.56722640","store_key":4223,"city":"Montréal"},{"name":"Dead Dog Records","lat":"43.66614430","long":"-79.38124900","store_key":4227,"city":"Toronto"},{"name":"Callander Bay Records","lat":"46.22273980","long":"-79.36528280","store_key":4284,"city":"Callander"},{"name":"CD Trader Ltd","lat":"51.08547410","long":"-114.12516630","store_key":4306,"city":"Calgary"},{"name":"Vintage & Vinyl","lat":"42.23884870","long":"-83.10156760","store_key":15,"city":"LaSalle"},{"name":"Sunrise Records","lat":"43.17052550","long":"-80.24043200","store_key":727,"city":"Brantford"},{"name":"Obsolete Records","lat":"44.65357590","long":"-63.59116364","store_key":4365,"city":"Halifax"},{"name":"Freeson Rock","lat":"45.53130722","long":"-73.57631683","store_key":4382,"city":"Montréal"},{"name":"M.M.G. (Music, Movies and Games)","lat":"43.10645400","long":"-79.07039760","store_key":4393,"city":"Niagara Falls"},{"name":"Carson Books & Records","lat":"49.24628720","long":"-123.10095090","store_key":4408,"city":"Vancouver"},{"name":"Dead Dog Records","lat":"43.65876007","long":"-79.43988800","store_key":4227,"city":"Toronto"},{"name":"Black Cat Antiques","lat":"48.36519680","long":"-89.28028610","store_key":4416,"city":"Thunder Bay"},{"name":"Niagara Records","lat":"43.16060130","long":"-79.24142900","store_key":4438,"city":"St. Catharines"},{"name":"The Beat Goes On","lat":"43.17536545","long":"-80.27966309","store_key":710,"city":"Brantford"},{"name":"Revolution Records","lat":"43.24712372","long":"-79.81771851","store_key":671,"city":"Hamilton"},{"name":"Neptoon Records","lat":"49.25310898","long":"-123.10110474","store_key":4454,"city":"Vancouver"},{"name":"Red River Book Store","lat":"49.89785660","long":"-97.14103810","store_key":4456,"city":"Winnipeg"},{"name":"Le Pick-Up","lat":"45.51674580","long":"-73.57382480","store_key":4461,"city":"Montréal"},{"name":"Funny Pages Collectables","lat":"50.67573470","long":"-120.33231840","store_key":4517,"city":"Kamloops"},{"name":"Greenbacks Pawnshop","lat":"44.17759400","long":"-77.39174370","store_key":4548,"city":"Belleville"},{"name":"Royal Cat Records","lat":"43.54394700","long":"-80.24942610","store_key":4550,"city":"Guelph"},{"name":"Alleycats Music & Art","lat":"44.60911040","long":"-79.41718980","store_key":4551,"city":"Orillia"},{"name":"Troubadour Books & Records","lat":"45.41025600","long":"-75.69263980","store_key":4552,"city":"Ottawa"},{"name":"Hooked On Phono","lat":"49.28122560","long":"-123.00969020","store_key":4568,"city":"Burnaby"},{"name":"Milkcrate Records","lat":"49.88519090","long":"-119.49275730","store_key":4581,"city":"Kelowna"},{"name":"Value Village","lat":"48.43056660","long":"-123.37032460","store_key":4587,"city":"Victoria"},{"name":"Archambault","lat":"45.40209230","long":"-71.95713330","store_key":4588,"city":"Sherbrooke"},{"name":"La Rama","lat":"45.52660040","long":"-73.60305020","store_key":4627,"city":"Montréal"},{"name":"Sunrise Records","lat":"43.61125260","long":"-79.55839100","store_key":727,"city":"Toronto"},{"name":"Triple J's Music","lat":"60.71904790","long":"-135.05475130","store_key":4673,"city":"Whitehorse"},{"name":"Vinyle du centre-ville","lat":"47.83005920","long":"-69.53427410","store_key":4689,"city":"Rivière-du-Loup"},{"name":"Legend Records","lat":"45.39295000","long":"-75.75278720","store_key":4565,"city":"Ottawa"},{"name":"Sunrise Records","lat":"46.09544520","long":"-64.75971810","store_key":727,"city":"Dieppe"},{"name":"Dead Parrott Records","lat":"42.30856840","long":"-83.01644870","store_key":4741,"city":"Windsor"},{"name":"Urban Safari Vintage Store","lat":"49.10693750","long":"-122.73479040","store_key":4742,"city":"Surrey"},{"name":"Hemingway's","lat":"49.04909600","long":"-122.28996030","store_key":4752,"city":"Abbotsford"},{"name":"Vinyl Land","lat":"43.63094450","long":"-80.04020420","store_key":4767,"city":"Acton"},{"name":"Disques Tony's Records","lat":"45.10755160","long":"-72.61624560","store_key":4817,"city":"Sutton"},{"name":"Sunrise Records","lat":"43.63138380","long":"-79.55529870","store_key":727,"city":"Toronto"},{"name":"Treehouse Collectibles","lat":"43.68586770","long":"-79.33996260","store_key":4860,"city":"Toronto"},{"name":"The Vinyl Exchange","lat":"52.12944330","long":"-106.66326490","store_key":4883,"city":"Saskatoon"},{"name":"McNally Robinson","lat":"49.85758070","long":"-97.16578270","store_key":4884,"city":"Winnipeg"},{"name":"C D Exchange","lat":"45.54863160","long":"-73.60168320","store_key":4961,"city":"Montréal"},{"name":"Black Raven Records","lat":"48.47996187","long":"-123.41390059","store_key":4966,"city":"Victoria"},{"name":"Spitfire Records","lat":"44.59059360","long":"-75.68342050","store_key":5035,"city":"Brockville"},{"name":"Stylus Records","lat":"49.26829670","long":"-123.09824550","store_key":5068,"city":"Vancouver"},{"name":"Sunrise Records","lat":"42.27566000","long":"-83.00374000","store_key":727,"city":"Windsor"},{"name":"Archambault","lat":"48.41005120","long":"-71.05482650","store_key":4588,"city":"Saguenay"},{"name":"Sunrise Records","lat":"44.68634550","long":"-63.55944740","store_key":727,"city":"Dartmouth"},{"name":"Monster Records","lat":"45.27472500","long":"-75.95015560","store_key":4906,"city":"Kanata"},{"name":"Red Cat Records","lat":"49.24639610","long":"-123.10105450","store_key":5156,"city":"Vancouver"},{"name":"Ditch Records & CDs","lat":"48.42452200","long":"-123.36307700","store_key":5157,"city":"Victoria"},{"name":"Musique Chez Sonny","lat":"46.81052780","long":"-71.21918488","store_key":5192,"city":"Quebec"},{"name":"Joe's Music","lat":"44.49145730","long":"-80.17435630","store_key":5193,"city":"Collingwood"},{"name":"Twindmills Market","lat":"44.02078629","long":"-77.90087128","store_key":5222,"city":"Colborne"},{"name":"Vinyl Destination","lat":"44.91482420","long":"-75.83684380","store_key":92,"city":"Merrickville"},{"name":"Mad Dog's Vinyl Cafe","lat":"44.49721900","long":"-80.21591400","store_key":5270,"city":"Collingwood"},{"name":"Melodiya Records","lat":"51.03763900","long":"-114.11986090","store_key":5278,"city":"Calgary"},{"name":"Mike's Music Store","lat":"43.67610580","long":"-79.35812770","store_key":5312,"city":"Toronto"},{"name":"Le Knock-Out!","lat":"46.81628600","long":"-71.21852580","store_key":5315,"city":"Quebec"},{"name":"Sam the Record Man","lat":"44.18909836","long":"-77.40248871","store_key":5372,"city":"Belleville"},{"name":"Toyratt Retro Games And Vinyl Records","lat":"43.52576180","long":"-79.87067750","store_key":5375,"city":"Milton"},{"name":"That Old Retro Store","lat":"51.04101540","long":"-114.03341860","store_key":5426,"city":"Calgary"},{"name":"Vinyl Sound","lat":"43.85145410","long":"-79.39315050","store_key":2848,"city":"Richmond Hill"},{"name":"Shortstack Records","lat":"43.65208170","long":"-79.40766440","store_key":5480,"city":"Toronto"},{"name":"Vintage & Vinyl Amherstburg","lat":"42.10180300","long":"-83.11229910","store_key":5484,"city":"Amherstburg"},{"name":"Big Al's Music & Games","lat":"50.04017920","long":"-110.67168160","store_key":5486,"city":"Medicine Hat"},{"name":"Vinyl Experience","lat":"49.52952840","long":"-96.69081000","store_key":5495,"city":"Steinbach"},{"name":"Sunrise Records","lat":"43.39224360","long":"-80.32089720","store_key":727,"city":"Cambridge"},{"name":"The Winnipeg Record & Tape Co","lat":"49.90084280","long":"-97.18345410","store_key":5580,"city":"Winnipeg"},{"name":"Taz Records @ New Scotland Yard","lat":"44.66514400","long":"-63.56727700","store_key":5611,"city":"Dartmouth"},{"name":"Fascinating Rhythm","lat":"49.16518610","long":"-123.93701090","store_key":5637,"city":"Nanaimo"},{"name":"Lucid","lat":"49.16494860","long":"-123.93689400","store_key":5638,"city":"Nanaimo"},{"name":"Sunrise Records","lat":"48.44693290","long":"-123.37008870","store_key":727,"city":"Victoria"},{"name":"Packrat Annie's","lat":"49.49130950","long":"-117.29669440","store_key":5651,"city":"Nelson"},{"name":"Anthem Records Inc","lat":"43.66338170","long":"-79.37078930","store_key":5729,"city":"Toronto"},{"name":"Black Duck Entertainment","lat":"43.35680300","long":"-79.84209870","store_key":5759,"city":"Burlington"},{"name":"Hi Tone Records","lat":"50.14425070","long":"-96.87078930","store_key":5780,"city":"Selkirk"},{"name":"Into The Abyss","lat":"43.25724300","long":"-79.88466800","store_key":5798,"city":"Hamilton"},{"name":"Casa-Dia Vinyl Records","lat":"45.93649700","long":"-66.60940460","store_key":5822,"city":"Fredericton"},{"name":"Vinyle Scène - Disquaire Vieux-Hull","lat":"45.42768440","long":"-75.72024520","store_key":5824,"city":"Gatineau"},{"name":"Vinyl Vault","lat":"43.59304920","long":"-79.56910000","store_key":3236,"city":"Mississauga"},{"name":"BMV Books","lat":"43.70750900","long":"-79.39820390","store_key":5826,"city":"Toronto"},{"name":"Explosive Groove Disquaire","lat":"46.82639710","long":"-71.23438290","store_key":5833,"city":"Québec"},{"name":"Wiffle Games","lat":"48.92185050","long":"-123.71709410","store_key":5849,"city":"Chemainus"},{"name":"Winnipeg Folk Festival","lat":"49.89814280","long":"-97.13966160","store_key":5878,"city":"Winnipeg"},{"name":"Le Fox Troc","lat":"45.52625275","long":"-73.58118439","store_key":5881,"city":"Montréal"},{"name":"Fred's","lat":"47.56772350","long":"-52.70411400","store_key":5894,"city":"St. John's"},{"name":"Audition Musik","lat":"48.44811620","long":"-68.53406900","store_key":5914,"city":"Rimouski"},{"name":"Noize To Go Records","lat":"49.27777240","long":"-123.09822440","store_key":5920,"city":"Vancouver"},{"name":"Renegade Records","lat":"44.67142868","long":"-63.57677460","store_key":5957,"city":"Dartmouth"},{"name":"Henrys Records","lat":"43.79306820","long":"-79.25176590","store_key":5970,"city":"Toronto"},{"name":"Krazy Bob's Music Emporium","lat":"49.10415649","long":"-122.65454102","store_key":5972,"city":"Langley"},{"name":"Diamond Dogs Vinyl","lat":"43.36914560","long":"-80.98356270","store_key":5973,"city":"Stratford"},{"name":"Innovative Audio","lat":"49.14485950","long":"-122.85535230","store_key":5974,"city":"Surrey"},{"name":"Atomic Records & Collectibles","lat":"46.10707370","long":"-60.22531750","store_key":5975,"city":"Sydney"},{"name":"Metal Punk","lat":"46.35297050","long":"-72.55081210","store_key":6038,"city":"Trois-Rivières"},{"name":"The Late-Night Record Shop","lat":"49.09526000","long":"-117.70898200","store_key":6050,"city":"Trail"},{"name":"Soundscapes","lat":"43.65559387","long":"-79.41300201","store_key":6065,"city":"Toronto"},{"name":"Beat Street Records","lat":"49.28389359","long":"-123.11143494","store_key":6081,"city":"Vancouver"},{"name":"Milk Crate Alley Records - 400 Market","lat":"44.28968430","long":"-79.67832184","store_key":6094,"city":"Innisfil"},{"name":"Taz Records","lat":"44.64453420","long":"-63.57398480","store_key":6124,"city":"Halifax"},{"name":"My Kind Of Music","lat":"43.66318830","long":"-79.34166360","store_key":6141,"city":"Toronto"},{"name":"Dr Disc Records","lat":"42.31542200","long":"-83.03783100","store_key":6165,"city":"Windsor"},{"name":"Sunrise Records","lat":"44.05610400","long":"-79.48550440","store_key":727,"city":"Newmarket"},{"name":"Backstreet Records","lat":"45.27177811","long":"-66.06007385","store_key":2602,"city":"Saint John"},{"name":"Autumn Records","lat":"46.30589460","long":"-79.46027940","store_key":4589,"city":"North Bay"},{"name":"Selector Records","lat":"43.24891290","long":"-79.81735500","store_key":6268,"city":"Hamilton"},{"name":"Phonopolis West","lat":"45.42881775","long":"-73.82621002","store_key":6276,"city":"Pointe-Claire"},{"name":"La Fin Du Vinyle - Death Of Vinyl","lat":"45.53014400","long":"-73.60882600","store_key":6361,"city":"Montréal"},{"name":"What Not Shop","lat":"49.21672580","long":"-122.60310400","store_key":6362,"city":"Maple Ridge"},{"name":"Olde News Vintage & Vinyl","lat":"49.13449700","long":"-122.30356100","store_key":6363,"city":"Mission"},{"name":"SRC Vinyl","lat":"43.21601100","long":"-79.12597800","store_key":6374,"city":"Niagara-on-the-Lake"},{"name":"Sunrise Records","lat":"43.83519230","long":"-79.08522210","store_key":727,"city":"Pickering"},{"name":"Kromatik Musique","lat":"48.54857100","long":"-71.64947560","store_key":6441,"city":"Alma"},{"name":"Retro Bordello","lat":"46.81278450","long":"-71.22879970","store_key":6442,"city":"Québec"},{"name":"Ric's Recollections","lat":"43.55978820","long":"-79.57664810","store_key":6485,"city":"Mississauga"},{"name":"Beach Sound Records and Cds","lat":"43.68041920","long":"-79.28977450","store_key":6569,"city":"Toronto"},{"name":"The Beat Goes On","lat":"43.48186200","long":"-80.52364700","store_key":710,"city":"Waterloo"},{"name":"BBAM! Gallery","lat":"45.48502800","long":"-73.58051100","store_key":6570,"city":"Montréal"},{"name":"Sunrise Records","lat":"44.57514700","long":"-80.91290910","store_key":727,"city":"Owen Sound"},{"name":"180g café-disquaire","lat":"45.54250000","long":"-73.58846700","store_key":6589,"city":"Montréal"},{"name":"Beggars Banquet Books // Dragon Records","lat":"44.33007050","long":"-76.16200920","store_key":6632,"city":"Gananoque"},{"name":"Jamstar Records","lat":"42.40583510","long":"-82.18434250","store_key":6641,"city":"Chatham-Kent"},{"name":"Stack Shack Records","lat":"49.69164960","long":"-124.99638500","store_key":6679,"city":"Courtenay"},{"name":"Dave's Rock Emporium","lat":"45.89743480","long":"-64.36748660","store_key":6695,"city":"Sackville"},{"name":"Sour Cat Records","lat":"44.56589940","long":"-80.94142540","store_key":6713,"city":"Owen Sound"},{"name":"Aux 33 Tours","lat":"45.53062790","long":"-73.57693730","store_key":6742,"city":"Montréal"},{"name":"Sonic Boom","lat":"43.65084170","long":"-79.39694170","store_key":6797,"city":"Toronto"},{"name":"Supreme Echo","lat":"48.43612000","long":"-123.36755930","store_key":6799,"city":"Victoria"},{"name":"Taz Records","lat":"44.72420840","long":"-63.66935660","store_key":6124,"city":"Bedford"},{"name":"Play De Record","lat":"43.65690040","long":"-79.39934200","store_key":6818,"city":"Toronto"},{"name":"Chilliwax Records","lat":"49.17173600","long":"-121.95439260","store_key":6839,"city":"Chilliwack"},{"name":"Records On Wheels","lat":"43.26572800","long":"-79.95207214","store_key":6840,"city":"Hamilton"},{"name":"Encore Books & Records","lat":"45.47076010","long":"-73.61502530","store_key":6882,"city":"Montréal"},{"name":"Tiny Record Shop","lat":"43.65940980","long":"-79.34706320","store_key":6918,"city":"Toronto"},{"name":"Turn It Up! Records & Hi-Fi","lat":"51.06711800","long":"-114.07583860","store_key":6930,"city":"Calgary"},{"name":"Heritage Posters & Music","lat":"51.04355480","long":"-114.09220380","store_key":6935,"city":"Calgary"},{"name":"Millpond Records & Books","lat":"43.43112946","long":"-80.31092072","store_key":6952,"city":"Cambridge"},{"name":"L'Oblique","lat":"45.52351379","long":"-73.57990265","store_key":6976,"city":"Montréal"},{"name":"Sunrise Records","lat":"43.51839320","long":"-80.23862080","store_key":727,"city":"Guelph"},{"name":"FreeWheelin' Records","lat":"49.04911220","long":"-122.29142730","store_key":7032,"city":"Abbotsford"},{"name":"Revolver Mill Woods","lat":"53.45551500","long":"-113.42934310","store_key":7034,"city":"Edmonton"},{"name":"Odyssey Records","lat":"42.99807900","long":"-81.21695810","store_key":7067,"city":"London"},{"name":"Bud's Records","lat":"45.03380530","long":"-74.72889280","store_key":7136,"city":"Cornwall"},{"name":"Revival Records and Collectables","lat":"51.07530070","long":"-113.95604880","store_key":7173,"city":"Calgary"},{"name":"Omar's","lat":"50.26448410","long":"-119.27732180","store_key":7179,"city":"Vernon"},{"name":"Street Legal Records","lat":"49.69446190","long":"-112.83900180","store_key":7191,"city":"Lethbridge"},{"name":"Record City","lat":"50.26389120","long":"-119.27325630","store_key":3188,"city":"Vernon"},{"name":"Wild Planet Music","lat":"49.87546860","long":"-97.14294650","store_key":7246,"city":"Winnipeg"},{"name":"Albion Books","lat":"49.28310740","long":"-123.11359920","store_key":7267,"city":"Vancouver"},{"name":"Kops Records","lat":"43.64895540","long":"-79.39444180","store_key":7291,"city":"Toronto"},{"name":"Hot Wax Records","lat":"51.05258810","long":"-114.08575340","store_key":7297,"city":"Calgary"},{"name":"Librairie l'Échange","lat":"45.52546440","long":"-73.58185840","store_key":7303,"city":"Montréal"},{"name":"CD Mélomane","lat":"46.80843660","long":"-71.22439760","store_key":7335,"city":"Quebec"},{"name":"Grasshopper Records","lat":"43.64924622","long":"-79.42165375","store_key":7336,"city":"Toronto"},{"name":"Pinball Alley Vintage","lat":"49.27688690","long":"-122.85411090","store_key":7348,"city":"Port Moody"},{"name":"Tonality Records","lat":"43.65333210","long":"-79.45046850","store_key":7380,"city":"Toronto"},{"name":"Crosstown Traffic","lat":"45.40769196","long":"-75.69090271","store_key":7397,"city":"Ottawa"},{"name":"Zoinks Music and Books","lat":"43.66072930","long":"-79.43083830","store_key":7398,"city":"Toronto"},{"name":"Grizzly's Records","lat":"44.58741980","long":"-75.68923620","store_key":7400,"city":"Brockville"},{"name":"Archambault","lat":"45.51454090","long":"-73.55907720","store_key":4588,"city":"Montréal"},{"name":"Kops Records","lat":"43.89356800","long":"-78.86192810","store_key":7291,"city":"Oshawa"},{"name":"Bluestreak Records","lat":"44.30729130","long":"-78.32004230","store_key":7401,"city":"Peterborough"},{"name":"Lotusland Electronics & Music","lat":"49.26292080","long":"-123.18574940","store_key":7402,"city":"Vancouver"},{"name":"She Said Boom!","lat":"43.65074280","long":"-79.45061910","store_key":7406,"city":"Toronto"},{"name":"Vinyl Diner CD's & Records","lat":"52.11964417","long":"-106.65700531","store_key":7410,"city":"Saskatoon"},{"name":"Scheherazade Books & Music","lat":"45.27156067","long":"-66.06207275","store_key":7411,"city":"Saint John"},{"name":"Sound Central Store","lat":"45.52087021","long":"-73.58531952","store_key":7437,"city":"Montréal"},{"name":"Dandelion Records & Emporium","lat":"49.26333080","long":"-123.10075820","store_key":7447,"city":"Vancouver"},{"name":"Lyle's Place","lat":"48.42622375","long":"-123.36279297","store_key":7465,"city":"Victoria"},{"name":"Encore Records Limited","lat":"43.44756800","long":"-80.48430300","store_key":7498,"city":"Kitchener"},{"name":"The Beat Goes On","lat":"42.93134850","long":"-81.22030140","store_key":710,"city":"London"},{"name":"Out Of The Basement","lat":"43.25117111","long":"-79.81645966","store_key":7509,"city":"Hamilton"},{"name":"Randy's Records CD'S & Tapes","lat":"44.56412125","long":"-80.94133759","store_key":7535,"city":"Owen Sound"},{"name":"ODDSPOT","lat":"43.32708740","long":"-79.80014038","store_key":7537,"city":"Burlington"},{"name":"The Turntable Shop","lat":"49.31225380","long":"-123.07483360","store_key":7539,"city":"North Vancouver"},{"name":"Something Else Records","lat":"44.23201480","long":"-76.48195150","store_key":3292,"city":"Kingston"},{"name":"Hololog Records","lat":"43.65396170","long":"-79.45218180","store_key":7587,"city":"Toronto"},{"name":"The Vinyl Shop","lat":"43.55361176","long":"-79.58319855","store_key":7630,"city":"Mississauga"},{"name":"Les Disquaire Sunrise","lat":"48.40439410","long":"-71.05530130","store_key":7654,"city":"Saguenay"},{"name":"Matt's Media Outlet","lat":"46.05838630","long":"-64.81895190","store_key":7655,"city":"Riverview"}]