[{"name":"Take Five Records","lat":"46.94168854","long":"7.43166780","store_key":219,"city":"Bern"},{"name":"DCM","lat":"46.31647900","long":"6.96805300","store_key":281,"city":"Aigle"},{"name":"Vinylsound","lat":"46.87973670","long":"7.56001080","store_key":282,"city":"Münsingen"},{"name":"6pack Records","lat":"47.37107390","long":"8.51982040","store_key":310,"city":"Zürich"},{"name":"Music & Art M. Akardas","lat":"47.04584885","long":"8.30598068","store_key":400,"city":"Luzern"},{"name":"Oldie-Radio Phonothek","lat":"47.53416270","long":"8.57796380","store_key":411,"city":"Rorbas"},{"name":"Urgence Disk Records","lat":"46.20398331","long":"6.13607693","store_key":417,"city":"Genève"},{"name":"Underground Records","lat":"47.55772400","long":"8.89900303","store_key":296,"city":"Frauenfeld"},{"name":"Monokini Records","lat":"46.18520460","long":"6.14202470","store_key":558,"city":"Carouge"},{"name":"Antiquariat Im Seefeld","lat":"47.35430340","long":"8.55801750","store_key":797,"city":"Zürich"},{"name":"Rockaway Beach","lat":"46.95021820","long":"7.44242907","store_key":920,"city":"Bern"},{"name":"Blutt Records","lat":"47.38420070","long":"8.53186850","store_key":950,"city":"Zürich"},{"name":"Co-Mix Remix","lat":"47.05069733","long":"8.30242062","store_key":1208,"city":"Luzern"},{"name":"Ventilator Records","lat":"47.49505234","long":"8.71820259","store_key":1245,"city":"Winterthur"},{"name":"Quo Vadis","lat":"47.69769350","long":"8.63398040","store_key":1373,"city":"Schaffhausen"},{"name":"Vinylpunkt","lat":"47.69623050","long":"8.63219340","store_key":1413,"city":"Schaffhausen"},{"name":"REC REC shop","lat":"47.37579727","long":"8.52935028","store_key":1538,"city":"Zürich"},{"name":"Dezibelle","lat":"47.39253616","long":"8.04380894","store_key":1551,"city":"Aarau"},{"name":"Old Town Record Store","lat":"47.05363083","long":"8.30671597","store_key":1553,"city":"Luzern"},{"name":"The Hardware Store","lat":"46.94758224","long":"7.44833899","store_key":1587,"city":"Bern"},{"name":"Hum Records","lat":"47.37287950","long":"8.52395920","store_key":1741,"city":"Zürich"},{"name":"Tondo Music","lat":"45.93402481","long":"8.97136307","store_key":1820,"city":"Maroggia"},{"name":"Belair Records","lat":"46.52013397","long":"6.63662720","store_key":1842,"city":"Lausanne"},{"name":"Setpember Vin & Vinyl","lat":"47.04866440","long":"8.30111760","store_key":1929,"city":"Luzern"},{"name":"Katalog Record Warehouse","lat":"47.37924400","long":"8.54403070","store_key":2128,"city":"Zürich"},{"name":"Rille.ch","lat":"47.52204830","long":"8.24361480","store_key":2206,"city":"Würenlingen"},{"name":"Sounds","lat":"46.19940948","long":"6.13945484","store_key":2407,"city":"Genève"},{"name":"Le Gram Vinyl Garden","lat":"46.53759970","long":"6.58299660","store_key":2517,"city":"Renens"},{"name":"Stigmate Records","lat":"46.78009220","long":"6.63809270","store_key":2646,"city":"Yverdon-les-Bains"},{"name":"Newtown Music Records","lat":"46.39767630","long":"6.92558860","store_key":2696,"city":"Villeneuve"},{"name":"Layup GmbH","lat":"46.94548800","long":"7.43670200","store_key":2810,"city":"Bern"},{"name":"Zero Zero","lat":"47.37583542","long":"8.54416370","store_key":2940,"city":"Zürich"},{"name":"recordroom gmbh","lat":"47.47224400","long":"8.30654350","store_key":3329,"city":"Baden"},{"name":"16 Tons","lat":"47.37631989","long":"8.52371979","store_key":3370,"city":"Zürich"},{"name":"Swissjazzorama","lat":"47.35632560","long":"8.70673210","store_key":3476,"city":"Uster"},{"name":"Central Station","lat":"46.21037674","long":"6.13982821","store_key":3493,"city":"Genève"},{"name":"Z-Records","lat":"47.42769530","long":"9.37719950","store_key":3503,"city":"St. Gallen"},{"name":"Panthera Records","lat":"47.37923770","long":"8.52448140","store_key":3626,"city":"Zürich"},{"name":"Flat Disc Records","lat":"47.37801000","long":"8.52074790","store_key":3684,"city":"Zürich"},{"name":"Radio 3FACH","lat":"47.05889530","long":"8.30905650","store_key":3778,"city":"Luzern"},{"name":"Arche Brockenhaus","lat":"47.38901390","long":"8.49455840","store_key":3796,"city":"Zürich"},{"name":"Zürcher Brockenhaus","lat":"47.38165400","long":"8.53109800","store_key":3971,"city":"Zürich"},{"name":"Oldies Shop","lat":"46.94593430","long":"7.43678379","store_key":3998,"city":"Bern"},{"name":"Black Mandarin Records","lat":"46.95556070","long":"7.44999370","store_key":4013,"city":"Bern"},{"name":"Zorrock","lat":"47.10420580","long":"6.82996400","store_key":4022,"city":"La Chaux-de-Fonds"},{"name":"Yesterday's Music","lat":"47.43011093","long":"9.37992573","store_key":4090,"city":"St. Gallen"},{"name":"Serge and Peppers Records","lat":"46.94836044","long":"7.44934511","store_key":4135,"city":"Bern"},{"name":"OOR Records","lat":"47.37666321","long":"8.52344894","store_key":4346,"city":"Zürich"},{"name":"Plattfon Records","lat":"47.56608200","long":"7.59060001","store_key":4358,"city":"Basel"},{"name":"Disc-a-Brac","lat":"46.52335358","long":"6.62967777","store_key":4379,"city":"Lausanne"},{"name":"Outsider Music Shop GMBH","lat":"47.34894943","long":"7.90688801","store_key":4395,"city":"Olten"},{"name":"Zero Zero","lat":"47.47553300","long":"8.30440520","store_key":2940,"city":"Baden"},{"name":"Klang und Kleid GmbH","lat":"47.42809296","long":"9.37782383","store_key":4575,"city":"St. Gallen"},{"name":"Musik und Brockenhaus","lat":"47.22910850","long":"9.19584160","store_key":4713,"city":"Nesslau-Krummenau"},{"name":"Second Love Vintage Store","lat":"46.88164560","long":"8.64417390","store_key":4751,"city":"Altdorf"},{"name":"Bongo Joe Parker","lat":"46.18033900","long":"6.13743220","store_key":4796,"city":"Carouge"},{"name":"Hammer Sounds","lat":"47.55794370","long":"7.56110430","store_key":4951,"city":"Allschwil"},{"name":"Halt de Lade","lat":"47.69561740","long":"8.63206840","store_key":5032,"city":"Schaffhausen"},{"name":"Musik Hug AG","lat":"47.36985470","long":"8.54356440","store_key":5134,"city":"Zürich"},{"name":"Espace 032","lat":"46.99329800","long":"6.92745300","store_key":5198,"city":"Neuchâtel"},{"name":"Schmocki's Ohrwurm Oase","lat":"47.54180770","long":"7.59840770","store_key":5246,"city":"Basel"},{"name":"Delan Records (Private Address)","lat":"46.94308472","long":"7.42882490","store_key":5319,"city":"Bern"},{"name":"Disques Plain Chant","lat":"46.20327950","long":"6.13823270","store_key":5348,"city":"Genève"},{"name":"Disco-Club, Munger Philippe","lat":"46.20783234","long":"6.14213324","store_key":5358,"city":"Genève"},{"name":"Musics, Keller Olivier","lat":"46.19772750","long":"6.14245480","store_key":5471,"city":"Genève"},{"name":"Lehmann vision","lat":"46.84489200","long":"7.19121300","store_key":5506,"city":"Düdingen"},{"name":"ZIG ZAG records","lat":"46.76066589","long":"7.62880278","store_key":5597,"city":"Thun"},{"name":"Why not","lat":"47.28939630","long":"7.94429060","store_key":5612,"city":"Zofingen"},{"name":"Planet Trash","lat":"47.23084520","long":"8.67302250","store_key":6037,"city":"Wädenswil"},{"name":"Home Street Home","lat":"47.39248276","long":"8.04450989","store_key":6072,"city":"Aarau"},{"name":"elchRecords","lat":"47.56771590","long":"7.59363770","store_key":6103,"city":"Basel"},{"name":"Atlantis Records","lat":"47.55236270","long":"7.58757220","store_key":6114,"city":"Basel"},{"name":"Collector Shop","lat":"47.36330795","long":"7.35455179","store_key":6131,"city":"Delémont"},{"name":"YouDooRightRecords","lat":"46.52424160","long":"6.63736120","store_key":6317,"city":"Lausanne"},{"name":"Johnny's Schallplatten","lat":"47.22087880","long":"7.51509630","store_key":6401,"city":"Langendorf"},{"name":"Zero Zero Rare Groove","lat":"47.37557110","long":"8.52821090","store_key":6489,"city":"Zürich"},{"name":"Jama Music","lat":"47.37640640","long":"8.52543550","store_key":6490,"city":"Zürich"},{"name":"Vinyl Biel","lat":"47.14116750","long":"7.24834370","store_key":6568,"city":"Biel"},{"name":"Bar à Disques","lat":"46.38239070","long":"6.23783020","store_key":6595,"city":"Nyon"},{"name":"Klang und Kleid Popup Store","lat":"47.42434692","long":"9.37434673","store_key":6604,"city":"St. Gallen"},{"name":"Kasheme","lat":"47.38283290","long":"8.52953060","store_key":6644,"city":"Zürich"},{"name":"Antik-Brocki Uetikon Bahnhof","lat":"47.25913620","long":"8.67886925","store_key":6823,"city":"Uetikon am See"},{"name":"Obsession","lat":"46.52426950","long":"6.62610010","store_key":6905,"city":"Lausanne"},{"name":"Dig It Records","lat":"46.20892715","long":"6.13956690","store_key":6940,"city":"Genève"},{"name":"O'CD","lat":"46.19755430","long":"6.14274490","store_key":993,"city":"Genève"},{"name":"Bro Records","lat":"47.43085480","long":"9.39396763","store_key":7089,"city":"St. Gallen"},{"name":"Sihl Records - Vinyl Store","lat":"47.37608337","long":"8.51462269","store_key":7161,"city":"Zürich"},{"name":"Vinyl resistance","lat":"46.20610630","long":"6.13992990","store_key":7292,"city":"Genève"},{"name":"Bongo Joe Records","lat":"46.19132614","long":"6.14466381","store_key":7387,"city":"Genève"},{"name":"Vinyl to Second Store","lat":"46.77379990","long":"7.61720991","store_key":7508,"city":"Steffisburg"},{"name":"Plan B - Records","lat":"46.94268650","long":"7.46885410","store_key":7601,"city":"Bern"},{"name":"Oldies Shop Outlet","lat":"46.94087200","long":"7.41801900","store_key":7668,"city":"Bern"},{"name":"Audio Pur","lat":"46.80534140","long":"7.15809920","store_key":7678,"city":"Fribourg"},{"name":"Spirit Records","lat":"46.52477980","long":"6.62826900","store_key":7682,"city":"Lausanne"}]