[{"name":"Vinilos Club","lat":"-33.43762972","long":"-70.64279677","store_key":21,"city":"Santiago"},{"name":"Back On Vinyl","lat":"-33.41223920","long":"-70.59897020","store_key":130,"city":"Santiago"},{"name":"Punto Musical","lat":"-33.39661840","long":"-70.79198460","store_key":156,"city":"Pudahuel"},{"name":"Kali Yuga Distro","lat":"-33.42302322","long":"-70.60995483","store_key":529,"city":"Santiago"},{"name":"Baltazar Vinyl","lat":"-33.42960810","long":"-70.62193730","store_key":565,"city":"Santiago"},{"name":"Needle Barrio Italia","lat":"-33.44781630","long":"-70.62492070","store_key":701,"city":"Santiago"},{"name":"Vinilos","lat":"-33.42261530","long":"-70.61113040","store_key":1033,"city":"Santiago"},{"name":"Funtracks","lat":"-33.42166519","long":"-70.60994720","store_key":1227,"city":"Santiago"},{"name":"Needle Drugstore","lat":"-33.42249080","long":"-70.61116540","store_key":1270,"city":"Santiago"},{"name":"Re Wind","lat":"-33.02434880","long":"-71.55733920","store_key":1334,"city":"Viña del Mar"},{"name":"Todo Música","lat":"-33.43914390","long":"-70.65085820","store_key":1428,"city":"Santiago"},{"name":"Discos Vinilos Al Por Mayor","lat":"-33.44723390","long":"-70.62472120","store_key":1636,"city":"Santiago"},{"name":"Solo Vinilos","lat":"-36.82880402","long":"-73.04958344","store_key":1668,"city":"Concepción"},{"name":"Disquería Global Music","lat":"-33.02475590","long":"-71.55481970","store_key":1675,"city":"Viña del Mar"},{"name":"The Knife Music","lat":"-33.44190000","long":"-70.65044400","store_key":1902,"city":"Santiago"},{"name":"Johnny Records Vinilos","lat":"-33.47411500","long":"-70.64026700","store_key":1962,"city":"Santiago"},{"name":"Disqueria Cyco Records: Sucursal Viña del Mar","lat":"-33.02449070","long":"-71.55460920","store_key":2079,"city":"Viña del Mar"},{"name":"Needle Vinilos","lat":"-33.43647040","long":"-70.64555530","store_key":2094,"city":"Santiago"},{"name":"12 Pulgadas","lat":"-33.41849899","long":"-70.60314941","store_key":2459,"city":"Santiago"},{"name":"Feria Libre Baquedano","lat":"-20.21604919","long":"-70.15209198","store_key":2460,"city":"Iquique"},{"name":"Sabbath Vinilos","lat":"-33.44237518","long":"-70.64756775","store_key":2486,"city":"Santiago"},{"name":"SOLO VINILO Eduardo Brieba","lat":"-33.44229220","long":"-70.67416140","store_key":2546,"city":"Santiago"},{"name":"La Caverna Disquería","lat":"-33.41905760","long":"-70.60367290","store_key":2801,"city":"Santiago"},{"name":"Tienda Sarri Sarri","lat":"-33.44678200","long":"-70.65750900","store_key":2855,"city":"Santiago"},{"name":"Retro Mania","lat":"-33.47389100","long":"-70.64060010","store_key":2865,"city":"Santiago"},{"name":"Kind of Blue","lat":"-33.43720630","long":"-70.64169120","store_key":3002,"city":"Santiago"},{"name":"OBI Vinilos","lat":"-33.42833640","long":"-70.62015960","store_key":3066,"city":"Santiago"},{"name":"Librería Psiquis","lat":"-33.43714905","long":"-70.64118195","store_key":3215,"city":"Santiago"},{"name":"Tienda de Discos Pasion por los Vinilos Rancagua","lat":"-34.17103230","long":"-70.74383410","store_key":3246,"city":"Rancagua"},{"name":"Rock And Roll","lat":"-33.02439100","long":"-71.55280200","store_key":3327,"city":"Viña del Mar"},{"name":"Kraftwerk Disqueria","lat":"-33.42105530","long":"-70.61079200","store_key":3569,"city":"Santiago"},{"name":"Punto Musical","lat":"-33.43820180","long":"-70.64870600","store_key":156,"city":"Santiago"},{"name":"VinylStore","lat":"-18.47914443","long":"-70.31918835","store_key":3679,"city":"Arica"},{"name":"Discos Vinilos Progresivos","lat":"-33.41852022","long":"-70.60312706","store_key":3681,"city":"Santiago"},{"name":"Disquería Chilena","lat":"-33.42761170","long":"-70.61747680","store_key":3831,"city":"Santiago"},{"name":"Needle","lat":"-33.40219340","long":"-70.57824940","store_key":3977,"city":"Santiago"},{"name":"Disco Intrépido","lat":"-33.44722300","long":"-70.63118840","store_key":4253,"city":"Santiago"},{"name":"Sabbath Vinilos","lat":"-33.47515106","long":"-70.64049530","store_key":2486,"city":"Santiago"},{"name":"Tres Oidos","lat":"-33.43023050","long":"-70.62272280","store_key":4397,"city":"Santiago"},{"name":"Punto Musical","lat":"-33.44328140","long":"-70.64844990","store_key":156,"city":"Santiago"},{"name":"Sonar","lat":"-33.43910980","long":"-70.64606476","store_key":4973,"city":"Santiago"},{"name":"La Tienda Nacional","lat":"-33.43742700","long":"-70.64264700","store_key":4974,"city":"Santiago"},{"name":"Triangel","lat":"-33.42193222","long":"-70.60909271","store_key":4980,"city":"Santiago"},{"name":"Disqueria Cyco Records","lat":"-33.44222050","long":"-70.65054110","store_key":5027,"city":"Santiago"},{"name":"Larga Vida Al Vinilo","lat":"-33.42354720","long":"-70.61269070","store_key":5122,"city":"Santiago"},{"name":"Sótano Sónico","lat":"-18.47718500","long":"-70.31687400","store_key":5129,"city":"Arica"},{"name":"Needle Arts","lat":"-33.43663530","long":"-70.64549400","store_key":5362,"city":"Santiago"},{"name":"Antigüedades y Decoración Paolo","lat":"-33.43922290","long":"-70.63033710","store_key":5482,"city":"Santiago"},{"name":"Nextime Records","lat":"-33.40222631","long":"-70.57826412","store_key":5517,"city":"Santiago"},{"name":"Nextime Records","lat":"-33.42153931","long":"-70.60971832","store_key":5517,"city":"Santiago"},{"name":"Billboard - Música, CDs, vinilos, y BluRays","lat":"-33.42256160","long":"-70.61108020","store_key":6206,"city":"Santiago"},{"name":"Memorabilia","lat":"-33.02350920","long":"-71.55688640","store_key":6353,"city":"Viña del Mar"},{"name":"MúsicoVinyl Chile","lat":"-33.42796800","long":"-70.62012800","store_key":6445,"city":"Santiago"},{"name":"Sonar","lat":"-33.42193222","long":"-70.60909271","store_key":4973,"city":"Santiago"},{"name":"Disquería Penquista","lat":"-36.82646820","long":"-73.05084820","store_key":7065,"city":"Concepción"},{"name":"Subterraneo Disqueria","lat":"-20.21630910","long":"-70.14850000","store_key":7103,"city":"Iquique"},{"name":"Respect","lat":"-33.42172940","long":"-70.61003820","store_key":7527,"city":"Santiago"},{"name":"Lugar Sin Limites","lat":"-33.42765045","long":"-70.61784363","store_key":7547,"city":"Santiago"},{"name":"Sick Bangers Tienda","lat":"-33.42226200","long":"-70.61030900","store_key":7614,"city":"Santiago"},{"name":"Local 54","lat":"-33.47390060","long":"-70.64004130","store_key":7662,"city":"Santiago"}]