[{"name":"Indie Music","lat":"39.90402985","long":"116.40752411","store_key":374,"city":"Beijing"},{"name":"The Vinyl House","lat":"23.12832700","long":"113.32699000","store_key":483,"city":"Guangzhou Shi"},{"name":"JAS Vinyl","lat":"30.62134200","long":"104.05950600","store_key":1151,"city":"Chengdu Shi"},{"name":"666","lat":"39.94084549","long":"116.40847778","store_key":1239,"city":"Beijing"},{"name":"Free Sound Records","lat":"39.93235300","long":"116.37437000","store_key":1803,"city":"Beijing"},{"name":"Vinylhouse","lat":"22.52450610","long":"113.93831240","store_key":2707,"city":"Shenzhen Shi"},{"name":"Rockland","lat":"39.93890180","long":"116.39348370","store_key":3586,"city":"Beijing"},{"name":"Rockland","lat":"39.93618011","long":"116.40306854","store_key":3586,"city":"Beijing"},{"name":"Free Sound Records","lat":"39.98549700","long":"116.49523000","store_key":1803,"city":"Beijing"},{"name":"Uptown Records","lat":"31.20848400","long":"121.43143100","store_key":4903,"city":"Shanghai"},{"name":"Indie Music - 独音唱片","lat":"39.94097280","long":"116.39426350","store_key":4969,"city":"Beijing"},{"name":"Fruity Shop","lat":"39.92898941","long":"116.42285156","store_key":5231,"city":"Beijing"},{"name":"Cool Music","lat":"39.92530823","long":"116.41408539","store_key":5337,"city":"Beijing"},{"name":"Li-pi Records","lat":"39.98282000","long":"116.49360300","store_key":7101,"city":"Beijing"}]