[{"name":"Surco Records","lat":"6.23943420","long":"-75.58894180","store_key":1032,"city":"Medellín"},{"name":"Discolombia","lat":"10.97994570","long":"-74.78007680","store_key":1377,"city":"Barranquilla"},{"name":"Artefacto Store","lat":"4.62540770","long":"-74.07381370","store_key":2544,"city":"Bogotá"},{"name":"Video Archivo","lat":"6.24936740","long":"-75.56492610","store_key":2878,"city":"Medellín"},{"name":"ARCHIVO MUSICAL Y LITERARIO","lat":"6.25685530","long":"-75.56591410","store_key":4267,"city":"Medellín"},{"name":"Cabeza de Gramofono","lat":"4.64813185","long":"-74.06163025","store_key":4291,"city":"Bogotá"},{"name":"Discos Vicente","lat":"4.60563330","long":"-74.07242260","store_key":4328,"city":"Bogotá"},{"name":"Musiteca","lat":"4.60563300","long":"-74.07242300","store_key":4411,"city":"Bogotá"},{"name":"Sparta Records","lat":"4.59805584","long":"-74.07583618","store_key":4509,"city":"Bogotá"},{"name":"Tornamesa","lat":"4.65189290","long":"-74.05523270","store_key":4520,"city":"Bogotá"},{"name":"Vinyl Store","lat":"4.60845420","long":"-74.07105390","store_key":4556,"city":"Bogotá"},{"name":"RPM Records","lat":"4.66807800","long":"-74.05496100","store_key":1477,"city":"Bogotá"},{"name":"Vertigo Discos","lat":"4.60857900","long":"-74.07103500","store_key":5236,"city":"Bogotá"},{"name":"Bar Baco","lat":"3.44434400","long":"-76.53653500","store_key":6138,"city":"Cali"},{"name":"La Roma Records","lat":"4.62535715","long":"-74.07230377","store_key":2401,"city":"Bogotá"},{"name":"La Caja Soundbox","lat":"6.24618010","long":"-75.59755810","store_key":6145,"city":"Medellín"},{"name":"Santo & Seña","lat":"4.64064730","long":"-74.06055130","store_key":6186,"city":"Bogotá"},{"name":"HIT MUSICAL","lat":"6.25133700","long":"-75.56520460","store_key":6288,"city":"Medellín"},{"name":"Vinilo y Café","lat":"6.25216270","long":"-75.58798530","store_key":6311,"city":"Medellín"},{"name":"Vinyl Box Music Center","lat":"4.63358540","long":"-74.07872590","store_key":6707,"city":"Bogotá"},{"name":"TLB Records","lat":"4.64090570","long":"-74.06239030","store_key":6846,"city":"Bogotá"},{"name":"Interdiscos","lat":"4.60390250","long":"-74.06967830","store_key":7048,"city":"Bogotá"},{"name":"ARCHIVO MUSICAL","lat":"6.24943410","long":"-75.56491580","store_key":7577,"city":"Medellín"},{"name":"Zapateria Cosmos","lat":"4.60436610","long":"-74.07358870","store_key":7627,"city":"Bogotá"}]