[{"name":"Bontonland Megastore Praha","lat":"50.08410280","long":"14.42417220","store_key":26,"city":"Prague"},{"name":"Bazaar CD DVD Vinyl PRAGUE","lat":"50.07995750","long":"14.42377630","store_key":531,"city":"Prague"},{"name":"Prodej CD, DVD, vinylu","lat":"50.07980930","long":"14.45446540","store_key":1155,"city":"Prague"},{"name":"randomart vinyl and fashion store","lat":"50.06556702","long":"14.42766857","store_key":1607,"city":"Prague"},{"name":"Bontonland Megastore","lat":"49.13664540","long":"16.63174610","store_key":1738,"city":"Modřice"},{"name":"Maximum Underground","lat":"50.08588740","long":"14.41904180","store_key":2023,"city":"Prague"},{"name":"Antikvariat59","lat":"50.06754870","long":"14.49492620","store_key":2364,"city":"Prague"},{"name":"SUPRAPHON musicpoint","lat":"50.08318460","long":"14.42320070","store_key":2365,"city":"Prague"},{"name":"The Bourgeois Pig","lat":"50.07186530","long":"14.43099500","store_key":2467,"city":"Prague"},{"name":"Radost 1992","lat":"50.07591629","long":"14.43235588","store_key":2492,"city":"Prague"},{"name":"Knihkupectví Spálená 53","lat":"50.08191060","long":"14.41921940","store_key":3197,"city":"Prague"},{"name":"Kabinet Records","lat":"49.19562270","long":"16.61250600","store_key":3283,"city":"Brno"},{"name":"CD Krakovská","lat":"50.08589106","long":"14.41905286","store_key":3584,"city":"Prague"},{"name":"Leoptic Music Shop","lat":"50.62488174","long":"15.61200809","store_key":3587,"city":"Vrchlabí"},{"name":"Musicland","lat":"50.08918610","long":"14.42872190","store_key":2328,"city":"Prague"},{"name":"CDmusic.cz / Wide Court","lat":"50.08788900","long":"14.39060300","store_key":3874,"city":"Prague"},{"name":"Japan LP Vinyl Shop","lat":"50.08482000","long":"14.42567550","store_key":3901,"city":"Prague"},{"name":"Relish","lat":"50.10313920","long":"14.44927160","store_key":4230,"city":"Prague"},{"name":"Vinyl Records","lat":"49.19280243","long":"16.61200333","store_key":353,"city":"Brno"},{"name":"Gram Records","lat":"50.07370758","long":"14.44637775","store_key":4872,"city":"Prague"},{"name":"Cafe time music - Muzeum hudby","lat":"50.08496580","long":"14.40457420","store_key":5042,"city":"Prague"},{"name":"HappyFeet Records","lat":"50.08139038","long":"14.42526531","store_key":5159,"city":"Prague"},{"name":"Rekomando (Poli5 & Day After aliance)","lat":"50.07424927","long":"14.41558743","store_key":5283,"city":"Prague"},{"name":"Stereo - Vinyl Culture Shop","lat":"49.20717900","long":"16.60276480","store_key":5445,"city":"Brno-střed-Veveří"},{"name":"Diskoduck","lat":"50.08593670","long":"14.41558970","store_key":5583,"city":"Prague"},{"name":"Jukebox Records","lat":"50.10059738","long":"14.42926788","store_key":5636,"city":"Prague"},{"name":"Antikvariát Musica","lat":"49.19515240","long":"16.61084950","store_key":5841,"city":"Brno"},{"name":"Phono.cz","lat":"50.07996170","long":"14.41837020","store_key":6163,"city":"Prague"},{"name":"Vinyl & Cafebar K","lat":"48.97803810","long":"14.46858730","store_key":6459,"city":"České Budějovice"},{"name":"MusicRecords","lat":"49.74761581","long":"13.36832333","store_key":6593,"city":"Plzeň"},{"name":"Garage Store","lat":"50.09822845","long":"14.43220711","store_key":6961,"city":"Prague"},{"name":"Black vinyl bazar - gramofonové desky, gramofony","lat":"49.19463348","long":"16.61021614","store_key":7012,"city":"Brno"},{"name":"Alien DNA","lat":"50.08453760","long":"14.44858430","store_key":7139,"city":"Prague"},{"name":"Luft","lat":"50.10277410","long":"14.42613030","store_key":7579,"city":"Prague"},{"name":"Gramodesky Letná","lat":"50.10033798","long":"14.42869091","store_key":7629,"city":"Prague"}]