[{"name":"Entertainment Store","lat":"51.53097153","long":"9.93314171","store_key":45,"city":"Göttingen"},{"name":"Back Records - Vinyl in St. Pauli","lat":"53.55352230","long":"9.96175890","store_key":57,"city":"Hamburg"},{"name":"Plattenbox Vinyl An- und Verkauf","lat":"50.07872350","long":"8.23251700","store_key":81,"city":"Wiesbaden"},{"name":"Antiquariat Orban & Streu * Frankfurt","lat":"50.12195650","long":"8.68634200","store_key":123,"city":"Frankfurt am Main"},{"name":"da capo","lat":"49.46952820","long":"10.98867360","store_key":141,"city":"Fürth"},{"name":"Soultrade Recordstore","lat":"52.49235916","long":"13.42346001","store_key":166,"city":"Berlin"},{"name":"Plattenbau","lat":"50.77217484","long":"6.10736799","store_key":176,"city":"Aachen"},{"name":"Rockers","lat":"52.37285960","long":"9.70543410","store_key":177,"city":"Hannover"},{"name":"Crypt Records (Cool & Crazy)","lat":"53.55568314","long":"9.94018936","store_key":184,"city":"Hamburg"},{"name":"Static Shock Music","lat":"52.49341965","long":"13.42517281","store_key":190,"city":"Berlin"},{"name":"Stilbruch Wandsbek","lat":"53.58632440","long":"10.09552570","store_key":201,"city":"Hamburg"},{"name":"Borgweg Records","lat":"53.58956909","long":"10.01552010","store_key":202,"city":"Hamburg"},{"name":"Public Possession","lat":"48.13249207","long":"11.57708073","store_key":208,"city":"München"},{"name":"CD + Plattenladen","lat":"51.44391251","long":"7.25986004","store_key":210,"city":"Bochum"},{"name":"Gutfeeling Recordstore","lat":"48.13108010","long":"11.56401110","store_key":220,"city":"München"},{"name":"Schallplanet","lat":"52.51211166","long":"13.46045971","store_key":225,"city":"Berlin"},{"name":"M2 Music 2nd Hand GmbH","lat":"48.12773700","long":"11.59559500","store_key":253,"city":"München"},{"name":"Musik-Schubert","lat":"51.00271950","long":"13.65315150","store_key":254,"city":"Freital"},{"name":"Musikladen Philippi","lat":"49.24610010","long":"7.36472400","store_key":262,"city":"Zweibrücken"},{"name":"A-Dur Marburg","lat":"50.80643082","long":"8.77192974","store_key":263,"city":"Marburg"},{"name":"Overdrive Record Store","lat":"50.00309753","long":"8.26468086","store_key":264,"city":"Mainz"},{"name":"TOPKAUFMUNICH Thomas Thiermeyer","lat":"48.11347961","long":"11.55018997","store_key":265,"city":"München"},{"name":"Humpty Records Saarbrücken","lat":"49.23593120","long":"6.99860800","store_key":279,"city":"Saarbrücken"},{"name":"Groove Attack","lat":"50.93830490","long":"6.93553782","store_key":309,"city":"Köln"},{"name":"25 Music","lat":"52.38156350","long":"9.74374580","store_key":313,"city":"Hannover"},{"name":"analogetontraeger","lat":"50.12827520","long":"8.70729010","store_key":314,"city":"Frankfurt am Main"},{"name":"TAM TAM RecordShop","lat":"50.76959991","long":"6.08566093","store_key":318,"city":"Aachen"},{"name":"Bebop Schallplatten & CDs","lat":"47.85371017","long":"12.12129021","store_key":320,"city":"Rosenheim"},{"name":"Silverspeed Records","lat":"52.40090000","long":"13.05176010","store_key":380,"city":"Potsdam"},{"name":"Secondhand Undercover","lat":"47.61408310","long":"7.66086500","store_key":384,"city":"Lörrach"},{"name":"Second-Hand ONSALE","lat":"50.82118988","long":"8.77245140","store_key":388,"city":"Marburg"},{"name":"Pits Record Store","lat":"48.36735916","long":"10.89997005","store_key":391,"city":"Augsburg"},{"name":"musicland CD-LP-Bücher","lat":"49.78924470","long":"9.93192530","store_key":399,"city":"Würzburg"},{"name":"Voice of Stars","lat":"52.51910870","long":"13.31847350","store_key":146,"city":"Berlin"},{"name":"Mr. Music","lat":"50.73377610","long":"7.09612460","store_key":446,"city":"Bonn"},{"name":"ROCKland","lat":"53.07194180","long":"8.82996930","store_key":455,"city":"Bremen"},{"name":"Haithabu-Vinyl","lat":"54.51505300","long":"9.55472040","store_key":461,"city":"Schleswig"},{"name":"The Beauty and the Beat","lat":"52.53910960","long":"13.20598770","store_key":484,"city":"Berlin"},{"name":"Smallville Records","lat":"53.55837500","long":"9.96850350","store_key":503,"city":"Hamburg"},{"name":"Die Schlachtplatte","lat":"47.79103851","long":"11.06239986","store_key":533,"city":"Peißenberg"},{"name":"Buchhandlung Graff GmbH","lat":"52.26512146","long":"10.52168465","store_key":544,"city":"Braunschweig"},{"name":"Buchhandlung Seifert & Leseratte","lat":"52.10431000","long":"9.35926000","store_key":574,"city":"Hameln"},{"name":"Music-Attack","lat":"50.58483960","long":"8.67113060","store_key":575,"city":"Gießen"},{"name":"Cheap Trash Records","lat":"48.77561569","long":"9.14974499","store_key":591,"city":"Stuttgart"},{"name":"Schallplatten-Antiquariat","lat":"50.08119750","long":"8.24091340","store_key":592,"city":"Wiesbaden"},{"name":"33 rpm Store","lat":"52.49994278","long":"13.43906784","store_key":596,"city":"Berlin"},{"name":"TONTRÄGER","lat":"48.36653137","long":"10.89961529","store_key":605,"city":"Augsburg"},{"name":"Mono Tonträger","lat":"47.99203110","long":"7.84788179","store_key":618,"city":"Freiburg im Breisgau"},{"name":"Tom's Oldie Records + Poster","lat":"49.00724411","long":"8.40301895","store_key":619,"city":"Karlsruhe"},{"name":"A&V Records","lat":"52.48806620","long":"13.42820760","store_key":633,"city":"Berlin"},{"name":"Selecta Reggae Record Shop","lat":"53.56044670","long":"9.96359930","store_key":674,"city":"Hamburg"},{"name":"ROLLIN' STONE","lat":"50.87640910","long":"8.02813390","store_key":681,"city":"Siegen"},{"name":"Lautstark Mainz","lat":"49.99639330","long":"8.27549260","store_key":696,"city":"Mainz"},{"name":"Nostalgie-Shop","lat":"53.57970740","long":"10.06182250","store_key":733,"city":"Hamburg"},{"name":"Vinylea","lat":"47.84176190","long":"12.98060750","store_key":748,"city":"Freilassing"},{"name":"laut und kreativ","lat":"52.59697000","long":"13.33293610","store_key":752,"city":"Berlin"},{"name":"Retrotrain - Vinyl & Games","lat":"48.59776500","long":"9.72233490","store_key":796,"city":"Deggingen"},{"name":"Music-Attack","lat":"50.81323000","long":"8.76925000","store_key":575,"city":"Marburg"},{"name":"Whispers Records","lat":"51.31992722","long":"12.37381840","store_key":897,"city":"Leipzig"},{"name":"Pauls Musique","lat":"48.77037190","long":"9.17635170","store_key":915,"city":"Stuttgart"},{"name":"Toxic Toast","lat":"50.26119100","long":"10.96567040","store_key":917,"city":"Coburg"},{"name":"Musikshop Kiel","lat":"54.32216644","long":"10.12151623","store_key":932,"city":"Kiel"},{"name":"Hurricane Records","lat":"52.47356033","long":"13.33817959","store_key":936,"city":"Berlin"},{"name":"Musik als Hilfe","lat":"49.88121414","long":"8.65031528","store_key":955,"city":"Darmstadt"},{"name":"Groovy Headshop & Recordstore","lat":"51.53026000","long":"9.93864000","store_key":965,"city":"Göttingen"},{"name":"Mr. Music","lat":"50.91632500","long":"11.57842300","store_key":446,"city":"Jena"},{"name":"Such & Find","lat":"48.76786950","long":"9.17664960","store_key":986,"city":"Stuttgart"},{"name":"Klangkulisse plattenladen","lat":"49.35621700","long":"6.72890300","store_key":1074,"city":"Dillingen/Saar"},{"name":"Die Rille","lat":"51.43606320","long":"7.79811290","store_key":1079,"city":"Menden (Sauerland)"},{"name":"music - musik - musique","lat":"53.49854710","long":"10.50508190","store_key":1081,"city":"Schwarzenbek"},{"name":"The Record Bay","lat":"54.08890533","long":"12.15134144","store_key":1112,"city":"Rostock"},{"name":"Antiquariat René Krieger","lat":"51.53106689","long":"9.93801022","store_key":1135,"city":"Göttingen"},{"name":"Hanna Music","lat":"51.84038120","long":"6.61559460","store_key":1138,"city":"Bocholt"},{"name":"ESHK Friseur Neukölln","lat":"52.47354390","long":"13.43918450","store_key":1152,"city":"Berlin"},{"name":"SATURN","lat":"53.07849430","long":"8.80544010","store_key":1168,"city":"Bremen"},{"name":"Melting Point","lat":"52.53325490","long":"13.40476950","store_key":1170,"city":"Berlin"},{"name":"OYE Records","lat":"52.53837000","long":"13.41094000","store_key":1172,"city":"Berlin"},{"name":"Holy's Hit Records","lat":"52.49015045","long":"13.39239883","store_key":1174,"city":"Berlin"},{"name":"Dussmann das KulturKaufhaus","lat":"52.51832840","long":"13.38900500","store_key":1183,"city":"Berlin"},{"name":"Coast2Coast","lat":"49.94952774","long":"11.57500744","store_key":1184,"city":"Bayreuth"},{"name":"33rpm.de","lat":"52.48755970","long":"13.38792030","store_key":1199,"city":"Berlin"},{"name":"Wir kaufen Schallplatten","lat":"53.60393143","long":"9.90987396","store_key":1201,"city":"Hamburg"},{"name":"Real Deal","lat":"52.49003220","long":"13.40369606","store_key":1202,"city":"Berlin"},{"name":"Studio 1","lat":"53.87227249","long":"10.69020844","store_key":1203,"city":"Lübeck"},{"name":"Plattenbau","lat":"48.76339340","long":"9.16772747","store_key":176,"city":"Stuttgart"},{"name":"Galactic Supermarket Records","lat":"52.51766500","long":"13.45389200","store_key":1231,"city":"Berlin"},{"name":"City Music Voigt","lat":"48.89178848","long":"8.70034981","store_key":1255,"city":"Pforzheim"},{"name":"Jaksch Plattenladen","lat":"52.48660278","long":"13.35900116","store_key":1267,"city":"Berlin"},{"name":"Trauma Records","lat":"52.83445040","long":"13.81098580","store_key":1290,"city":"Eberswalde"},{"name":"Vinylnerds GmbH","lat":"47.81397500","long":"12.48153200","store_key":1303,"city":"Übersee"},{"name":"Oi The Kaufhaus","lat":"52.39783859","long":"9.72025967","store_key":1307,"city":"Hannover"},{"name":"Musik Maschine","lat":"48.39771770","long":"9.99552270","store_key":1310,"city":"Ulm"},{"name":"GrooveZoneRecords.com","lat":"50.35643960","long":"7.59435790","store_key":1316,"city":"Koblenz"},{"name":"Vinylvaquero Records","lat":"52.53136900","long":"13.43462200","store_key":1349,"city":"Berlin"},{"name":"CDs Bessungen","lat":"49.85787570","long":"8.65174190","store_key":1365,"city":"Darmstadt"},{"name":"Soundcheck Schallplatten Alexander Hatz e. Kfm.","lat":"48.43548000","long":"13.33209000","store_key":1366,"city":"Ruhstorf an der Rott"},{"name":"White Rabbit","lat":"52.02473590","long":"8.89937630","store_key":1371,"city":"Lemgo"},{"name":"Decks Records","lat":"53.42860300","long":"11.83019400","store_key":1440,"city":"Parchim"},{"name":"Pank Records","lat":"52.55075380","long":"13.37959340","store_key":1442,"city":"Berlin"},{"name":"Video Buster","lat":"50.83768200","long":"12.91838300","store_key":1443,"city":"Chemnitz"},{"name":"Goebel Plattenladen","lat":"51.13990810","long":"7.21605040","store_key":1471,"city":"Wermelskirchen"},{"name":"AudioKron Record-Store","lat":"50.71411170","long":"7.16439090","store_key":1485,"city":"Bonn"},{"name":"Good Mood Records","lat":"50.92597300","long":"6.91013850","store_key":1527,"city":"Köln"},{"name":"Rotation Boutique","lat":"52.53049469","long":"13.40212917","store_key":1537,"city":"Berlin"},{"name":"No.2 Records","lat":"50.10496140","long":"8.68820000","store_key":1539,"city":"Frankfurt am Main"},{"name":"Pure Soul Records","lat":"53.55260849","long":"9.98046494","store_key":1540,"city":"Hamburg"},{"name":"City Beat Records","lat":"50.10610199","long":"8.69259262","store_key":1541,"city":"Frankfurt am Main"},{"name":"Black Diamond Records","lat":"50.94816208","long":"6.95151997","store_key":1569,"city":"Köln"},{"name":"Jam 66","lat":"54.31490326","long":"10.11844254","store_key":1570,"city":"Kiel"},{"name":"RauteRecords","lat":"52.26255798","long":"10.51219368","store_key":1572,"city":"Braunschweig"},{"name":"33 1/3 Schallplatten","lat":"51.43577000","long":"6.78880000","store_key":1575,"city":"Duisburg"},{"name":"Cargo Record Store","lat":"51.23272705","long":"7.07393122","store_key":1595,"city":"Wuppertal"},{"name":"Silver Disc","lat":"52.49883750","long":"13.44155460","store_key":1603,"city":"Berlin"},{"name":"111-Schallplattenladen","lat":"51.21096802","long":"6.79487705","store_key":1609,"city":"Düsseldorf"},{"name":"Sound Metaphors","lat":"52.49755096","long":"13.42438030","store_key":1612,"city":"Berlin"},{"name":"Riseikel","lat":"52.49883930","long":"13.35580000","store_key":1681,"city":"Berlin"},{"name":"Hifi Linzbach","lat":"50.72461750","long":"7.11180060","store_key":1685,"city":"Bonn"},{"name":"minimotmusic","lat":"49.44639650","long":"7.77263910","store_key":1735,"city":"Kaiserslautern"},{"name":"Hard Wax","lat":"52.49665940","long":"13.42090020","store_key":1740,"city":"Berlin"},{"name":"Sweetwater","lat":"51.05382156","long":"13.81422997","store_key":1744,"city":"Dresden"},{"name":"Alberto Records","lat":"52.48980331","long":"13.40481567","store_key":1746,"city":"Berlin"},{"name":"Minigroove","lat":"53.55127170","long":"9.96335240","store_key":1753,"city":"Hamburg"},{"name":"Der Plattenladen","lat":"49.13973236","long":"9.22491264","store_key":1756,"city":"Heilbronn"},{"name":"Musikzimmer","lat":"49.41209030","long":"8.70709991","store_key":1762,"city":"Heidelberg"},{"name":"Flimmern und Rauschen","lat":"51.31780624","long":"9.49461460","store_key":1767,"city":"Kassel"},{"name":"X-Tone","lat":"52.48381850","long":"13.43045490","store_key":1768,"city":"Berlin"},{"name":"(((Schall)))Haus","lat":"51.15566254","long":"14.98611832","store_key":1775,"city":"Görlitz"},{"name":"Jazz Dreams Berlin","lat":"52.57995500","long":"13.39924670","store_key":1777,"city":"Berlin"},{"name":"Vinyl & More","lat":"49.30318451","long":"10.57396507","store_key":1784,"city":"Ansbach"},{"name":"deejay.de","lat":"50.28084000","long":"11.94547000","store_key":1816,"city":"Döhlau"},{"name":"Power Plant Ape","lat":"48.27234268","long":"12.15176678","store_key":1836,"city":"Dorfen"},{"name":"Pigasus","lat":"52.53951590","long":"13.42029960","store_key":1839,"city":"Berlin"},{"name":"Hellion Records","lat":"53.92324829","long":"9.51949978","store_key":1840,"city":"Itzehoe"},{"name":"Ohrwurm","lat":"51.31592000","long":"9.49983000","store_key":1841,"city":"Kassel"},{"name":"Michael Pieper","lat":"51.89859330","long":"7.42503580","store_key":1890,"city":"Appelhülsen"},{"name":"BEATSOUNDS","lat":"51.25346340","long":"6.39483770","store_key":1959,"city":"Viersen"},{"name":"Filmgarten Hamburg","lat":"53.56606700","long":"9.98171200","store_key":1969,"city":"Hamburg"},{"name":"Isle Of Records","lat":"47.54628320","long":"9.68117600","store_key":1973,"city":"Lindau (Bodensee)"},{"name":"KMA60","lat":"52.47661150","long":"13.42142950","store_key":1974,"city":"Berlin"},{"name":"Sounds & Vision Line","lat":"52.43738430","long":"13.54641530","store_key":1985,"city":"Berlin"},{"name":"Spielerei","lat":"52.44284640","long":"13.76400980","store_key":2030,"city":"Woltersdorf"},{"name":"S1 Vinyl & Kaffee","lat":"51.34712601","long":"12.31476116","store_key":2042,"city":"Leipzig"},{"name":"Aftermath","lat":"54.33102980","long":"10.12840900","store_key":2058,"city":"Kiel"},{"name":"Tonkost GmbH","lat":"51.53516090","long":"9.93641860","store_key":2109,"city":"Göttingen"},{"name":"Pinkepank Ankauf - Verkauf - Tausch","lat":"52.15087150","long":"9.95243990","store_key":2110,"city":"Hildesheim"},{"name":"Second Hand Records","lat":"48.77846146","long":"9.17057705","store_key":2117,"city":"Stuttgart"},{"name":"Golden Shop","lat":"53.07340440","long":"8.82467330","store_key":2119,"city":"Bremen"},{"name":"Plattenrille","lat":"53.56853867","long":"9.98277187","store_key":2121,"city":"Hamburg"},{"name":"Fashion Killers","lat":"52.49895096","long":"13.44064999","store_key":2125,"city":"Berlin"},{"name":"Schallhandel","lat":"50.92580414","long":"6.93791008","store_key":2130,"city":"Köln"},{"name":"Sonic Sound","lat":"53.25195370","long":"10.40917070","store_key":2136,"city":"Lüneburg"},{"name":"Platten Pedro","lat":"52.52338670","long":"13.29911130","store_key":2138,"city":"Berlin"},{"name":"Onkel Stereo","lat":"51.43224000","long":"6.76342440","store_key":2185,"city":"Duisburg"},{"name":"Ratzer Records","lat":"48.76459885","long":"9.16926479","store_key":2190,"city":"Stuttgart"},{"name":"Woodstock Recordstore","lat":"51.00292970","long":"11.02962440","store_key":2191,"city":"Erfurt"},{"name":"Die Schallplatte","lat":"51.19580841","long":"8.53765965","store_key":2202,"city":"Winterberg"},{"name":"Muting The Noise / Innervisions","lat":"52.49386978","long":"13.39844036","store_key":2204,"city":"Berlin"},{"name":"Green KR","lat":"51.30425710","long":"6.58576920","store_key":2252,"city":"Krefeld"},{"name":"Brad and Bruce","lat":"52.49123930","long":"13.39089060","store_key":2278,"city":"Berlin"},{"name":"Jackson Records","lat":"52.48695000","long":"13.43951000","store_key":2307,"city":"Berlin"},{"name":"Glas & Bohne","lat":"51.33508180","long":"12.33053160","store_key":2308,"city":"Leipzig"},{"name":"Cashmir - Second Hand Records","lat":"53.53619170","long":"8.59707880","store_key":2331,"city":"Bremerhaven"},{"name":"Musikhaus Schlaile GmbH","lat":"49.00958430","long":"8.39987560","store_key":2359,"city":"Karlsruhe"},{"name":"Michelle Records","lat":"53.55260468","long":"10.00117779","store_key":2372,"city":"Hamburg"},{"name":"Amsterdam Record Shop","lat":"51.51164246","long":"7.44096708","store_key":2374,"city":"Dortmund"},{"name":"Shubashi Records","lat":"52.45980072","long":"13.32602882","store_key":2418,"city":"Berlin"},{"name":"Second Music & Fun - Records Munich","lat":"48.15092468","long":"11.56547832","store_key":2427,"city":"München"},{"name":"Record Store am Ostentor","lat":"49.01900482","long":"12.10458374","store_key":2428,"city":"Regensburg"},{"name":"Sally Records","lat":"50.92408360","long":"6.91253170","store_key":2431,"city":"Köln"},{"name":"Bahlo Records","lat":"51.48597110","long":"7.21329690","store_key":2434,"city":"Bochum"},{"name":"Kaleidoscope-Music","lat":"50.26834869","long":"11.84549046","store_key":2440,"city":"Konradsreuth"},{"name":"Musicland GbR Tonträgerhandel","lat":"48.37079239","long":"10.89632034","store_key":2445,"city":"Augsburg"},{"name":"Soundcheck","lat":"49.44130707","long":"7.76669216","store_key":2453,"city":"Kaiserslautern"},{"name":"Musikkammer","lat":"51.24361801","long":"6.52007008","store_key":2454,"city":"Willich"},{"name":"Kunterbunt Second Hand","lat":"54.37390137","long":"10.97793961","store_key":2468,"city":"Heiligenhafen"},{"name":"Rainking Recordstore","lat":"51.23227310","long":"6.78959322","store_key":2485,"city":"Düsseldorf"},{"name":"Rita Records","lat":"52.46910477","long":"13.43114281","store_key":2498,"city":"Berlin"},{"name":"Café Schall und Crema","lat":"48.92454910","long":"9.42716789","store_key":2506,"city":"Backnang"},{"name":"schoenwettermusik","lat":"52.55113210","long":"13.33971030","store_key":2526,"city":"Berlin"},{"name":"Ju-Ju Trumpet","lat":"53.59325860","long":"9.98759650","store_key":2528,"city":"Hamburg"},{"name":"ESHK Friseur Moabit","lat":"52.53000610","long":"13.34290150","store_key":2531,"city":"Berlin"},{"name":"Timewarp Records","lat":"51.53773000","long":"7.02066000","store_key":1012,"city":"Gelsenkirchen"},{"name":"KILL-O-ZAP - music & more","lat":"49.45726170","long":"11.07595050","store_key":2550,"city":"Nürnberg"},{"name":"Ghost Town Records","lat":"52.50812760","long":"13.46599690","store_key":2551,"city":"Berlin"},{"name":"Fatplastics Recordstore","lat":"50.92452430","long":"11.58284400","store_key":2552,"city":"Jena"},{"name":"Logo","lat":"52.48954970","long":"13.38981190","store_key":2614,"city":"Berlin"},{"name":"HHV Store","lat":"52.51177216","long":"13.45590210","store_key":2618,"city":"Berlin"},{"name":"Deep Groove","lat":"47.83864000","long":"12.98118910","store_key":2633,"city":"Freilassing"},{"name":"Echobeat Records","lat":"49.97504807","long":"9.15048218","store_key":2634,"city":"Aschaffenburg"},{"name":"Vinylism","lat":"53.72698975","long":"10.26755047","store_key":2635,"city":"Bargteheide"},{"name":"Musicland","lat":"49.59711838","long":"11.00259781","store_key":2328,"city":"Erlangen"},{"name":"The Hangout","lat":"51.51701736","long":"7.46423292","store_key":2644,"city":"Dortmund"},{"name":"Vinyl Salon","lat":"54.32456207","long":"10.11584377","store_key":2658,"city":"Kiel"},{"name":"Stilkanzlei","lat":"53.07086182","long":"8.80020809","store_key":2673,"city":"Bremen"},{"name":"Butterfly • Record-Store","lat":"50.43983520","long":"7.40170930","store_key":2705,"city":"Andernach"},{"name":"Music und More","lat":"51.45496900","long":"6.61506230","store_key":2738,"city":"Moers"},{"name":"Schallplattenantiquariat Streif","lat":"52.53063965","long":"13.35125828","store_key":2769,"city":"Berlin"},{"name":"Pressezentrum","lat":"54.08805270","long":"12.13987390","store_key":2825,"city":"Rostock"},{"name":"SATURN","lat":"51.32661890","long":"6.56642810","store_key":1168,"city":"Krefeld"},{"name":"Underworld Recordstore Chemnitz","lat":"50.83595080","long":"12.91769370","store_key":2864,"city":"Chemnitz"},{"name":"Love For Sale","lat":"52.48631470","long":"13.43512450","store_key":2904,"city":"Berlin"},{"name":"Best Records Vinyl An- & Verkauf","lat":"48.14855790","long":"11.57437830","store_key":2907,"city":"München"},{"name":"ROCK STORE CD & Vinyl","lat":"51.44657516","long":"7.07431078","store_key":2908,"city":"Essen"},{"name":"Mitte Musik","lat":"52.50922394","long":"13.45367527","store_key":2927,"city":"Berlin"},{"name":"Musicland","lat":"52.53129340","long":"13.19666820","store_key":2328,"city":"Berlin"},{"name":"Musikhaus Kietz","lat":"51.33397460","long":"12.37410160","store_key":2971,"city":"Leipzig"},{"name":"musicandbooks","lat":"48.13523865","long":"11.56798363","store_key":2973,"city":"München"},{"name":"Remedy Records","lat":"53.59319305","long":"9.92833138","store_key":2985,"city":"Hamburg"},{"name":"Tactile Record Store","lat":"50.12670710","long":"8.69235700","store_key":2986,"city":"Frankfurt am Main"},{"name":"CDs am Goethehaus","lat":"50.11155319","long":"8.67763138","store_key":2988,"city":"Frankfurt am Main"},{"name":"Throwback Vinyl","lat":"51.19614040","long":"6.83708960","store_key":3038,"city":"Düsseldorf"},{"name":"Scheibenwelt","lat":"50.60769030","long":"10.68682080","store_key":3040,"city":"Suhl"},{"name":"Vinyl Berlin","lat":"52.52780530","long":"13.33590730","store_key":3087,"city":"Berlin"},{"name":"Fat Fenders Recordstore","lat":"51.06502914","long":"13.75220299","store_key":3106,"city":"Dresden"},{"name":"Archiv, CDs & LPs","lat":"51.50625992","long":"7.46057987","store_key":3107,"city":"Dortmund"},{"name":"Riptide","lat":"52.26366940","long":"10.51739440","store_key":3111,"city":"Braunschweig"},{"name":"Bis Aufs Messer Records","lat":"52.50806820","long":"13.44947230","store_key":3112,"city":"Berlin"},{"name":"Plattenlädle","lat":"48.49398960","long":"9.20879810","store_key":3122,"city":"Reutlingen"},{"name":"Ruff Trade Records","lat":"53.55724910","long":"9.97271210","store_key":3123,"city":"Hamburg"},{"name":"Mono","lat":"48.13080978","long":"11.60527039","store_key":3125,"city":"München"},{"name":"Fischkopp-Plattenshop","lat":"53.55875015","long":"9.97196007","store_key":3128,"city":"Hamburg"},{"name":"Fundgrube Greifswald","lat":"54.09490967","long":"13.38167667","store_key":3144,"city":"Greifswald"},{"name":"Schallplattenlager am ZOB","lat":"53.86432648","long":"10.66916561","store_key":3145,"city":"Lübeck"},{"name":"KULTur-Antiquariat, Filiale Boizenburg","lat":"53.37536240","long":"10.72014427","store_key":3146,"city":"Boizenburg/Elbe"},{"name":"Ohrakel-Records","lat":"51.34272766","long":"12.37889576","store_key":3148,"city":"Leipzig"},{"name":"Plattenzimmer","lat":"48.22056000","long":"12.67184000","store_key":3179,"city":"Altötting"},{"name":"Sonderbar","lat":"51.42750549","long":"6.88537598","store_key":3198,"city":"Mülheim an der Ruhr"},{"name":"Little Nemo Bochum","lat":"51.47872543","long":"7.21460295","store_key":3207,"city":"Bochum"},{"name":"Die Tonabnehmer","lat":"48.16384690","long":"11.57431520","store_key":3211,"city":"München"},{"name":"Ohrwurm Record Store","lat":"52.27692980","long":"7.43433590","store_key":3212,"city":"Rheine"},{"name":"Kernkrach Schallplatten","lat":"51.95306600","long":"7.63751900","store_key":3286,"city":"Münster"},{"name":"Slowboy Records","lat":"51.22947340","long":"6.80944580","store_key":3309,"city":"Düsseldorf"},{"name":"Vinylio","lat":"49.44894960","long":"11.07173530","store_key":3310,"city":"Nürnberg"},{"name":"Plattenladen","lat":"50.91672320","long":"6.96155270","store_key":3351,"city":"Köln"},{"name":"T-Recs Recordstore","lat":"49.01683280","long":"12.09647570","store_key":3364,"city":"Regensburg"},{"name":"Optimal Records","lat":"48.13040560","long":"11.57151400","store_key":3369,"city":"München"},{"name":"Saturn","lat":"53.55118770","long":"10.00555960","store_key":2725,"city":"Hamburg"},{"name":"Mainrecords","lat":"50.10266410","long":"8.77451320","store_key":3387,"city":"Offenbach"},{"name":"Oldschool","lat":"52.50210790","long":"13.31425990","store_key":3410,"city":"Berlin"},{"name":"Fidelio Klassik","lat":"52.48640823","long":"13.35548306","store_key":3413,"city":"Berlin"},{"name":"Pop Art","lat":"51.26123428","long":"7.14133310","store_key":3435,"city":"Wuppertal"},{"name":"Positive Second Hand","lat":"51.44311142","long":"7.01668787","store_key":3453,"city":"Essen"},{"name":"Marla Records","lat":"52.49192020","long":"13.39058420","store_key":3454,"city":"Berlin"},{"name":"MusicAndBooks","lat":"49.44916916","long":"11.07127666","store_key":3462,"city":"Nürnberg"},{"name":"VARY Recordstore & Café","lat":"51.34619522","long":"12.39587593","store_key":3463,"city":"Leipzig"},{"name":"Gosu Store","lat":"50.11025238","long":"8.68612480","store_key":3464,"city":"Frankfurt am Main"},{"name":"Connaisseur Mailorder e. K.","lat":"49.31823730","long":"8.43332100","store_key":3466,"city":"Speyer"},{"name":"CD Depot","lat":"50.08008400","long":"8.22423700","store_key":3474,"city":"Wiesbaden"},{"name":"H & M Schallplatten","lat":"48.26746400","long":"13.02746600","store_key":3488,"city":"Simbach am Inn"},{"name":"Dodo Beach East","lat":"52.54046020","long":"13.41791470","store_key":3511,"city":"Berlin"},{"name":"Pinkepank - Ankauf - Verkauf - Tausch","lat":"52.15317590","long":"10.33145570","store_key":3545,"city":"Salzgitter"},{"name":"Firestation Records","lat":"52.55317010","long":"13.42373130","store_key":3657,"city":"Berlin"},{"name":"lamellophon // schallplatten aus aller welt","lat":"52.45658000","long":"13.32924000","store_key":3690,"city":"Berlin"},{"name":"Herrn Salomons Buchladen","lat":"50.83598000","long":"12.93747000","store_key":3694,"city":"Chemnitz"},{"name":"Underpressure Hip Hop Store","lat":"53.55968475","long":"9.96467876","store_key":3700,"city":"Hamburg"},{"name":"Idiots Records","lat":"51.51349640","long":"7.45363998","store_key":3705,"city":"Dortmund"},{"name":"Discover Record Store","lat":"51.48163690","long":"7.22082940","store_key":3706,"city":"Bochum"},{"name":"Franz & Josef - Plattenladen","lat":"52.53427505","long":"13.40507889","store_key":3707,"city":"Berlin"},{"name":"Discover","lat":"49.00617599","long":"8.40625858","store_key":3710,"city":"Karlsruhe"},{"name":"Power Park Recordstore","lat":"52.51324844","long":"13.45601845","store_key":3716,"city":"Berlin"},{"name":"Records Berlin","lat":"52.49649048","long":"13.43387032","store_key":3726,"city":"Berlin"},{"name":"Studio Eins","lat":"47.65850449","long":"9.17018986","store_key":3729,"city":"Konstanz"},{"name":"andrä - Musik Filme Games","lat":"51.95764923","long":"7.62820005","store_key":3746,"city":"Münster"},{"name":"Dock’s LP/CD/DVD-Börse","lat":"48.13275528","long":"11.57941628","store_key":3754,"city":"München"},{"name":"mono-Ton","lat":"49.44817352","long":"11.07198238","store_key":3766,"city":"Nürnberg"},{"name":"Rimpo Tonträger","lat":"48.52067480","long":"9.04999940","store_key":3772,"city":"Tübingen"},{"name":"33 Tours","lat":"49.23080826","long":"7.00177002","store_key":3794,"city":"Saarbrücken"},{"name":"Café Sound","lat":"48.04784775","long":"9.32711220","store_key":3804,"city":"Mengen"},{"name":"Seventies Stereo","lat":"53.57092000","long":"9.98528000","store_key":3856,"city":"Hamburg"},{"name":"Rockin' Rollin' Products","lat":"49.27715800","long":"8.74212900","store_key":3869,"city":"Dielheim"},{"name":"Elevate Berlin","lat":"52.51054880","long":"13.44925630","store_key":3958,"city":"Berlin"},{"name":"Haldern Pop Shop","lat":"51.77479940","long":"6.45856710","store_key":3970,"city":"Rees"},{"name":"Schallplatten -Cd-DVD-Bücher und mehr","lat":"52.47600000","long":"13.32901000","store_key":3976,"city":"Berlin"},{"name":"Der Schallplattenmann","lat":"49.59642029","long":"11.00896454","store_key":3981,"city":"Erlangen"},{"name":"Audio-In","lat":"52.50934219","long":"13.45451355","store_key":3983,"city":"Berlin"},{"name":"Rock Steady Records","lat":"52.51351547","long":"13.30565166","store_key":3984,"city":"Berlin"},{"name":"Schönhauser Music","lat":"52.54694748","long":"13.41366482","store_key":3986,"city":"Berlin"},{"name":"Headshop Asphalt Couture","lat":"47.78412628","long":"9.61336231","store_key":3993,"city":"Ravensburg"},{"name":"Marleen Records","lat":"50.54826080","long":"9.67497350","store_key":3994,"city":"Fulda"},{"name":"Bluesite Recordshop","lat":"52.02331600","long":"8.52434710","store_key":3995,"city":"Bielefeld"},{"name":"Stilbruch Altona","lat":"53.56531800","long":"9.92482780","store_key":4005,"city":"Hamburg"},{"name":"Antiquariat Ihring","lat":"52.49689740","long":"13.35203800","store_key":4006,"city":"Berlin"},{"name":"Die Schallplatte","lat":"47.88202350","long":"10.61873200","store_key":2202,"city":"Kaufbeuren"},{"name":"Sure Shot","lat":"51.48039627","long":"11.97066593","store_key":4046,"city":"Halle (Saale)"},{"name":"andrä - Music Video Games","lat":"51.45759630","long":"7.01025570","store_key":4049,"city":"Essen"},{"name":"Monkey Island","lat":"48.13027191","long":"11.59586143","store_key":4071,"city":"München"},{"name":"andrä - Musik Filme Games","lat":"50.93944250","long":"6.94802230","store_key":3746,"city":"Köln"},{"name":"Saturn am Hansaring","lat":"50.94943020","long":"6.95039620","store_key":4087,"city":"Köln"},{"name":"SATURN","lat":"48.13863160","long":"11.56754720","store_key":1168,"city":"München"},{"name":"The Smallest Recordstore In The World","lat":"52.50773390","long":"13.45166180","store_key":4239,"city":"Berlin"},{"name":"BANKERT. Vinyl-Café","lat":"52.51609660","long":"13.46092330","store_key":4254,"city":"Berlin"},{"name":"Rille & Promille","lat":"48.11881880","long":"11.57172390","store_key":4265,"city":"München"},{"name":"Kooky Record Shop","lat":"52.02834550","long":"8.52493400","store_key":4266,"city":"Bielefeld"},{"name":"Musikantiquariat Dr. Bernhard A. Kohl GmbH","lat":"48.76845932","long":"9.17848969","store_key":4307,"city":"Stuttgart"},{"name":"Freiheit & Roosen","lat":"53.55326843","long":"9.95694542","store_key":4345,"city":"Hamburg"},{"name":"Warschauer Music Store","lat":"52.51314770","long":"13.45328680","store_key":4349,"city":"Berlin"},{"name":"Vinyl-a-GoGo","lat":"52.51015854","long":"13.46012115","store_key":4364,"city":"Berlin"},{"name":"Studio Eins Records","lat":"48.99927902","long":"8.39424992","store_key":4371,"city":"Karlsruhe"},{"name":"Nobbis Plattenladen","lat":"50.73627130","long":"7.11662230","store_key":4391,"city":"Bonn"},{"name":"Staalplaat Berlin","lat":"52.47602844","long":"13.42383003","store_key":4402,"city":"Berlin"},{"name":"andrä - Music Video Games","lat":"51.51381210","long":"7.46315550","store_key":4049,"city":"Dortmund"},{"name":"Shock Records & Coffee","lat":"52.28057861","long":"8.04378033","store_key":4434,"city":"Osnabrück"},{"name":"Records Records","lat":"52.47911870","long":"13.42409200","store_key":4435,"city":"Berlin"},{"name":"Hot Rats Records","lat":"52.12734340","long":"11.61241500","store_key":4462,"city":"Magdeburg"},{"name":"Wowsville","lat":"52.49488831","long":"13.42988205","store_key":4475,"city":"Berlin"},{"name":"Villa Vinyl","lat":"50.92948490","long":"12.70724920","store_key":4477,"city":"Penig"},{"name":"KULTur-Antiquariat","lat":"53.25083890","long":"10.41476110","store_key":4482,"city":"Lüneburg"},{"name":"Dropout Records","lat":"51.06676483","long":"13.75129128","store_key":4483,"city":"Dresden"},{"name":"High Fidelity","lat":"50.77436066","long":"6.07937813","store_key":1658,"city":"Aachen"},{"name":"New Lifeshark Records","lat":"51.44856730","long":"7.00844370","store_key":4518,"city":"Essen"},{"name":"Plattenladen Monophon","lat":"49.80234920","long":"9.94444060","store_key":4519,"city":"Würzburg"},{"name":"Honky Tonk","lat":"48.88534164","long":"8.69151020","store_key":4527,"city":"Pforzheim"},{"name":"Plattenkiste Neubeckum","lat":"51.80041885","long":"8.04143047","store_key":4528,"city":"Beckum"},{"name":"Matthias Letzel Musikshop","lat":"51.52392100","long":"12.33893200","store_key":4624,"city":"Delitzsch"},{"name":"SiTo aktiv Musik GmbH","lat":"53.24913820","long":"10.40762830","store_key":4625,"city":"Lüneburg"},{"name":"Otter Stones","lat":"53.55210960","long":"9.92518120","store_key":4631,"city":"Hamburg"},{"name":"Mosaik Schallplatten","lat":"53.93610250","long":"10.31305240","store_key":4635,"city":"Bad Segeberg"},{"name":"Langspielzimmer","lat":"47.82619370","long":"10.02374290","store_key":4724,"city":"Leutkirch im Allgäu"},{"name":"beat retreat record store","lat":"51.22673340","long":"6.80021710","store_key":4750,"city":"Düsseldorf"},{"name":"Laden 14,80","lat":"49.44920000","long":"11.05392000","store_key":4790,"city":"Nürnberg"},{"name":"Libertine","lat":"52.49538650","long":"13.43388230","store_key":4811,"city":"Berlin"},{"name":"Retro-Nico","lat":"49.31707530","long":"8.54970960","store_key":4825,"city":"Hockenheim"},{"name":"Hot Shot","lat":"53.07891083","long":"8.80648041","store_key":4878,"city":"Bremen"},{"name":"Musikpalast","lat":"54.78899610","long":"9.43084370","store_key":4879,"city":"Flensburg"},{"name":"Dreamworld-Records","lat":"49.14419000","long":"9.22000000","store_key":4891,"city":"Heilbronn"},{"name":"PIN-UP Comics & more","lat":"50.94806671","long":"6.95159721","store_key":4902,"city":"Köln"},{"name":"Music & Fun","lat":"54.32317540","long":"10.12426310","store_key":4904,"city":"Kiel"},{"name":"Monster Records","lat":"52.37698870","long":"9.72427920","store_key":4906,"city":"Hannover"},{"name":"Popcorn Records","lat":"51.07635000","long":"13.74803000","store_key":4942,"city":"Dresden"},{"name":"GlanzZeit Schallplatten An- und Verkauf","lat":"50.36106080","long":"7.59359240","store_key":4943,"city":"Koblenz"},{"name":"Yeah Records","lat":"51.46235500","long":"7.01503590","store_key":4948,"city":"Essen"},{"name":"The Needle And The Damage Done","lat":"51.30693054","long":"12.38002968","store_key":4954,"city":"Leipzig"},{"name":"HiFi Bauernhof","lat":"47.80258942","long":"10.23174000","store_key":4956,"city":"Altusried"},{"name":"Hinterhof Records","lat":"49.49411011","long":"8.45963001","store_key":4963,"city":"Mannheim"},{"name":"Bikini Waxx Records","lat":"52.49823120","long":"13.42523940","store_key":4964,"city":"Berlin"},{"name":"Triangel GBR An- und Verkauf","lat":"53.51953610","long":"8.11660350","store_key":4970,"city":"Wilhelmshaven"},{"name":"Purple Penny Records","lat":"52.54415240","long":"13.42314790","store_key":5022,"city":"Berlin"},{"name":"Schallplattenzentrale","lat":"48.12444930","long":"11.58067620","store_key":5040,"city":"München"},{"name":"EP:Musik Schallowetz","lat":"51.33729910","long":"7.04913760","store_key":5060,"city":"Velbert"},{"name":"Space Hall","lat":"52.49054000","long":"13.39441100","store_key":5149,"city":"Berlin"},{"name":"Sick Wreckords","lat":"50.10527420","long":"8.68714237","store_key":5151,"city":"Frankfurt am Main"},{"name":"Kompakt","lat":"50.94387054","long":"6.93935108","store_key":5155,"city":"Köln"},{"name":"Whispers-Records","lat":"51.48202133","long":"11.96751022","store_key":5161,"city":"Halle (Saale)"},{"name":"Checkpoint Charly","lat":"53.58311081","long":"9.96759701","store_key":5162,"city":"Hamburg"},{"name":"Musictrain Records","lat":"52.50696182","long":"13.29832077","store_key":5171,"city":"Berlin"},{"name":"Early Bird Records","lat":"50.93238831","long":"6.93381596","store_key":5179,"city":"Köln"},{"name":"Art Box c/o Future Jam Vinyl Records","lat":"47.78245544","long":"9.61222363","store_key":5206,"city":"Ravensburg"},{"name":"Tommes Schallplatten + Bücher","lat":"48.77313995","long":"9.18447971","store_key":5213,"city":"Stuttgart"},{"name":"Rumpsti Pumsti","lat":"52.48941000","long":"13.46026000","store_key":5217,"city":"Berlin"},{"name":"Scheibenkleister","lat":"53.14858720","long":"8.22452750","store_key":5218,"city":"Oldenburg"},{"name":"Sound Vinyl Store","lat":"52.49105580","long":"13.39028910","store_key":5235,"city":"Berlin"},{"name":"Bird´s Nest Music","lat":"51.25973892","long":"6.97103596","store_key":5262,"city":"Mettmann"},{"name":"Green Hell Records","lat":"51.96123123","long":"7.63361788","store_key":5275,"city":"Münster"},{"name":"Feinklang Musikladen","lat":"50.64916790","long":"11.36452620","store_key":5285,"city":"Saalfeld"},{"name":"Anders Hören","lat":"53.59424450","long":"9.99787260","store_key":5286,"city":"Hamburg"},{"name":"Schallplatte","lat":"50.73293304","long":"12.49125099","store_key":5300,"city":"Zwickau"},{"name":"Tom's Corner","lat":"51.47963750","long":"7.20606000","store_key":5304,"city":"Bochum"},{"name":"Heaven Records","lat":"49.63067280","long":"8.36118310","store_key":5313,"city":"Worms"},{"name":"Aktiv Music Point","lat":"51.48303604","long":"7.21692991","store_key":5314,"city":"Bochum"},{"name":"H2O","lat":"49.79526138","long":"9.92755604","store_key":5316,"city":"Würzburg"},{"name":"Black Plastic","lat":"51.51362610","long":"7.45143223","store_key":5322,"city":"Dortmund"},{"name":"Comic und Musik Archiv","lat":"52.03718660","long":"8.56058620","store_key":5333,"city":"Bielefeld"},{"name":"MTS-Records","lat":"53.14045010","long":"8.21450150","store_key":5335,"city":"Oldenburg"},{"name":"Dj-record-shop GmbH","lat":"52.27438736","long":"8.05385399","store_key":5344,"city":"Osnabrück"},{"name":"werk3 - KlangWert","lat":"53.63008000","long":"11.41504590","store_key":5357,"city":"Schwerin"},{"name":"Ladenbergen","lat":"47.80667877","long":"12.59019566","store_key":5368,"city":"Bergen"},{"name":"Smile Records","lat":"53.32745743","long":"9.87542343","store_key":4774,"city":"Buchholz in der Nordheide"},{"name":"Soultunes","lat":"52.12030050","long":"11.62973980","store_key":5391,"city":"Magdeburg"},{"name":"Berliner Vinylwerk","lat":"52.48833770","long":"13.44300180","store_key":5404,"city":"Berlin"},{"name":"Schachmatt","lat":"51.63744000","long":"8.51571000","store_key":5428,"city":"Geseke"},{"name":"Studio illegale","lat":"53.07207700","long":"8.82182040","store_key":5472,"city":"Bremen"},{"name":"Galerie Eisdiele","lat":"49.44707000","long":"11.06153000","store_key":5477,"city":"Nürnberg"},{"name":"Best Music Schallplattenladen","lat":"51.33820724","long":"8.95875740","store_key":5542,"city":"Twistetal"},{"name":"Lucky Star Records","lat":"50.12743380","long":"8.70822030","store_key":5544,"city":"Frankfurt am Main"},{"name":"a-Musik","lat":"50.93192100","long":"6.94840100","store_key":5546,"city":"Köln"},{"name":"Musicland","lat":"49.89332962","long":"10.88766193","store_key":2328,"city":"Bamberg"},{"name":"Subsonic","lat":"49.90573883","long":"8.58987045","store_key":5595,"city":"Weiterstadt"},{"name":"Zeitlos Weiden - Literatur, Musik, Multimedia","lat":"49.67805320","long":"12.16676870","store_key":5606,"city":"Weiden in der Oberpfalz"},{"name":"Vinyl Lounge","lat":"51.44194794","long":"7.00055981","store_key":5607,"city":"Essen"},{"name":"Vinyl Garage","lat":"51.19553375","long":"6.42660999","store_key":5616,"city":"Mönchengladbach"},{"name":"Vacation Records","lat":"51.26626587","long":"7.14532804","store_key":5617,"city":"Wuppertal"},{"name":"Discy","lat":"48.05035782","long":"10.87757397","store_key":5619,"city":"Landsberg am Lech"},{"name":"Ohrwurm CDs","lat":"52.36577000","long":"9.71876010","store_key":5650,"city":"Hannover"},{"name":"Plattenlauscher Wismar","lat":"53.89378380","long":"11.46362050","store_key":5674,"city":"Wismar"},{"name":"Inch By Inch","lat":"51.33601890","long":"12.33138160","store_key":5682,"city":"Leipzig"},{"name":"Record Hole","lat":"52.48632940","long":"13.43535760","store_key":5687,"city":"Berlin"},{"name":"Theaterkasse Emil Schumacher","lat":"53.54976654","long":"9.99365807","store_key":5744,"city":"Hamburg"},{"name":"Strangeville Records","lat":"51.25948190","long":"7.13743630","store_key":5746,"city":"Wuppertal"},{"name":"Hip Hop Cave","lat":"52.49036000","long":"13.44909000","store_key":5816,"city":"Berlin"},{"name":"HANSE CD Musik im Hanse Viertel GmbH","lat":"53.55289770","long":"9.98831040","store_key":5860,"city":"Hamburg"},{"name":"Come Back","lat":"49.87402725","long":"8.65136528","store_key":5872,"city":"Darmstadt"},{"name":"Hitsville","lat":"51.22436523","long":"6.77354193","store_key":5877,"city":"Düsseldorf"},{"name":"COAAST","lat":"54.18142000","long":"12.08609000","store_key":5898,"city":"Rostock"},{"name":"Phonocentrum","lat":"51.33319855","long":"12.37385082","store_key":5901,"city":"Leipzig"},{"name":"Dodo Beach Record Store","lat":"52.48932260","long":"13.35555750","store_key":5904,"city":"Berlin"},{"name":"MrPlattenfan","lat":"48.43643800","long":"8.93755660","store_key":5926,"city":"Dettingen"},{"name":"Opus 61 - Shop for Classic & Jazz","lat":"51.06266785","long":"13.75000954","store_key":5943,"city":"Dresden"},{"name":"Georgie's vinyl records store","lat":"52.43720340","long":"7.06238230","store_key":5946,"city":"Nordhorn"},{"name":"Der Schallplattenladen Stralsund","lat":"54.31626660","long":"13.08932150","store_key":5958,"city":"Stralsund"},{"name":"vinylgarage","lat":"49.44068909","long":"7.71644688","store_key":5988,"city":"Kaiserslautern"},{"name":"vongestern","lat":"53.75296021","long":"9.65080833","store_key":5989,"city":"Elmshorn"},{"name":"Saturn","lat":"48.77947200","long":"9.17802800","store_key":2725,"city":"Stuttgart"},{"name":"Pop - Der Laden","lat":"52.49271000","long":"13.36982000","store_key":5993,"city":"Berlin"},{"name":"Record Store (with no name)","lat":"53.37321091","long":"10.55747986","store_key":6020,"city":"Lauenburg Elbe"},{"name":"Disconnect Gallery & Praxis Records","lat":"52.51101200","long":"13.46742800","store_key":6022,"city":"Berlin"},{"name":"Japan Records","lat":"52.55243840","long":"13.43154020","store_key":6032,"city":"Berlin"},{"name":"Trikont Schallplatten","lat":"48.11492670","long":"11.57907330","store_key":6060,"city":"München"},{"name":"Hanseplatte","lat":"53.55820465","long":"9.96840858","store_key":6061,"city":"Hamburg"},{"name":"A&O Medien","lat":"51.22513199","long":"6.78090906","store_key":6063,"city":"Düsseldorf"},{"name":"Bongartz Musik in allen Formaten","lat":"49.59980774","long":"11.00325108","store_key":6064,"city":"Erlangen"},{"name":"bigblack record store","lat":"50.12236600","long":"8.68935030","store_key":6066,"city":"Frankfurt am Main"},{"name":"WAX-ART RECORDSTORE","lat":"52.51146698","long":"13.46102142","store_key":6068,"city":"Berlin"},{"name":"Andrä","lat":"51.43226980","long":"6.76183150","store_key":6073,"city":"Duisburg"},{"name":"Far Out","lat":"51.43473120","long":"6.76488360","store_key":6074,"city":"Duisburg"},{"name":"Music For Friends","lat":"47.98279350","long":"10.18084900","store_key":6084,"city":"Memmingen"},{"name":"Otaku Records","lat":"53.55311584","long":"9.95941353","store_key":6086,"city":"Hamburg"},{"name":"Die Schallplatte","lat":"51.43595650","long":"6.76856510","store_key":2202,"city":"Duisburg"},{"name":"Space Hall V2","lat":"52.49079895","long":"13.39451027","store_key":6101,"city":"Berlin"},{"name":"Parallel Schallplatten","lat":"50.93706700","long":"6.93756620","store_key":6112,"city":"Köln"},{"name":"Bear Family Records","lat":"53.36041430","long":"8.82606360","store_key":6121,"city":"Holste"},{"name":"Fine Music & art GmbH","lat":"49.23622610","long":"6.99590490","store_key":6129,"city":"Saarbrücken"},{"name":"12inch","lat":"48.80580000","long":"9.21339000","store_key":6161,"city":"Stuttgart"},{"name":"Coretex Records","lat":"52.49965668","long":"13.42561531","store_key":6164,"city":"Berlin"},{"name":"Kurt Grünewald","lat":"49.23217000","long":"6.99705000","store_key":6209,"city":"Saarbrücken"},{"name":"artagens Fine Art Printing","lat":"48.76117430","long":"9.15441040","store_key":6211,"city":"Stuttgart"},{"name":"Grammophon-Salon-Schumacher","lat":"52.49753460","long":"13.34942210","store_key":6217,"city":"Berlin"},{"name":"Horenstein Klassikschallplatten","lat":"52.48794830","long":"13.32196020","store_key":6247,"city":"Berlin"},{"name":"Oberland Records","lat":"47.67578430","long":"11.19994190","store_key":6326,"city":"Murnau am Staffelsee"},{"name":"Schallzentrale Göttingen","lat":"51.53174210","long":"9.92965412","store_key":6423,"city":"Göttingen"},{"name":"Black Plastic Bremen","lat":"53.07345910","long":"8.82277280","store_key":6449,"city":"Bremen"},{"name":"STÖBERECK Lift gGmbH","lat":"51.49721000","long":"10.80320880","store_key":6468,"city":"Nordhausen"},{"name":"Berliner Buch- und Musikantiquariat","lat":"52.50794520","long":"13.31204980","store_key":6477,"city":"Berlin"},{"name":"Wo-Anders","lat":"53.86984253","long":"10.68262768","store_key":6488,"city":"Lübeck"},{"name":"Groove Records","lat":"52.50273132","long":"13.43135548","store_key":798,"city":"Berlin"},{"name":"Compact Disc Center","lat":"47.99709702","long":"7.85008812","store_key":3273,"city":"Freiburg im Breisgau"},{"name":"Memphis Records","lat":"50.12584200","long":"8.69231460","store_key":6511,"city":"Frankfurt am Main"},{"name":"Medium","lat":"51.96523960","long":"7.62260020","store_key":6536,"city":"Münster"},{"name":"Comic Zentrum Essen","lat":"51.45900620","long":"7.00951710","store_key":6540,"city":"Essen"},{"name":"Mo's Plattenladen","lat":"49.00919724","long":"8.42234612","store_key":6542,"city":"Karlsruhe"},{"name":"Casa-Bet-EL","lat":"54.06995000","long":"9.94820000","store_key":6550,"city":"Neumünster"},{"name":"Black Wave Records","lat":"48.13835890","long":"11.54463060","store_key":6551,"city":"München"},{"name":"poptanke","lat":"51.95434952","long":"7.63729286","store_key":6552,"city":"Münster"},{"name":"LUDWIG BECK - Kaufhaus der Sinne","lat":"48.13716100","long":"11.57668300","store_key":6559,"city":"München"},{"name":"Radio Ga-Ga","lat":"52.38854599","long":"13.09704304","store_key":6560,"city":"Potsdam"},{"name":"Cover Records","lat":"48.36959457","long":"10.90110874","store_key":6597,"city":"Augsburg"},{"name":"Retro-Hifi-Shop","lat":"51.62203560","long":"8.15854090","store_key":6615,"city":"Bad Sassendorf"},{"name":"HiFi Studio Meckenheim","lat":"50.62816450","long":"7.02483800","store_key":6642,"city":"Meckenheim"},{"name":"Soundfile","lat":"50.89687710","long":"7.87371160","store_key":6643,"city":"Freudenberg"},{"name":"Modernes Musikantiquariat Berlin","lat":"52.51338030","long":"13.29200340","store_key":6649,"city":"Berlin"},{"name":"EMP Outlet Store A31","lat":"52.48179560","long":"7.20691930","store_key":6650,"city":"Wietmarschen"},{"name":"Second Hand Music","lat":"51.07515180","long":"6.99342460","store_key":6652,"city":"Leverkusen"},{"name":"Musik Kölbl","lat":"49.27912830","long":"11.45632560","store_key":6680,"city":"Neumarkt in der Oberpfalz"},{"name":"black.round.twelve - record store & distribution","lat":"52.50189040","long":"13.47699000","store_key":6706,"city":"Berlin"},{"name":"Rille 23 Schallplatten","lat":"49.45923020","long":"8.16631790","store_key":6720,"city":"Bad Dürkheim"},{"name":"SBS decorations Export & Import GbR","lat":"50.81774600","long":"12.86220200","store_key":6724,"city":"Chemnitz"},{"name":"Vintage & Vinyl","lat":"50.95799800","long":"6.91885040","store_key":15,"city":"Köln"},{"name":"Groove City","lat":"53.55848600","long":"9.97116230","store_key":6734,"city":"Hamburg"},{"name":"Indiepunk Records","lat":"47.61009979","long":"7.66120481","store_key":6746,"city":"Lörrach"},{"name":"Buyreggae GmbH","lat":"52.51343918","long":"13.46217918","store_key":6792,"city":"Berlin"},{"name":"Musikfundgrube","lat":"50.97774880","long":"11.02545790","store_key":6793,"city":"Erfurt"},{"name":"Oldie Zeitlos Musik - Schallplattenladen","lat":"50.58010864","long":"8.67512989","store_key":6809,"city":"Gießen"},{"name":"Die Plattenkiste","lat":"50.54547501","long":"7.13757801","store_key":6812,"city":"Bad Neuenahr-Ahrweiler"},{"name":"Kontor Records","lat":"52.94734000","long":"12.39496000","store_key":6822,"city":"Kyritz"},{"name":"Aura Hifi, Seiffert & Bonsiepen GbR","lat":"51.42927790","long":"7.00300840","store_key":6830,"city":"Essen"},{"name":"Nachladen.","lat":"53.55823898","long":"9.96690178","store_key":6837,"city":"Hamburg"},{"name":"About Songs & Books","lat":"53.57872009","long":"9.95079994","store_key":6838,"city":"Hamburg"},{"name":"Plattenladen Tiburski","lat":"51.07342280","long":"13.74831650","store_key":6845,"city":"Dresden"},{"name":"Einklang Klassik, Jazz & More e. K.","lat":"48.77560425","long":"9.18358898","store_key":6849,"city":"Stuttgart"},{"name":"Mythos Records","lat":"50.12371826","long":"8.70113659","store_key":6850,"city":"Frankfurt am Main"},{"name":"Ronnie's Records","lat":"49.40582275","long":"8.69023037","store_key":6860,"city":"Heidelberg"},{"name":"Rauh Vinyl","lat":"52.54358100","long":"13.41628480","store_key":6867,"city":"Berlin"},{"name":"Schneider's LP Shop","lat":"51.54333878","long":"6.93526220","store_key":6870,"city":"Bottrop"},{"name":"OYE record store","lat":"52.48962021","long":"13.42716980","store_key":6873,"city":"Berlin"},{"name":"The Record Store Berlin","lat":"52.53212738","long":"13.39439297","store_key":6913,"city":"Berlin"},{"name":"Shadilac","lat":"49.01984024","long":"12.09562969","store_key":6914,"city":"Regensburg"},{"name":"Neues Hören","lat":"50.80969700","long":"6.51255600","store_key":6917,"city":"Düren"},{"name":"Rossi-Records","lat":"48.50479126","long":"11.65242958","store_key":6922,"city":"Schweitenkirchen"},{"name":"Vinyl-Café Augsburg","lat":"48.34372850","long":"10.87504150","store_key":6925,"city":"Augsburg"},{"name":"Vinyl Reservat","lat":"51.53277206","long":"9.93610764","store_key":6926,"city":"Göttingen"},{"name":"Zardoz Records","lat":"53.55779380","long":"9.96894590","store_key":6962,"city":"Hamburg"},{"name":"Slam Records","lat":"53.56345749","long":"9.96077061","store_key":6963,"city":"Hamburg"},{"name":"Underdog Recordstore","lat":"50.94823837","long":"6.95135021","store_key":6964,"city":"Köln"},{"name":"Da Capo","lat":"52.53896332","long":"13.41050720","store_key":6965,"city":"Berlin"},{"name":"Scheibenbeisser","lat":"51.31247330","long":"9.49032021","store_key":6971,"city":"Kassel"},{"name":"Plattenkiste","lat":"53.58406448","long":"9.96840286","store_key":6975,"city":"Hamburg"},{"name":"Rocks off Schallplatten","lat":"54.47828540","long":"9.05421970","store_key":7035,"city":"Husum"},{"name":"Norma Jean Records","lat":"53.56960210","long":"10.02550840","store_key":7039,"city":"Hamburg"},{"name":"Cafe Konsumreform","lat":"51.45926080","long":"7.01323340","store_key":7046,"city":"Essen"},{"name":"Lefter Records","lat":"52.49305320","long":"13.38876420","store_key":7094,"city":"Berlin"},{"name":"Mirrorball","lat":"50.73497170","long":"7.09539250","store_key":7100,"city":"Bonn"},{"name":"Sound of Music","lat":"51.45790260","long":"7.00006090","store_key":7126,"city":"Essen"},{"name":"Urban Record Store","lat":"47.99013900","long":"7.85454900","store_key":7132,"city":"Freiburg im Breisgau"},{"name":"Musikladen","lat":"52.29643900","long":"13.62826180","store_key":2381,"city":"Königs Wusterhausen"},{"name":"Ungawa Records","lat":"48.36957169","long":"10.90110970","store_key":7164,"city":"Augsburg"},{"name":"Musikhaus Hermann Jeremias","lat":"51.17910880","long":"14.42756810","store_key":7212,"city":"Bautzen"},{"name":"beats‘n melodies - Der kleine Plattenladen","lat":"50.79636730","long":"7.20432860","store_key":7275,"city":"Siegburg"},{"name":"Tillophon","lat":"50.57724560","long":"13.00183510","store_key":7285,"city":"Annaberg-Buchholz"},{"name":"Flight 13 Records","lat":"47.99539185","long":"7.83641815","store_key":7290,"city":"Freiburg im Breisgau"},{"name":"Come Back","lat":"49.48973083","long":"8.46889305","store_key":5872,"city":"Mannheim"},{"name":"Comeback Records","lat":"52.48722839","long":"13.42226601","store_key":7294,"city":"Berlin"},{"name":"Giftland Music","lat":"50.78116100","long":"6.07818230","store_key":7300,"city":"Aachen"},{"name":"Vinylline Records","lat":"52.33327103","long":"14.53345966","store_key":7311,"city":"Frankfurt (Oder)"},{"name":"PhonoPhono","lat":"52.48915100","long":"13.39194965","store_key":7314,"city":"Berlin"},{"name":"Musik-Schubert","lat":"51.04986000","long":"13.73408000","store_key":254,"city":"Dresden"},{"name":"Moon Dance","lat":"52.54262161","long":"13.36534405","store_key":7315,"city":"Berlin"},{"name":"Soundcircus","lat":"48.40032000","long":"9.99701000","store_key":7334,"city":"Ulm"},{"name":"Fundament Schallplatten","lat":"52.27996445","long":"8.04325962","store_key":7342,"city":"Osnabrück"},{"name":"Der Schallplattenladen","lat":"48.12910843","long":"11.60145378","store_key":7344,"city":"München"},{"name":"Musikbox","lat":"48.16798010","long":"8.62789370","store_key":7354,"city":"Rottweil"},{"name":"In Between","lat":"50.10583240","long":"8.68667330","store_key":7376,"city":"Frankfurt am Main"},{"name":"maoz Vinyl & Kaffee","lat":"48.15652190","long":"11.56565510","store_key":7377,"city":"München"},{"name":"Max-Records","lat":"50.09356500","long":"9.64710790","store_key":7378,"city":"Rieneck"},{"name":"Ravenrecords Music-Store","lat":"50.73207270","long":"7.36751720","store_key":7379,"city":"Hennef (Sieg)"},{"name":"Soundservice Villingen-Schwenningen","lat":"48.05879780","long":"8.45907610","store_key":7394,"city":"Villingen-Schwenningen"},{"name":"Rekord","lat":"53.56240845","long":"9.96199989","store_key":7405,"city":"Hamburg"},{"name":"Heisse Scheiben","lat":"52.49446000","long":"13.42859000","store_key":7408,"city":"Berlin"},{"name":"Rex Rotari Tonträger","lat":"49.23534012","long":"6.99934292","store_key":7415,"city":"Saarbrücken"},{"name":"Per Koro Records","lat":"52.01760864","long":"8.53128624","store_key":7416,"city":"Bielefeld"},{"name":"Drake Records","lat":"50.94202042","long":"7.00309277","store_key":7422,"city":"Köln"},{"name":"Zentralohrgan","lat":"51.06713867","long":"13.75037384","store_key":7433,"city":"Dresden"},{"name":"Woodstock Magdeburg","lat":"52.13453490","long":"11.61025680","store_key":7435,"city":"Magdeburg"},{"name":"The Record Store","lat":"47.99330139","long":"7.84936523","store_key":1197,"city":"Freiburg im Breisgau"},{"name":"Lost & Found Records","lat":"51.31122589","long":"9.46555996","store_key":7481,"city":"Kassel"},{"name":"Musikhaus des Westens - Der Disco- und Musikladen","lat":"50.83153000","long":"12.95761000","store_key":7487,"city":"Chemnitz"},{"name":"Musikgarage","lat":"49.68114853","long":"8.61944008","store_key":7488,"city":"Bensheim"},{"name":"Re.turn","lat":"52.29020050","long":"8.91652980","store_key":7489,"city":"Minden"},{"name":"XXL Musicworld Musik u. Filme An- und Verkauf von Tonträgern","lat":"51.51832962","long":"7.46618223","store_key":7492,"city":"Dortmund"},{"name":"Kontrapunkt Vinyl","lat":"50.93558250","long":"6.97559510","store_key":7554,"city":"Köln"},{"name":"mihcamusic Achim Götze","lat":"51.28437190","long":"7.29396860","store_key":7597,"city":"Schwelm"},{"name":"Lucky's Antik","lat":"52.15363110","long":"9.96694860","store_key":7598,"city":"Hildesheim"},{"name":"Flat Earth Record Store","lat":"51.50477230","long":"7.46077260","store_key":7669,"city":"Dortmund"},{"name":"Hauptsache Musik","lat":"50.95491340","long":"6.95661610","store_key":7676,"city":"Köln"}]