[{"name":"Books & Music","lat":"55.97209900","long":"10.14375850","store_key":61,"city":"Odder"},{"name":"Route 66","lat":"55.68864800","long":"12.55963280","store_key":319,"city":"København"},{"name":"CAN","lat":"55.67373770","long":"12.55145170","store_key":346,"city":"København"},{"name":"Ooh Aah Records","lat":"55.69544540","long":"12.57194590","store_key":404,"city":"København"},{"name":"Bogshoppen","lat":"56.16076279","long":"10.20960712","store_key":642,"city":"Aarhus"},{"name":"Run For Cover","lat":"55.66590680","long":"12.47299150","store_key":690,"city":"Rødovre"},{"name":"Bedhead Records","lat":"55.56064987","long":"9.75965595","store_key":834,"city":"Fredericia"},{"name":"Route 66","lat":"56.15294500","long":"10.20884400","store_key":319,"city":"Aarhus"},{"name":"Sex Beat Records","lat":"55.67905426","long":"12.57097816","store_key":1190,"city":"København"},{"name":"Loppehallen","lat":"56.07937770","long":"12.21337170","store_key":1251,"city":"Græsted"},{"name":"Memphis Mansion","lat":"56.43336050","long":"10.05399230","store_key":1269,"city":"Randers"},{"name":"Phono.dk","lat":"56.13603230","long":"8.96786960","store_key":1322,"city":"Herning"},{"name":"Vinylbiksen","lat":"55.86170959","long":"9.85314846","store_key":1395,"city":"Horsens"},{"name":"Dorma 21","lat":"55.66696548","long":"12.54986954","store_key":1397,"city":"København"},{"name":"Vangsgaards","lat":"55.68243027","long":"12.57466984","store_key":1482,"city":"København"},{"name":"Brugte Møbler & Småting","lat":"55.70041260","long":"12.53966950","store_key":1611,"city":"København"},{"name":"Kirkens Genbrug I Måløv","lat":"55.74931400","long":"12.31800900","store_key":1615,"city":"Måløv"},{"name":"dressYstyle.dk","lat":"55.68555450","long":"12.52971935","store_key":1635,"city":"København"},{"name":"Bjørns Antik V/bjørn Frimbo","lat":"55.66421200","long":"12.54217470","store_key":1717,"city":"København"},{"name":"Soul Copenhagen","lat":"55.66712490","long":"12.59751500","store_key":1719,"city":"København"},{"name":"Mini Kræmmeren","lat":"55.39433670","long":"10.37925339","store_key":1792,"city":"Odense"},{"name":"Bogbixen","lat":"56.14613000","long":"10.19390240","store_key":2159,"city":"Aarhus"},{"name":"Vinylrock Café","lat":"56.03461800","long":"12.60716000","store_key":2261,"city":"Helsingør"},{"name":"313vinyl_collective","lat":"55.66575770","long":"12.55714230","store_key":2265,"city":"København"},{"name":"Black Light Records","lat":"56.15288162","long":"10.20873928","store_key":2557,"city":"Aarhus"},{"name":"Goldmine Records","lat":"55.67436310","long":"12.55210990","store_key":2567,"city":"København"},{"name":"CD Baren","lat":"57.43441550","long":"10.53034660","store_key":2653,"city":"Frederikshavn"},{"name":"Lumi Genbrug Gilleleje","lat":"56.12405014","long":"12.30894566","store_key":2755,"city":"Gilleleje"},{"name":"ReSpin","lat":"56.13610700","long":"8.96783180","store_key":2856,"city":"Herning"},{"name":"Second Beat Antikvariat","lat":"55.69758606","long":"12.55216980","store_key":2933,"city":"København"},{"name":"VinylKollektivet","lat":"55.69446945","long":"12.54658890","store_key":3012,"city":"København"},{"name":"Danacord Records","lat":"55.68243408","long":"12.57835579","store_key":3175,"city":"København"},{"name":"Sound Check","lat":"56.13550400","long":"8.98692550","store_key":3213,"city":"Herning"},{"name":"Sort Vinyl","lat":"56.16779420","long":"9.54846990","store_key":3259,"city":"Silkeborg"},{"name":"Reverbvinyl","lat":"56.16032791","long":"10.20837402","store_key":3269,"city":"Aarhus"},{"name":"Accord Nørrebro","lat":"55.69235229","long":"12.55207157","store_key":3401,"city":"København"},{"name":"Jazz Cup","lat":"55.68379211","long":"12.57623100","store_key":3421,"city":"København"},{"name":"RecordPusher","lat":"55.39737100","long":"10.39150390","store_key":3429,"city":"Odense"},{"name":"Antikvariatet","lat":"55.69926834","long":"12.57818031","store_key":3480,"city":"København"},{"name":"Speakers Korner","lat":"55.68689120","long":"12.55860760","store_key":3535,"city":"København"},{"name":"Heavy Agger - Musikforening","lat":"56.78397810","long":"8.23417250","store_key":3613,"city":"Vestervig"},{"name":"Amager Records","lat":"55.65777860","long":"12.60799130","store_key":3619,"city":"København"},{"name":"Rus & Riller","lat":"55.09602640","long":"10.24021070","store_key":3687,"city":"Faaborg"},{"name":"Glad Samler Records","lat":"55.41828240","long":"10.30961530","store_key":3781,"city":"Odense"},{"name":"Tartan Music","lat":"55.71459480","long":"9.53386950","store_key":4288,"city":"Vejle"},{"name":"GoodLife Records","lat":"55.69597244","long":"12.54405022","store_key":4319,"city":"København"},{"name":"Læsehesten Aalborg","lat":"57.04930115","long":"9.91399097","store_key":4440,"city":"Aalborg"},{"name":"BEAT","lat":"55.66677094","long":"12.54580116","store_key":4441,"city":"København"},{"name":"Moby Disc","lat":"55.39461360","long":"10.38643610","store_key":4465,"city":"Odense"},{"name":"Accord Lyngby","lat":"55.76829230","long":"12.50378080","store_key":4496,"city":"Lyngby"},{"name":"Jungle Records","lat":"55.48734665","long":"9.47282505","store_key":4061,"city":"Kolding"},{"name":"MusicDude","lat":"55.04758160","long":"9.41813460","store_key":4799,"city":"Aabenraa"},{"name":"Paname City Records","lat":"55.69598140","long":"12.54397240","store_key":5049,"city":"København"},{"name":"Sound","lat":"55.68137460","long":"12.57270330","store_key":5083,"city":"København"},{"name":"Sound Station","lat":"55.67530280","long":"12.54687920","store_key":5166,"city":"København"},{"name":"Beat-Bop","lat":"55.68191147","long":"12.57387161","store_key":5184,"city":"København"},{"name":"Bogormen","lat":"55.46563721","long":"8.45629787","store_key":5223,"city":"Esbjerg"},{"name":"Kirkens Korshær Ballerup","lat":"55.72248840","long":"12.38097070","store_key":5230,"city":"Ballerup"},{"name":"Vinylfreak","lat":"55.64068590","long":"12.08477240","store_key":5360,"city":"Roskilde"},{"name":"Heimdalsgade22","lat":"55.70166210","long":"12.54365560","store_key":5361,"city":"København"},{"name":"Hundehuset","lat":"54.76580270","long":"11.87373550","store_key":5559,"city":"Nykøbing Falster"},{"name":"Vinylen","lat":"55.06032944","long":"10.61079121","store_key":5575,"city":"Svendborg"},{"name":"Musiklageret - Hifi, nye & brugte Vinyl LP","lat":"57.04742250","long":"9.91933480","store_key":5632,"city":"Aalborg"},{"name":"Sort Kaffe & Vinyl","lat":"55.66895100","long":"12.55402900","store_key":5876,"city":"København"},{"name":"Mint Records","lat":"55.67706680","long":"12.53920555","store_key":5887,"city":"København"},{"name":"Badstue Rock","lat":"56.15880585","long":"10.20880127","store_key":5899,"city":"Aarhus"},{"name":"Roldhøj Lopper og Luksus","lat":"56.83129250","long":"9.84380510","store_key":6059,"city":"Skørping"},{"name":"Noams.dk","lat":"54.89873900","long":"11.88018740","store_key":6302,"city":"Nørre Alslev"},{"name":"LopGun","lat":"55.67246060","long":"12.54885800","store_key":6314,"city":"København"},{"name":"Long-Play Records","lat":"55.56100091","long":"9.76047139","store_key":6324,"city":"Fredericia"},{"name":"Percy Records","lat":"55.68581780","long":"12.55760070","store_key":6354,"city":"København"},{"name":"Vinyltrolden","lat":"55.68478394","long":"12.54144382","store_key":6418,"city":"København"},{"name":"Crate - Beer & Vinyl","lat":"55.69359150","long":"12.54293160","store_key":6497,"city":"København"},{"name":"MermaidMusic.dk","lat":"56.41419600","long":"10.87526610","store_key":6517,"city":"Grenå"},{"name":"AIAIAI","lat":"55.67823110","long":"12.56876160","store_key":6524,"city":"København"},{"name":"Accord - Lagerudsalg","lat":"55.68030110","long":"12.57525530","store_key":6670,"city":"København"},{"name":"Rekords","lat":"55.69884109","long":"12.54265308","store_key":6676,"city":"København"},{"name":"Clemens Antikvariat","lat":"56.17214203","long":"10.21612644","store_key":6764,"city":"Aarhus"},{"name":"B+W Flea Market","lat":"55.69273758","long":"12.61481762","store_key":6857,"city":"København"},{"name":"Ressourcen","lat":"55.22812271","long":"11.76280880","store_key":6875,"city":"Næstved"},{"name":"Accord Vesterbro","lat":"55.67253113","long":"12.55221081","store_key":6889,"city":"København"},{"name":"Kræmmerhjørnet","lat":"56.05171120","long":"12.34289320","store_key":6920,"city":"Græsted"},{"name":"So Last Year - 2nd Hand & Coffee","lat":"55.66559601","long":"12.54294586","store_key":7159,"city":"København"},{"name":"Bogkælderen","lat":"55.92954810","long":"12.30222270","store_key":7371,"city":"Hillerød"},{"name":"Den Blå Hal","lat":"55.66843650","long":"12.62328500","store_key":7429,"city":"København"},{"name":"Palmspree","lat":"55.69612503","long":"12.54428196","store_key":7503,"city":"København"},{"name":"Candy Records, Vin & Vinyl","lat":"55.45648030","long":"12.17967190","store_key":7552,"city":"Køge"},{"name":"Mephisto","lat":"55.66483000","long":"12.54071000","store_key":7660,"city":"København"}]