[{"name":"Music Service Ecuador","lat":"-0.17688420","long":"-78.48594740","store_key":2259,"city":"Quito"},{"name":"El Surtido","lat":"-2.89770410","long":"-79.00290310","store_key":3554,"city":"Cuenca"},{"name":"Musicalisimo","lat":"-2.91923660","long":"-79.01488790","store_key":3882,"city":"Cuenca"},{"name":"Ecco Sonido","lat":"-2.90025630","long":"-79.00554640","store_key":3980,"city":"Cuenca"},{"name":"Peña Musical","lat":"-2.19259250","long":"-79.88805080","store_key":4791,"city":"Guayaquil"},{"name":"Music Service Cuenca","lat":"-2.89532540","long":"-79.00542640","store_key":4792,"city":"Cuenca"},{"name":"La Casa Del Vinyl","lat":"-2.22409990","long":"-79.90386900","store_key":5716,"city":"Guayaquil"},{"name":"Círculo Musical","lat":"-2.89864470","long":"-79.00595780","store_key":6403,"city":"Cuenca"},{"name":"Antiguedades Guayaquil","lat":"-2.19408880","long":"-79.88074140","store_key":6404,"city":"Guayaquil"},{"name":"Rea Music","lat":"-2.19527550","long":"-79.88481340","store_key":7202,"city":"Guayaquil"}]