[{"name":"Viljandi plaadimees","lat":"58.36762619","long":"25.59406853","store_key":427,"city":"Viljandi"},{"name":"Biit Me Record Store / Oü Biitmii","lat":"59.43692780","long":"24.74741173","store_key":443,"city":"Tallinn"},{"name":"Rockroad music","lat":"59.42857140","long":"24.72421410","store_key":1598,"city":"Tallinn"},{"name":"Rahva Raamat","lat":"59.43629140","long":"24.75681870","store_key":1812,"city":"Tallinn"},{"name":"Nailboard","lat":"59.42920720","long":"24.72014010","store_key":1999,"city":"Tallinn"},{"name":"Retrodisc Record Shop","lat":"59.44195230","long":"24.76173230","store_key":2275,"city":"Tallinn"},{"name":"Vinyl Records","lat":"59.43752010","long":"24.74352120","store_key":353,"city":"Tallinn"},{"name":"Apollo Bookstore Kristiine Center","lat":"59.42669760","long":"24.72489880","store_key":3073,"city":"Tallinn"},{"name":"World Clinic Shop","lat":"59.43983078","long":"24.72892761","store_key":3507,"city":"Tallinn"},{"name":"Kaljuste Muusikapood","lat":"59.42510605","long":"24.70043755","store_key":3887,"city":"Tallinn"},{"name":"Psühhoteek","lat":"58.38348007","long":"26.72205544","store_key":3903,"city":"Tartu"},{"name":"Retrodisko.ee","lat":"59.43827438","long":"24.76861954","store_key":4294,"city":"Tallinn"},{"name":"POP KirbuButiigi","lat":"59.43313819","long":"24.75478035","store_key":4861,"city":"Tallinn"},{"name":"Terminal","lat":"59.43435500","long":"24.75673500","store_key":5195,"city":"Tallinn"},{"name":"Raamatukoi","lat":"59.43621063","long":"24.74480820","store_key":5414,"city":"Tallinn"},{"name":"Raamatukoi Grammofon","lat":"59.43757990","long":"24.74366560","store_key":6031,"city":"Tallinn"},{"name":"Tallinn Old Town Records","lat":"59.44055939","long":"24.74923134","store_key":6351,"city":"Tallinn"},{"name":"Mustamäe Center Apollo","lat":"59.40855789","long":"24.68862343","store_key":6959,"city":"Tallinn"},{"name":"Gramophonetree Records","lat":"58.38344574","long":"26.72193146","store_key":7013,"city":"Tartu"},{"name":"Plastik Record Store","lat":"59.44632230","long":"24.72097500","store_key":7106,"city":"Tallinn"},{"name":"Kanelis kirbukas","lat":"59.40244510","long":"24.65576870","store_key":7558,"city":"Tallinn"}]