[{"name":"Discos Libros Loner","lat":"40.43538666","long":"-3.64429688","store_key":1,"city":"Madrid"},{"name":"Chafaris","lat":"42.88195801","long":"-8.54239273","store_key":5,"city":"Santiago de Compostela"},{"name":"El Corte Inglés","lat":"40.41988100","long":"-3.70545730","store_key":6,"city":"Madrid"},{"name":"Disco Loco","lat":"39.57161510","long":"2.66383790","store_key":109,"city":"Palma"},{"name":"Discos Paradiso","lat":"41.38217926","long":"2.16589499","store_key":180,"city":"Barcelona"},{"name":"Killer's Discos","lat":"40.41881943","long":"-3.70202208","store_key":191,"city":"Madrid"},{"name":"Mala Música","lat":"36.68265915","long":"-6.13426495","store_key":192,"city":"Jerez de la Frontera"},{"name":"Discocentro SL","lat":"39.46420670","long":"-0.37293899","store_key":193,"city":"València"},{"name":"Ultrasound","lat":"39.46030045","long":"-0.37575299","store_key":194,"city":"València"},{"name":"Citadel Records","lat":"40.32525500","long":"-3.86309080","store_key":275,"city":"Móstoles"},{"name":"Radio City","lat":"40.42651367","long":"-3.71099496","store_key":329,"city":"Madrid"},{"name":"La Integral","lat":"40.41311264","long":"-3.69910598","store_key":331,"city":"Madrid"},{"name":"Festival Discos","lat":"37.17454147","long":"-3.59931898","store_key":332,"city":"Granada"},{"name":"Subterranea","lat":"37.17642060","long":"-3.60434750","store_key":333,"city":"Granada"},{"name":"Libdisks","lat":"43.32228470","long":"-1.97384405","store_key":361,"city":"San Sebastian"},{"name":"Barranko Records","lat":"41.37481308","long":"2.16787410","store_key":376,"city":"Barcelona"},{"name":"Librería Códice","lat":"36.72308200","long":"-4.42040180","store_key":386,"city":"Málaga"},{"name":"Elektra Comics León","lat":"42.59341049","long":"-5.57430792","store_key":394,"city":"León"},{"name":"El Genio Equivocado, la botiga","lat":"41.40075950","long":"2.15221620","store_key":467,"city":"Barcelona"},{"name":"Candem Rock Toledo","lat":"39.85962910","long":"-4.02072340","store_key":469,"city":"Toledo"},{"name":"Out Of Business","lat":"41.64352798","long":"-0.88801301","store_key":490,"city":"Zaragoza"},{"name":"Baba Discos i Jocs Manacor","lat":"39.56637250","long":"3.21045690","store_key":491,"city":"Manacor"},{"name":"Decibel","lat":"41.38149490","long":"2.17995150","store_key":494,"city":"Barcelona"},{"name":"El Corte Inglés","lat":"39.57344980","long":"2.65657440","store_key":6,"city":"Palma"},{"name":"Rock & Roll Circus","lat":"40.41908210","long":"-3.70756880","store_key":608,"city":"Madrid"},{"name":"Club Amigos del Disco","lat":"40.43541336","long":"-3.71749496","store_key":609,"city":"Madrid"},{"name":"Discos Naranja Y Negro","lat":"38.34805860","long":"-0.48878450","store_key":610,"city":"Alicante"},{"name":"Tres Bonobos","lat":"38.99100876","long":"-1.86024499","store_key":741,"city":"Albacete"},{"name":"Cara B discos","lat":"41.67557144","long":"2.79123592","store_key":744,"city":"Blanes"},{"name":"Chopper Monster","lat":"40.42583440","long":"-3.70185750","store_key":800,"city":"Madrid"},{"name":"Punk Rocket Madrid Shop","lat":"40.39577484","long":"-3.66050005","store_key":808,"city":"Madrid"},{"name":"Misionlive","lat":"28.41528660","long":"-16.55132450","store_key":812,"city":"Puerto de la Cruz"},{"name":"Tech On Records","lat":"37.17683660","long":"-3.60427560","store_key":863,"city":"Granada"},{"name":"Fnac","lat":"41.38609580","long":"2.16914220","store_key":872,"city":"Barcelona"},{"name":"Discos Fans","lat":"42.87432670","long":"-8.54478670","store_key":922,"city":"Santiago de Compostela"},{"name":"Reciclaje Granada","lat":"37.17740631","long":"-3.60044694","store_key":923,"city":"Granada"},{"name":"Sonora Discos","lat":"28.46711349","long":"-16.25372124","store_key":928,"city":"Santa Cruz de Tenerife"},{"name":"Comun 20","lat":"41.64553070","long":"-0.89591599","store_key":1007,"city":"Zaragoza"},{"name":"La Gramola","lat":"41.65475810","long":"-0.87866240","store_key":1059,"city":"Zaragoza"},{"name":"El Último Mono Turly Discos","lat":"43.35915660","long":"-5.84883990","store_key":1084,"city":"Oviedo"},{"name":"La Bola","lat":"41.38342285","long":"2.16312003","store_key":1090,"city":"Barcelona"},{"name":"La Cova Punk Store","lat":"41.37587640","long":"2.13911960","store_key":1162,"city":"Barcelona"},{"name":"Recycled","lat":"40.42642212","long":"-3.70447707","store_key":1189,"city":"Madrid"},{"name":"Harmony Discos","lat":"39.46654129","long":"-0.37540901","store_key":1191,"city":"València"},{"name":"Totem Vertigo","lat":"40.94332600","long":"-4.11505700","store_key":1230,"city":"Segovia"},{"name":"Mundo Vinilo","lat":"36.72658157","long":"-4.42337799","store_key":1315,"city":"Málaga"},{"name":"Fnac","lat":"43.31807230","long":"-1.98271850","store_key":872,"city":"San Sebastian"},{"name":"Palma 39 . Tienda de Vinilos","lat":"40.42636580","long":"-3.70473970","store_key":1343,"city":"Madrid"},{"name":"Shiva Music","lat":"41.11649323","long":"1.25643599","store_key":1376,"city":"Tarragona"},{"name":"Glove records shop","lat":"41.37694450","long":"2.16542510","store_key":1439,"city":"Barcelona"},{"name":"Loop Bar & Records","lat":"37.17306100","long":"-3.59690800","store_key":1458,"city":"Granada"},{"name":"Masilva","lat":"28.41643750","long":"-16.55177830","store_key":1465,"city":"Puerto de la Cruz"},{"name":"10000 Records","lat":"41.28803510","long":"1.98155830","store_key":1510,"city":"Castelldefels"},{"name":"Sin Morralla Records & Books","lat":"40.40913940","long":"-3.70815000","store_key":1524,"city":"Madrid"},{"name":"Marilians Records","lat":"40.42566950","long":"-3.70908100","store_key":1528,"city":"Madrid"},{"name":"Victor Kiswell Records","lat":"41.38050630","long":"2.17871280","store_key":1535,"city":"Barcelona"},{"name":"Discos Amsterdam","lat":"39.48092920","long":"-0.39094780","store_key":1557,"city":"València"},{"name":"La Gramola","lat":"40.41911420","long":"-3.70612160","store_key":1059,"city":"Madrid"},{"name":"DISKPOL","lat":"40.42399620","long":"-3.70472210","store_key":1558,"city":"Madrid"},{"name":"Power Records","lat":"43.26184845","long":"-2.92572188","store_key":1560,"city":"Bilbao"},{"name":"Moby Disk Records","lat":"41.98433460","long":"2.82445270","store_key":1622,"city":"Girona"},{"name":"La Cueva","lat":"42.23926100","long":"-8.72492270","store_key":1689,"city":"Vigo"},{"name":"Goldisc","lat":"36.55239105","long":"-4.61611080","store_key":1811,"city":"Fuengirola"},{"name":"Ozz Music Shop","lat":"28.05916214","long":"-16.73201942","store_key":1844,"city":"Playa de la Américas"},{"name":"Fnac","lat":"36.52224370","long":"-4.87440800","store_key":872,"city":"Marbella"},{"name":"SPLENDINI BAR I DISCOS","lat":"39.46512970","long":"-0.37689190","store_key":1927,"city":"València"},{"name":"Vinylora","lat":"42.84748340","long":"-2.67355210","store_key":1947,"city":"Vitoria-Gasteiz"},{"name":"Celuloide & Co.","lat":"38.34719130","long":"-0.49058940","store_key":1964,"city":"Alicante"},{"name":"La Viniloteca","lat":"39.57039610","long":"2.65149780","store_key":1970,"city":"Palma"},{"name":"Moncomic","lat":"41.61662850","long":"2.28939360","store_key":1975,"city":"Granollers"},{"name":"Vinyl Factory","lat":"28.46803190","long":"-16.24995290","store_key":1987,"city":"Santa Cruz de Tenerife"},{"name":"Estación Sonora","lat":"42.00736900","long":"-4.53318140","store_key":1992,"city":"Palencia"},{"name":"Murcia Vintage","lat":"37.99423490","long":"-1.13982760","store_key":2000,"city":"Murcia"},{"name":"Y que viva Joplin!","lat":"40.42541550","long":"-3.71429620","store_key":2071,"city":"Madrid"},{"name":"Pere Oriol Records / Vilanova Records & Vinyls","lat":"41.22597550","long":"1.72716840","store_key":2073,"city":"Vilanova i la Geltrú"},{"name":"Devil Records","lat":"39.47310257","long":"-0.37657100","store_key":2131,"city":"Valencia"},{"name":"Lostracks Records","lat":"41.39908770","long":"2.15479660","store_key":2132,"city":"Barcelona"},{"name":"Discos Barracuda - Record Store","lat":"42.81751970","long":"-1.64488630","store_key":2221,"city":"Pamplona"},{"name":"Spook Records","lat":"41.15402420","long":"1.10951030","store_key":2224,"city":"Reus"},{"name":"Discos Javier Blanco","lat":"39.15679550","long":"-3.02055192","store_key":2283,"city":"Tomelloso"},{"name":"Subwax Bcn","lat":"41.38028190","long":"2.16849400","store_key":2327,"city":"Barcelona"},{"name":"Discos El Melli","lat":"36.53104782","long":"-6.29819584","store_key":2388,"city":"Cádiz"},{"name":"La Bomba Records","lat":"43.36607570","long":"-5.85521300","store_key":2441,"city":"Oviedo"},{"name":"Disqueria","lat":"38.99489840","long":"-1.85282940","store_key":545,"city":"Albacete"},{"name":"Rata Corner | llibres, música i art.","lat":"39.57900990","long":"2.64929060","store_key":2523,"city":"Palma"},{"name":"Disco 100","lat":"41.40742810","long":"2.16114550","store_key":2560,"city":"Barcelona"},{"name":"MaisVinilo Discos","lat":"39.57522740","long":"2.64940860","store_key":2569,"city":"Palma"},{"name":"Ultra Local Records","lat":"41.39883920","long":"2.19677880","store_key":2620,"city":"Barcelona"},{"name":"DiscoCenter","lat":"41.65024567","long":"-4.72085524","store_key":2640,"city":"Valladolid"},{"name":"V.P.R. Records","lat":"39.49467260","long":"-0.46660270","store_key":2700,"city":"Manises"},{"name":"Kavka Libros","lat":"38.09557530","long":"-3.63356750","store_key":2709,"city":"Linares"},{"name":"H-Records","lat":"41.15698624","long":"1.10832906","store_key":2746,"city":"Reus"},{"name":"Skinny Records & Clothings","lat":"40.41067330","long":"-3.70581210","store_key":2750,"city":"Madrid"},{"name":"Sinfonía","lat":"40.43423080","long":"-3.71409392","store_key":2752,"city":"Madrid"},{"name":"Delta Records","lat":"38.96733190","long":"-0.18134030","store_key":2896,"city":"Gandia"},{"name":"Discos Comix","lat":"37.98779290","long":"-1.12826700","store_key":2920,"city":"Murcia"},{"name":"Discs Metralleta","lat":"40.41869354","long":"-3.70655704","store_key":2921,"city":"Madrid"},{"name":"Gran Vía Discos","lat":"37.17793890","long":"-3.59882650","store_key":2922,"city":"Granada"},{"name":"Discos Ritmo","lat":"39.98528671","long":"-0.03931700","store_key":2923,"city":"Castelló de la Plana"},{"name":"Discos Vicente Modrego","lat":"41.65578461","long":"-0.88551903","store_key":2924,"city":"Zaragoza"},{"name":"Discos Quim","lat":"42.26703644","long":"2.96075606","store_key":2925,"city":"Figueres"},{"name":"Lost Things Discos & Libros","lat":"40.42327499","long":"-3.70235896","store_key":2981,"city":"Madrid"},{"name":"Discos Redondos","lat":"41.38078000","long":"2.15842580","store_key":3060,"city":"Barcelona"},{"name":"Discos Cocodisk","lat":"42.13760710","long":"-0.40826050","store_key":3065,"city":"Huesca"},{"name":"Discos VItalogy","lat":"37.88542260","long":"-4.77724970","store_key":3067,"city":"Córdoba"},{"name":"Rincón RAMAL","lat":"40.97062490","long":"-5.66817280","store_key":3068,"city":"Salamanca"},{"name":"HDSCOLLECTORS","lat":"41.55991660","long":"2.00842850","store_key":3069,"city":"Terrassa"},{"name":"Liquidator Music","lat":"40.41033173","long":"-3.70616198","store_key":3070,"city":"Madrid"},{"name":"Discos Edison's","lat":"41.38021510","long":"2.16840910","store_key":3131,"city":"Barcelona"},{"name":"Record Sevilla","lat":"37.39444351","long":"-5.99475384","store_key":3132,"city":"Sevilla"},{"name":"Discovery Music","lat":"43.36981370","long":"-8.40187810","store_key":3133,"city":"A Coruña"},{"name":"Skizo","lat":"43.30470657","long":"-1.97949505","store_key":3134,"city":"San Sebastián"},{"name":"Boikot","lat":"43.46316730","long":"-3.81370570","store_key":3135,"city":"Santander"},{"name":"Disco Center Café","lat":"42.00840830","long":"-4.53261790","store_key":3138,"city":"Palencia"},{"name":"Nut Records","lat":"41.38054657","long":"2.17898798","store_key":3202,"city":"Barcelona"},{"name":"Librería Paradiso","lat":"43.54208755","long":"-5.66219282","store_key":3254,"city":"Gijón, Asturias"},{"name":"Mas Que Música","lat":"43.54127330","long":"-5.66021180","store_key":3256,"city":"Gijón"},{"name":"Discos Revolver S.L.","lat":"41.38472220","long":"2.16944440","store_key":3294,"city":"Barcelona"},{"name":"SUN Records","lat":"40.42053000","long":"-3.70905900","store_key":3304,"city":"Madrid"},{"name":"OVERTIME","lat":"37.38084000","long":"-6.00029350","store_key":3344,"city":"Sevilla"},{"name":"Riff Raff Discos","lat":"41.35862440","long":"2.10061170","store_key":3354,"city":"Barcelona"},{"name":"Peggy Records","lat":"42.34370170","long":"-7.86526180","store_key":3465,"city":"Ourense"},{"name":"33 Revoluciones","lat":"28.10958862","long":"-15.42197800","store_key":3469,"city":"Las Palmas de Gran Canaria"},{"name":"Baffle Djs","lat":"43.26694489","long":"-2.92467904","store_key":3498,"city":"Bilbao"},{"name":"Don Cecilio","lat":"37.38815308","long":"-6.00712299","store_key":3556,"city":"Sevilla"},{"name":"Discos Caverna","lat":"36.83891180","long":"-2.46143670","store_key":3562,"city":"Almería"},{"name":"MONDOSiNFONOLA","lat":"41.40545273","long":"2.17426991","store_key":3565,"city":"Barcelona"},{"name":"Tot Música","lat":"40.00054550","long":"3.83924103","store_key":3603,"city":"Ciutadella de Menorca"},{"name":"Faraday","lat":"40.42379860","long":"-3.69633870","store_key":3664,"city":"Madrid"},{"name":"King Atupali","lat":"41.38147390","long":"2.18035630","store_key":3668,"city":"Barcelona"},{"name":"Daily Records","lat":"41.38457489","long":"2.16950989","store_key":3717,"city":"Barcelona"},{"name":"Potencial Hardcore","lat":"40.39587784","long":"-3.66983104","store_key":3718,"city":"Madrid"},{"name":"Music Passion","lat":"38.34756030","long":"-0.48874780","store_key":3753,"city":"Alicante"},{"name":"__nw.","lat":"43.31699840","long":"-2.67884560","store_key":3880,"city":"Gernika-Lumo"},{"name":"La Negra","lat":"40.44490430","long":"-3.67356340","store_key":3884,"city":"Madrid"},{"name":"Tiempo Libre","lat":"39.96550950","long":"-4.82603490","store_key":3885,"city":"Talavera de la Reina"},{"name":"TotemTanz","lat":"37.39690000","long":"-5.99335000","store_key":3906,"city":"Sevilla"},{"name":"Capra Records","lat":"39.48462320","long":"-0.35793770","store_key":3955,"city":"València"},{"name":"Fetén Discos","lat":"40.96238260","long":"-5.66686140","store_key":3979,"city":"Salamanca"},{"name":"Discos Latimore","lat":"37.39378760","long":"-5.99468090","store_key":4001,"city":"Sevilla"},{"name":"Discos Marcapasos","lat":"37.17687607","long":"-3.60184193","store_key":4002,"city":"Granada"},{"name":"Blue Velvet","lat":"38.34922028","long":"-0.48861101","store_key":4003,"city":"Alicante"},{"name":"Topdisc Tortosa","lat":"40.81140020","long":"0.52090270","store_key":4066,"city":"Tortosa"},{"name":"El Almacen de Discos","lat":"40.42487717","long":"-3.70598197","store_key":4099,"city":"Madrid"},{"name":"Disco Precio","lat":"42.87266090","long":"-8.55072900","store_key":4101,"city":"Santiago de Compostela"},{"name":"NUMAX","lat":"42.87656403","long":"-8.54328060","store_key":4104,"city":"Santiago de Compostela"},{"name":"Discos Candilejas","lat":"36.72316910","long":"-4.42286100","store_key":4114,"city":"Málaga"},{"name":"Machinda Records","lat":"41.22634910","long":"1.72551030","store_key":4174,"city":"Villanueva y Geltrú"},{"name":"Viniloz","lat":"36.60258340","long":"-4.53058610","store_key":4214,"city":"Benalmádena"},{"name":"Long-Play","lat":"43.29645680","long":"-2.99062150","store_key":4295,"city":"Barakaldo"},{"name":"Music World","lat":"41.39249420","long":"2.15592170","store_key":4418,"city":"Barcelona"},{"name":"Discos Oldies","lat":"39.46938324","long":"-0.38008600","store_key":4466,"city":"València"},{"name":"Revólver Records","lat":"41.38468560","long":"2.16962530","store_key":4467,"city":"Barcelona"},{"name":"Satanasa","lat":"40.40775170","long":"-3.70891060","store_key":4468,"city":"Madrid"},{"name":"Big Mamma","lat":"40.42787170","long":"-3.70482707","store_key":4469,"city":"Madrid"},{"name":"Flamenco Vive","lat":"40.41223180","long":"-3.69793900","store_key":4470,"city":"Madrid"},{"name":"Discos Tesla","lat":"41.38465660","long":"2.17000340","store_key":4472,"city":"Barcelona"},{"name":"Jazz Messengers Club","lat":"41.39116900","long":"2.15231100","store_key":4514,"city":"Barcelona"},{"name":"Disco Leiria","lat":"41.23526764","long":"1.81158698","store_key":4515,"city":"Sitges"},{"name":"Vinil Vintage","lat":"41.40324020","long":"2.15959907","store_key":4522,"city":"Barcelona"},{"name":"Fnac","lat":"43.26132200","long":"-2.93002190","store_key":872,"city":"Bilbao"},{"name":"Blue Sounds","lat":"41.39233017","long":"2.12696910","store_key":4634,"city":"Barcelona"},{"name":"Discos Cucos","lat":"43.46436600","long":"-3.80052660","store_key":4636,"city":"Santander"},{"name":"Digital Records","lat":"39.46585290","long":"-0.37634880","store_key":4637,"city":"Valencia"},{"name":"Delia Records","lat":"40.40420532","long":"-3.69302702","store_key":4641,"city":"Madrid"},{"name":"Molar Records & Books","lat":"40.41055160","long":"-3.70838580","store_key":4642,"city":"Madrid"},{"name":"Fnac Callao","lat":"40.41902700","long":"-3.70525400","store_key":4644,"city":"Madrid"},{"name":"Chollo Manía","lat":"41.35867691","long":"2.07678390","store_key":4737,"city":"Cornellà de Llobregat"},{"name":"Librería Personajes","lat":"43.53761292","long":"-5.66171789","store_key":4831,"city":"Gijón"},{"name":"Sinthetic Records","lat":"41.54597855","long":"2.43038392","store_key":4832,"city":"Mataró"},{"name":"Melting Pot Records","lat":"40.44724530","long":"-3.67521200","store_key":4892,"city":"Madrid"},{"name":"Posa'l Disc","lat":"41.57803340","long":"1.62011860","store_key":4898,"city":"Igualada"},{"name":"Sweet Disc","lat":"41.62842300","long":"0.89371700","store_key":4899,"city":"Mollerussa"},{"name":"Tvinyl","lat":"41.38346300","long":"2.16529050","store_key":4986,"city":"Barcelona"},{"name":"Jazzymas.com","lat":"40.42633960","long":"-3.70434640","store_key":5039,"city":"Madrid"},{"name":"A Reixa Tenda","lat":"42.87544030","long":"-8.54432970","store_key":5069,"city":"Santiago de Compostela"},{"name":"Nakasha","lat":"40.43255760","long":"-3.71435270","store_key":5071,"city":"Madrid"},{"name":"Discos Ziggy","lat":"40.41205597","long":"-3.70728493","store_key":5075,"city":"Madrid"},{"name":"Dacha workshop Ibiza","lat":"38.90784200","long":"1.43071400","store_key":5076,"city":"Eivissa"},{"name":"Martulina Divina SL","lat":"41.93140411","long":"2.25631809","store_key":5077,"city":"Vic"},{"name":"Discos Delta","lat":"38.91012150","long":"1.43569640","store_key":5114,"city":"Eivissa"},{"name":"Bajoelvolcán","lat":"40.40988541","long":"-3.70107102","store_key":5165,"city":"Madrid"},{"name":"Discos Rock And Roll","lat":"40.28454590","long":"-3.79711795","store_key":5167,"city":"Fuenlabrada"},{"name":"Discos Chachacha","lat":"39.46726710","long":"-0.37907860","store_key":5168,"city":"València"},{"name":"Discos Serrano","lat":"43.32814407","long":"-3.03369999","store_key":5169,"city":"Santurce"},{"name":"Beltza","lat":"43.32373810","long":"-1.98338604","store_key":5170,"city":"San Sebastian"},{"name":"Wah Wah Records","lat":"41.38023758","long":"2.16839004","store_key":5279,"city":"Barcelona"},{"name":"Discos Bangla Desh","lat":"40.41858000","long":"-3.70844000","store_key":5292,"city":"Madrid"},{"name":"Discos Keramidas","lat":"39.46764570","long":"-6.37937450","store_key":5293,"city":"Cáceres"},{"name":"Enigma Discos","lat":"28.46314049","long":"-16.25198364","store_key":5294,"city":"Santa Cruz de Tenerife"},{"name":"Disco Centro Elepe","lat":"43.55496979","long":"-5.92715883","store_key":5385,"city":"Avilés"},{"name":"Mercat de Sant Antoni","lat":"41.37860480","long":"2.16207840","store_key":5389,"city":"Barcelona"},{"name":"Linacero Discos y Regalos","lat":"41.65022830","long":"-0.88334580","store_key":5392,"city":"Zaragoza"},{"name":"URBAN HELL MUSIC - Vinilos, ropa y complementos","lat":"41.65349200","long":"-0.87264300","store_key":5393,"city":"Zaragoza"},{"name":"Muralla Discos","lat":"43.01192160","long":"-7.55546660","store_key":5421,"city":"Lugo"},{"name":"Discos Fanzine","lat":"36.83674622","long":"-2.45904207","store_key":5557,"city":"Almería"},{"name":"Beethoven Discos","lat":"40.34604280","long":"-3.82772510","store_key":5558,"city":"Alcorcón"},{"name":"Maxi Discos","lat":"41.70294952","long":"2.84831905","store_key":5560,"city":"Lloret de Mar"},{"name":"Discos Grammy","lat":"36.13337326","long":"-5.44812679","store_key":5561,"city":"Algeciras"},{"name":"Vintage A5e","lat":"41.38889520","long":"2.17737260","store_key":5603,"city":"Barcelona"},{"name":"Plastic","lat":"41.37910690","long":"2.15547440","store_key":5675,"city":"Barcelona"},{"name":"Don Disco","lat":"43.01570590","long":"-7.56161620","store_key":5680,"city":"Lugo"},{"name":"Midtempo Vintage & Retro Market","lat":"40.42551160","long":"-3.70481130","store_key":5688,"city":"Madrid"},{"name":"Rhythm Control Barcelona","lat":"41.37615710","long":"2.16620430","store_key":5717,"city":"Barcelona"},{"name":"Rocknella","lat":"41.35824585","long":"2.07810497","store_key":5720,"city":"Barcelona"},{"name":"Rara Avis Store","lat":"40.42651690","long":"-3.70525380","store_key":5722,"city":"Madrid"},{"name":"La Fugitiva","lat":"40.41127150","long":"-3.69859350","store_key":5768,"city":"Madrid"},{"name":"Espai revolver","lat":"41.38466170","long":"2.16991930","store_key":5774,"city":"Barcelona"},{"name":"Crokan's Mutant Store","lat":"41.37578290","long":"2.16606580","store_key":5851,"city":"Barcelona"},{"name":"Discos Babel","lat":"40.41854095","long":"-3.70843911","store_key":5889,"city":"Madrid"},{"name":"Rotor Discos","lat":"40.42047530","long":"-3.70494170","store_key":5890,"city":"Madrid"},{"name":"Bcore Disc","lat":"41.40441513","long":"2.15989900","store_key":5917,"city":"Barcelona"},{"name":"Jumping Man","lat":"28.48917389","long":"-16.31589127","store_key":5983,"city":"San Cristóbal de La Laguna"},{"name":"La discoteca. K&H Vinyl Store","lat":"39.46185570","long":"-0.36813280","store_key":5984,"city":"València"},{"name":"Fnac","lat":"43.39000210","long":"-5.80184310","store_key":872,"city":"Paredes-Siero"},{"name":"HEY BOY HEY GIRL - RECORDS & THINGS","lat":"28.48977140","long":"-16.31415360","store_key":6024,"city":"San Cristóbal de La Laguna"},{"name":"Libertine Records shop","lat":"41.40503100","long":"2.16070140","store_key":6036,"city":"Barcelona"},{"name":"Revolt Music & Records.","lat":"40.40772850","long":"-3.70319750","store_key":6056,"city":"Madrid"},{"name":"Elepé","lat":"42.23600500","long":"-8.72327100","store_key":6098,"city":"Vigo"},{"name":"Discos Bora-Bora","lat":"37.17821200","long":"-3.60147600","store_key":6116,"city":"Granada"},{"name":"Sweet Grooves Records","lat":"39.46727371","long":"-6.37976980","store_key":6143,"city":"Cáceres"},{"name":"Brixton Denda","lat":"43.25689100","long":"-2.92255830","store_key":6144,"city":"Bilbao"},{"name":"Disco Laser","lat":"42.84885360","long":"-2.67991570","store_key":6150,"city":"Vitoria-Gasteiz"},{"name":"Honky Tonk Discos","lat":"42.23501968","long":"-8.72877789","store_key":6170,"city":"Vigo"},{"name":"La Ragazza del Piper","lat":"39.47813350","long":"-0.38284330","store_key":6251,"city":"Valencia"},{"name":"Old Tower Stuff","lat":"42.84750940","long":"-2.67113420","store_key":6252,"city":"Vitoria-Gasteiz"},{"name":"Portobello Market","lat":"43.53835060","long":"-7.04884270","store_key":6266,"city":"Ribadeo"},{"name":"Revolution Records","lat":"38.58240509","long":"-0.10154100","store_key":671,"city":"Devesa"},{"name":"Barcelona City Records","lat":"41.38849540","long":"2.17769890","store_key":6309,"city":"Barcelona"},{"name":"Regreso al pasado, Cine y música","lat":"28.13289210","long":"-15.43818630","store_key":6364,"city":"Las Palmas de Gran Canaria"},{"name":"Curtis Audiophile Cafe & Record Store","lat":"41.39001400","long":"2.15785980","store_key":6395,"city":"Barcelona"},{"name":"Radial","lat":"40.42047581","long":"-3.70491924","store_key":6458,"city":"Madrid"},{"name":"Berwick Street Shop","lat":"43.31157270","long":"-5.69024920","store_key":6479,"city":"Langreo"},{"name":"Discos Tráfico","lat":"37.98710632","long":"-1.12575495","store_key":6493,"city":"Murcia"},{"name":"Discos Impacto","lat":"41.38483580","long":"2.16744060","store_key":6494,"city":"Barcelona"},{"name":"Kebra Disc","lat":"41.38431931","long":"2.16964602","store_key":6495,"city":"Barcelona"},{"name":"Discos Rolling","lat":"37.40927505","long":"-4.48726606","store_key":6556,"city":"Lucena"},{"name":"Discos Precolombino","lat":"37.98284880","long":"-1.12720050","store_key":6630,"city":"Murcia"},{"name":"Casbah REcords","lat":"40.41207123","long":"-3.70930600","store_key":6687,"city":"Madrid"},{"name":"Blue Sky Música","lat":"40.41970000","long":"-3.79773000","store_key":6723,"city":"Madrid"},{"name":"Dientes Largos Discos","lat":"42.81855774","long":"-1.64732003","store_key":6749,"city":"Pamplona"},{"name":"Cuervo Store","lat":"40.42679214","long":"-3.70321894","store_key":6750,"city":"Madrid"},{"name":"Discos Satelite","lat":"40.40871048","long":"-3.70748901","store_key":6751,"city":"Madrid"},{"name":"Sleazy Records","lat":"36.72487600","long":"-4.42059970","store_key":6752,"city":"Málaga"},{"name":"Leyenda Rock","lat":"41.64210129","long":"-0.89141601","store_key":6753,"city":"Zaragoza"},{"name":"Espai Xocolat","lat":"39.57721960","long":"2.65039510","store_key":6856,"city":"Palma"},{"name":"Pentagram Music Store","lat":"41.38440150","long":"2.16959430","store_key":6915,"city":"Barcelona"},{"name":"Naima Records","lat":"41.38193893","long":"2.16495991","store_key":6934,"city":"Barcelona"},{"name":"Discos Alta Fidelidad","lat":"43.35377840","long":"-5.84037730","store_key":6937,"city":"Oviedo"},{"name":"Discos El Rincón","lat":"41.76350403","long":"-2.46652102","store_key":6982,"city":"Soria"},{"name":"Harmony Rock","lat":"43.25868340","long":"-2.93504430","store_key":6984,"city":"Bilbao"},{"name":"Baba Discos i Jocs Inca","lat":"39.71902084","long":"2.90591407","store_key":6985,"city":"Inca"},{"name":"Tipo","lat":"43.46228027","long":"-3.81678796","store_key":6987,"city":"Santander"},{"name":"Espai Records","lat":"41.54604070","long":"2.10676810","store_key":7160,"city":"Sabadell"},{"name":"Discos El Tesoro","lat":"40.41182220","long":"-3.72744400","store_key":7199,"city":"Madrid"},{"name":"MTM Records","lat":"38.90884360","long":"1.42842350","store_key":7219,"city":"Eivissa"},{"name":"Grans Records","lat":"41.61104202","long":"0.62033498","store_key":7226,"city":"Lleida"},{"name":"Vinilarium Record Store","lat":"41.37615585","long":"2.16620398","store_key":7259,"city":"Barcelona"},{"name":"Coliseum","lat":"41.64687940","long":"-0.89236960","store_key":7284,"city":"Zaragoza"},{"name":"Escridiscos","lat":"40.41921234","long":"-3.70650601","store_key":7306,"city":"Madrid"},{"name":"Surco","lat":"41.40076065","long":"2.15698004","store_key":7307,"city":"Barcelona"},{"name":"Bloody Mary","lat":"43.34091290","long":"-1.79447080","store_key":7308,"city":"Irun"},{"name":"Donosti Rock","lat":"43.32441711","long":"-1.98472905","store_key":7428,"city":"San Sebastian"},{"name":"12 Music","lat":"41.47816467","long":"2.07030106","store_key":7525,"city":"Sant Cugat del Vallès"},{"name":"MDR / Cuidatu Musica - Gatjack S.L.","lat":"41.72417440","long":"1.82508090","store_key":7560,"city":"Manresa"},{"name":"El Corte Inglés","lat":"41.38734900","long":"2.17146430","store_key":6,"city":"Barcelona"},{"name":"La Quinta de Mahler","lat":"40.43425270","long":"-3.71014270","store_key":7675,"city":"Madrid"},{"name":"Discos Local 3","lat":"41.48087050","long":"1.91278620","store_key":7679,"city":"Martorell"}]