[{"name":"Pertin Valinta","lat":"60.19144650","long":"24.94696600","store_key":66,"city":"Helsinki"},{"name":"Digelius Music Oy","lat":"60.16098260","long":"24.94195680","store_key":323,"city":"Helsinki"},{"name":"Fuga Oy","lat":"60.17372894","long":"24.93504906","store_key":397,"city":"Helsinki"},{"name":"Divari Kaleva","lat":"60.18748093","long":"24.95274925","store_key":414,"city":"Helsinki"},{"name":"Antikvariaatti Aikakone","lat":"61.49883120","long":"23.78270430","store_key":716,"city":"Tampere"},{"name":"Kaakko","lat":"60.44813080","long":"22.25507690","store_key":717,"city":"Turku"},{"name":"Levykauppa Äx Kuopio","lat":"62.89334960","long":"27.68162010","store_key":961,"city":"Kuopio"},{"name":"Hippie Shake","lat":"60.18047190","long":"24.95208290","store_key":1193,"city":"Helsinki"},{"name":"Levykauppa Äx","lat":"60.16773070","long":"24.93242220","store_key":1263,"city":"Helsinki"},{"name":"Levykauppa Äx","lat":"61.49921400","long":"23.76814320","store_key":1263,"city":"Tampere"},{"name":"Katin Tavara","lat":"60.18453990","long":"24.95327580","store_key":1367,"city":"Helsinki"},{"name":"Anselmin Aarteet","lat":"60.80450821","long":"25.73229408","store_key":1588,"city":"Orimattila"},{"name":"Sammakka-Pop","lat":"61.49876300","long":"23.78084090","store_key":1802,"city":"Tampere"},{"name":"Äänilevykauppa älppäri.fi","lat":"61.50058365","long":"23.75049782","store_key":1871,"city":"Tampere"},{"name":"Goosebumbs Records","lat":"60.18522480","long":"24.95336090","store_key":1956,"city":"Helsinki"},{"name":"Rolling Records","lat":"60.16765920","long":"24.93691320","store_key":2092,"city":"Helsinki"},{"name":"8raita","lat":"60.45397949","long":"22.27127838","store_key":2215,"city":"Turku"},{"name":"A.H.Records","lat":"60.16090190","long":"24.94149280","store_key":2391,"city":"Helsinki"},{"name":"Second Hand Swamp Music","lat":"61.49743710","long":"23.77076160","store_key":2519,"city":"Tampere"},{"name":"Swamp Music Oy","lat":"61.49760100","long":"23.77052640","store_key":2591,"city":"Tampere"},{"name":"Levykauppa Äx","lat":"60.44887420","long":"22.26459110","store_key":1263,"city":"Turku"},{"name":"Levykauppa Äx","lat":"60.98357210","long":"25.65266340","store_key":1263,"city":"Lahti"},{"name":"Blue Vinyl Records","lat":"60.17652130","long":"24.80184746","store_key":2638,"city":"Espoo"},{"name":"Viihdelinna","lat":"61.86960440","long":"28.87702730","store_key":2713,"city":"Savonlinna"},{"name":"Keravan ääni ja levy","lat":"60.40113310","long":"25.09834540","store_key":3008,"city":"Kerava"},{"name":"Goofin' Records","lat":"60.18631140","long":"24.96100700","store_key":3139,"city":"Helsinki"},{"name":"Levykauppa Äx","lat":"62.24324036","long":"25.75048637","store_key":1263,"city":"Jyväskylä"},{"name":"Pori Record - Record Store Björneborg","lat":"61.48561096","long":"21.79603004","store_key":3237,"city":"Pori"},{"name":"Levykauppa Eronen","lat":"60.16123970","long":"24.94219170","store_key":3396,"city":"Helsinki"},{"name":"Music Hunter","lat":"60.17549190","long":"24.95058700","store_key":3406,"city":"Helsinki"},{"name":"AudioAsema Turku","lat":"60.45340240","long":"22.25639170","store_key":3446,"city":"Turku"},{"name":"Levykauppa Keltainen Jäänsärkijä","lat":"60.16867530","long":"24.93323130","store_key":3723,"city":"Helsinki"},{"name":"Backstage Rock Shop","lat":"61.52087700","long":"23.64562020","store_key":3758,"city":"Tampere"},{"name":"Real Games / Vinylmusic.fi","lat":"60.15151520","long":"24.88218320","store_key":4320,"city":"Helsinki"},{"name":"Levykauppa Äx","lat":"65.01148080","long":"25.48003700","store_key":1263,"city":"Oulu"},{"name":"Mad Supply","lat":"61.52087700","long":"23.64562020","store_key":4407,"city":"Tampere"},{"name":"Fresh Garbage Records","lat":"60.18287940","long":"24.92528400","store_key":4577,"city":"Helsinki"},{"name":"Sarvilevyt","lat":"60.97812030","long":"25.65753180","store_key":4607,"city":"Lahti"},{"name":"Tanner Records","lat":"60.18321800","long":"24.95912840","store_key":4763,"city":"Helsinki"},{"name":"Black And White Records","lat":"60.18064300","long":"24.95119020","store_key":4900,"city":"Helsinki"},{"name":"Tornion Musiikki Oy","lat":"65.84639120","long":"24.14864410","store_key":4983,"city":"Tornio"},{"name":"Stardust Records","lat":"60.29432460","long":"25.03516490","store_key":2194,"city":"Vantaa"},{"name":"Macu's Music","lat":"60.45826070","long":"26.22561750","store_key":5411,"city":"Loviisa"},{"name":"Green Grass Records","lat":"60.18918430","long":"24.95745840","store_key":5438,"city":"Helsinki"},{"name":"Redhill Records","lat":"60.16013336","long":"24.93936348","store_key":5639,"city":"Helsinki"},{"name":"Stupido Market Kallio","lat":"60.18212170","long":"24.95113740","store_key":5711,"city":"Helsinki"},{"name":"Tritone Records Oy","lat":"60.16892600","long":"24.95194640","store_key":5745,"city":"Helsinki"},{"name":"Levykauppa Äx","lat":"60.18027750","long":"24.95202880","store_key":1263,"city":"Helsinki"},{"name":"Levykauppa 33 RPM Oy","lat":"63.83756030","long":"23.13103260","store_key":6053,"city":"Kokkola"},{"name":"Rolling records","lat":"60.18815070","long":"24.96095580","store_key":6122,"city":"Helsinki"},{"name":"Tenho Design Oy","lat":"63.09615000","long":"21.60844990","store_key":6572,"city":"Vaasa"},{"name":"Weird Antiques","lat":"60.41150710","long":"25.00303840","store_key":6696,"city":"Tuusula"},{"name":"Levy-Eskot","lat":"62.60269570","long":"29.76256580","store_key":6841,"city":"Joensuu"},{"name":"Lukulaari","lat":"61.49873910","long":"23.75273570","store_key":6911,"city":"Tampere"},{"name":"Kvlt Limited Oy","lat":"60.16198150","long":"24.93825550","store_key":6929,"city":"Helsinki"},{"name":"Music-Divari Green River","lat":"61.48819140","long":"21.79869900","store_key":7403,"city":"Pori"},{"name":"Levyikkuna","lat":"60.40238160","long":"25.10407810","store_key":7510,"city":"Kerava"}]