[{"name":"Librairie L' Arnaqueur","lat":"48.90233600","long":"2.34199020","store_key":0,"city":"Paris"},{"name":"Leclerc Culturel","lat":"44.91211160","long":"2.44102480","store_key":9,"city":"Aurillac"},{"name":"Techno Hard Core","lat":"45.82925650","long":"1.26049760","store_key":44,"city":"Limoges"},{"name":"Sympathy For The Vinyl","lat":"46.78243000","long":"4.85722550","store_key":86,"city":"Chalon-sur-Saône"},{"name":"Vinyl9","lat":"48.88886320","long":"2.30587010","store_key":88,"city":"Paris"},{"name":"FNAC","lat":"48.86219150","long":"2.34752850","store_key":97,"city":"Paris"},{"name":"The Troc","lat":"48.86637980","long":"2.37311000","store_key":136,"city":"Paris"},{"name":"Vinyl & Coffee","lat":"45.89724770","long":"6.12204770","store_key":157,"city":"Annecy"},{"name":"Atmosphère Music","lat":"49.48934555","long":"0.10661400","store_key":195,"city":"Le Havre"},{"name":"Lollipop Music Store","lat":"43.29124451","long":"5.38325691","store_key":196,"city":"Marseille"},{"name":"Les Troubadours Du Chaos","lat":"48.11672211","long":"-1.68074703","store_key":206,"city":"Rennes"},{"name":"La Boutique du Collectionneur","lat":"47.21635260","long":"-1.55849540","store_key":209,"city":"Nantes"},{"name":"FORUM disques","lat":"45.43815120","long":"4.38667380","store_key":211,"city":"Saint-Étienne"},{"name":"Planète Claire","lat":"47.90406670","long":"1.90554660","store_key":235,"city":"Orléans"},{"name":"WALRUS disquaire café","lat":"48.88100433","long":"2.35052991","store_key":243,"city":"Paris"},{"name":"illogicall-music records store","lat":"48.88193900","long":"2.33160000","store_key":244,"city":"Paris"},{"name":"Plastic Soul Records","lat":"48.85186250","long":"2.37629390","store_key":255,"city":"Paris"},{"name":"French Connection","lat":"48.90230942","long":"2.34198999","store_key":256,"city":"Paris"},{"name":"BOUL'DINGUE OCCASIONS","lat":"45.76242660","long":"4.82782340","store_key":286,"city":"Lyon"},{"name":"Librairie La Bourse","lat":"45.76668660","long":"4.83164310","store_key":287,"city":"Lyon"},{"name":"Les Sillons et Bulles de Peps","lat":"45.53292450","long":"5.70531280","store_key":301,"city":"Domessin"},{"name":"Espace Disc","lat":"49.18170929","long":"-0.36730599","store_key":306,"city":"Caen"},{"name":"La Belle Ecoute","lat":"49.35580770","long":"6.16264810","store_key":308,"city":"Thionville"},{"name":"Parallèles","lat":"48.86091614","long":"2.34527111","store_key":311,"city":"Paris"},{"name":"Patate Records","lat":"48.85341644","long":"2.37897706","store_key":334,"city":"Paris"},{"name":"Heartbeat Vinyl","lat":"48.85551453","long":"2.38114405","store_key":339,"city":"Paris"},{"name":"Underground Store","lat":"45.98892460","long":"4.71634370","store_key":371,"city":"Villefranche-sur-Saône"},{"name":"Born Bad Record Shop","lat":"48.85525513","long":"2.37188697","store_key":395,"city":"Paris"},{"name":"La Presse de Saint-Ouen","lat":"48.90560913","long":"2.33664703","store_key":418,"city":"Paris"},{"name":"Fnac Pontivy","lat":"48.05261610","long":"-2.95780910","store_key":419,"city":"Pontivy"},{"name":"Gabba Gabba Records","lat":"48.90201950","long":"2.34191203","store_key":435,"city":"Paris"},{"name":"FULL COMPACT","lat":"47.23826100","long":"6.02160380","store_key":447,"city":"Besançon"},{"name":"Fnac Nice","lat":"43.70338120","long":"7.26659780","store_key":459,"city":"Nice"},{"name":"Jungle Groove","lat":"44.36034310","long":"5.14064160","store_key":478,"city":"Nyons"},{"name":"Vicious Circle","lat":"43.60359192","long":"1.44247198","store_key":540,"city":"Toulouse"},{"name":"Glorieuses","lat":"48.69567320","long":"6.19445400","store_key":560,"city":"Nancy"},{"name":"Cultura","lat":"48.49534170","long":"-2.72995580","store_key":561,"city":"Langueux"},{"name":"Le Cercle","lat":"49.92533680","long":"1.07417770","store_key":567,"city":"Dieppe"},{"name":"Casemate Record Shop","lat":"43.61233680","long":"1.43820250","store_key":579,"city":"Toulouse"},{"name":"Plexus Records","lat":"46.58282000","long":"0.34485700","store_key":611,"city":"Poitiers"},{"name":"Notes En Bulles","lat":"50.63079834","long":"3.05534005","store_key":627,"city":"Lille"},{"name":"E-Leclerc Cultural Center in Olivet","lat":"47.84250830","long":"1.91666900","store_key":648,"city":"Olivet"},{"name":"Arpège Musique","lat":"43.87629120","long":"5.39312580","store_key":659,"city":"Apt"},{"name":"Jetrecords","lat":"43.48093033","long":"-1.55904400","store_key":687,"city":"Biarritz"},{"name":"Les Mondes Perdus","lat":"49.44510020","long":"1.08710260","store_key":702,"city":"Rouen"},{"name":"Kraspek Myzik","lat":"45.77128601","long":"4.83577585","store_key":703,"city":"Lyon"},{"name":"Livre Musique Culture","lat":"49.11627579","long":"7.09560108","store_key":726,"city":"Sarreguemines"},{"name":"Discopathie","lat":"44.55408480","long":"3.29049150","store_key":810,"city":"Marvejols"},{"name":"Le Boudoir Sonore","lat":"44.83659050","long":"-0.57245580","store_key":836,"city":"Bordeaux"},{"name":"Waxime","lat":"50.35584830","long":"3.50270400","store_key":846,"city":"Valenciennes"},{"name":"Gibert Joseph Chalon","lat":"46.78162420","long":"4.85372020","store_key":857,"city":"Chalon-sur-Saône"},{"name":"Fnac Metz","lat":"49.11659460","long":"6.17267260","store_key":870,"city":"Metz"},{"name":"Fnac Saint-Etienne","lat":"45.44070030","long":"4.42179120","store_key":871,"city":"Saint-Étienne"},{"name":"Manhattan Vinyle","lat":"46.41148730","long":"-0.20389530","store_key":888,"city":"Saint-Maixent-l'École"},{"name":"Tangerine Musiques","lat":"43.29495239","long":"5.38387394","store_key":916,"city":"Marseille"},{"name":"Bam Balam","lat":"44.83532333","long":"-0.57554001","store_key":926,"city":"Bordeaux"},{"name":"Record Station","lat":"48.87449690","long":"2.36124680","store_key":935,"city":"Paris"},{"name":"Superfly Records","lat":"48.86764526","long":"2.35662603","store_key":943,"city":"Paris"},{"name":"Store Records","lat":"50.36939800","long":"3.07405630","store_key":948,"city":"Douai"},{"name":"Ty Blurt Records","lat":"47.99423750","long":"-4.10272140","store_key":963,"city":"Quimper"},{"name":"Transat","lat":"46.57275060","long":"0.35973810","store_key":964,"city":"Poitiers"},{"name":"Rolling Rock","lat":"45.78010559","long":"3.08648109","store_key":988,"city":"Clermont-Ferrand"},{"name":"Big Smile Bazaar","lat":"48.86689377","long":"2.35164499","store_key":991,"city":"Paris"},{"name":"Cosmonotes","lat":"47.65840910","long":"-2.75878040","store_key":992,"city":"Vannes"},{"name":"O'CD","lat":"48.84664154","long":"2.29545498","store_key":993,"city":"Paris"},{"name":"Back to the Style","lat":"48.42633320","long":"0.08901000","store_key":1038,"city":"Alençon"},{"name":"Sabre-Tooth","lat":"43.29470825","long":"5.38469505","store_key":1092,"city":"Marseille"},{"name":"Espace Culturel Plerin","lat":"48.53508580","long":"-2.76072260","store_key":1136,"city":"Plérin"},{"name":"E.Leclerc Espace Culturel","lat":"48.75179060","long":"-3.45722710","store_key":1139,"city":"Lannion"},{"name":"Fnac","lat":"48.76601610","long":"-3.45068270","store_key":872,"city":"Saint-Quay-Perros"},{"name":"PassePasseStore","lat":"47.39328585","long":"0.68175134","store_key":1144,"city":"Tours"},{"name":"Librairie Cheminant","lat":"47.65909310","long":"-2.75923070","store_key":1145,"city":"Vannes"},{"name":"MTA Vinyl Shop Valence","lat":"44.93274550","long":"4.89041360","store_key":1167,"city":"Valence"},{"name":"Made In Café Disquaire","lat":"43.60124660","long":"1.44111060","store_key":1216,"city":"Toulouse"},{"name":"Bookoff","lat":"48.85135269","long":"2.37538791","store_key":1250,"city":"Paris"},{"name":"Techno import","lat":"48.85472107","long":"2.37521505","store_key":1253,"city":"Paris"},{"name":"Bop Diskak","lat":"43.49085236","long":"-1.47308004","store_key":1272,"city":"Bayonne"},{"name":"Bazoom BD-Musique","lat":"47.66595330","long":"-2.98525780","store_key":1273,"city":"Auray"},{"name":"L'Introuvable","lat":"43.42499330","long":"6.76634840","store_key":1274,"city":"Saint-Raphaël"},{"name":"St. Ann's Records","lat":"47.20234420","long":"-1.57907190","store_key":1277,"city":"Nantes"},{"name":"Undersounds","lat":"45.83075540","long":"1.25786800","store_key":1285,"city":"Limoges"},{"name":"Livres Passions","lat":"44.55995560","long":"4.74922800","store_key":1286,"city":"Montélimar"},{"name":"Beers & Records","lat":"48.86387800","long":"2.44284000","store_key":1291,"city":"Paris"},{"name":"Vertigo Records","lat":"47.39432410","long":"0.67968330","store_key":1319,"city":"Tours"},{"name":"Fnac","lat":"48.82926780","long":"2.35521860","store_key":872,"city":"Paris"},{"name":"Ti Ar Sonerien","lat":"47.90046692","long":"-3.91232491","store_key":1374,"city":"Concarneau"},{"name":"les mondes du disque","lat":"46.58207703","long":"0.33974200","store_key":1375,"city":"Poitiers"},{"name":"Gibert Joseph","lat":"48.88552230","long":"2.34928050","store_key":1419,"city":"Paris"},{"name":"Jet Records","lat":"43.29699220","long":"-0.37154230","store_key":1420,"city":"Pau"},{"name":"Free Music","lat":"45.56465580","long":"5.92327130","store_key":980,"city":"Chambéry"},{"name":"E.Leclerc Espace Culturel","lat":"44.88399530","long":"-0.69366720","store_key":1139,"city":"Saint-Médard-en-Jalles"},{"name":"Barber Vintage Records Shop","lat":"43.29229790","long":"5.56813700","store_key":1429,"city":"Aubagne"},{"name":"Fnac Montparnasse","lat":"48.84583440","long":"2.32543210","store_key":1434,"city":"Paris"},{"name":"Mic Mac","lat":"48.73263860","long":"-3.45740540","store_key":1453,"city":"Lannion"},{"name":"Arbouse Shop","lat":"44.34875107","long":"2.57393503","store_key":1456,"city":"Rodez"},{"name":"Bazar Musiques","lat":"43.29446090","long":"5.38296170","store_key":1526,"city":"Marseille"},{"name":"Le Furet du Nord","lat":"51.03397290","long":"2.37045450","store_key":1536,"city":"Dunkerque"},{"name":"La Troccase","lat":"47.74651718","long":"7.34022188","store_key":1562,"city":"Mulhouse"},{"name":"Metropolis","lat":"47.27933220","long":"-2.21499790","store_key":1610,"city":"Saint-Nazaire"},{"name":"Lucky Records","lat":"48.85860443","long":"2.35147405","store_key":1614,"city":"Paris"},{"name":"Cosmic Trip","lat":"43.53900146","long":"6.46701193","store_key":1637,"city":"Draguignan"},{"name":"Hot Box Records","lat":"48.80794430","long":"2.13108550","store_key":1645,"city":"Versailles"},{"name":"The Message","lat":"48.29565811","long":"4.07090902","store_key":1646,"city":"Troyes"},{"name":"Melody Nel Son Nelson","lat":"47.06049728","long":"-0.88242602","store_key":1648,"city":"Cholet"},{"name":"Big Up Café","lat":"44.83437160","long":"-0.57145560","store_key":1651,"city":"Bordeaux"},{"name":"Vibrations","lat":"41.92148209","long":"8.73830128","store_key":1652,"city":"Ajaccio"},{"name":"Discocaso Records","lat":"48.86438320","long":"2.36400060","store_key":1676,"city":"Paris"},{"name":"Total Record","lat":"43.60543510","long":"3.87774420","store_key":1697,"city":"Montpellier"},{"name":"Kanaga Records","lat":"48.89088600","long":"2.38208960","store_key":1710,"city":"Paris"},{"name":"Librairie Harry Morgan","lat":"45.18856550","long":"5.72639610","store_key":1731,"city":"Grenoble"},{"name":"Sue's Vinyls","lat":"43.93571950","long":"0.61610310","store_key":1737,"city":"Lectoure"},{"name":"Sonic Records","lat":"49.18158340","long":"-0.36667800","store_key":1759,"city":"Caen"},{"name":"Cosmic Groove","lat":"43.60836792","long":"3.87612891","store_key":1760,"city":"Montpellier"},{"name":"Virtual Records","lat":"43.18516159","long":"3.00518394","store_key":1825,"city":"Narbonne"},{"name":"SELECT RECORDS ROUEN","lat":"49.44189453","long":"1.08919299","store_key":1826,"city":"Rouen"},{"name":"Club 33 45","lat":"44.83388570","long":"-0.56644100","store_key":1845,"city":"Bordeaux"},{"name":"Cougouyou Music","lat":"42.69852448","long":"2.89425397","store_key":1846,"city":"Perpignan"},{"name":"Dialogues Café Fleuriot","lat":"48.38789240","long":"-4.49034780","store_key":1847,"city":"Brest"},{"name":"O'CD","lat":"45.76522446","long":"4.83322096","store_key":993,"city":"Lyon"},{"name":"La Plaque Tournante","lat":"49.77185059","long":"4.72770023","store_key":1859,"city":"Charleville-Mézières"},{"name":"Corner Records","lat":"47.74773407","long":"-3.35974407","store_key":1864,"city":"Lorient"},{"name":"Babylon-Shop","lat":"49.44444050","long":"1.08738640","store_key":1865,"city":"Rouen"},{"name":"Rock Paradise","lat":"48.83900010","long":"2.28799100","store_key":1867,"city":"Paris"},{"name":"Passage Culturel","lat":"47.06159220","long":"-0.88104170","store_key":1868,"city":"Cholet"},{"name":"Betty Roots Music","lat":"47.99600930","long":"-4.10032780","store_key":1899,"city":"Quimper"},{"name":"Sunlee Howard","lat":"48.85090220","long":"2.32374120","store_key":1903,"city":"Paris"},{"name":"Aesthetic Circle Record Shop","lat":"49.43976220","long":"1.09532690","store_key":1910,"city":"Rouen"},{"name":"Au Petit Coin Librairie","lat":"44.83613200","long":"-0.57300800","store_key":1958,"city":"Bordeaux"},{"name":"Fnac Le Havre","lat":"49.49595590","long":"0.11159950","store_key":1971,"city":"Le Havre"},{"name":"Les enfants de Bohème","lat":"48.11588000","long":"-1.68078140","store_key":1976,"city":"Rennes"},{"name":"Donna Strummer","lat":"48.87537490","long":"2.39063410","store_key":1978,"city":"Paris"},{"name":"Marché Dauphine","lat":"48.90232970","long":"2.34198950","store_key":1980,"city":"Paris"},{"name":"Espace Culturel E.Leclerc Atout Sud","lat":"47.19300230","long":"-1.57345890","store_key":1994,"city":"Rezé"},{"name":"Musique","lat":"48.52509600","long":"-2.74453890","store_key":2046,"city":"Plérin"},{"name":"L'endorphine","lat":"47.99735440","long":"-4.10886540","store_key":2072,"city":"Quimper"},{"name":"La Boîte Defer","lat":"50.68594330","long":"2.88254390","store_key":2093,"city":"Armentières"},{"name":"L'Occase de l'Oncle Tom","lat":"48.58120728","long":"7.74586105","store_key":2120,"city":"Strasbourg"},{"name":"Croc Vinyl","lat":"43.60520000","long":"1.44209100","store_key":2140,"city":"Toulouse"},{"name":"Te lubesc Records & Sapology","lat":"48.89220810","long":"2.36352205","store_key":2180,"city":"Paris"},{"name":"Extend & Play Vinyl Store","lat":"43.29219410","long":"5.38348020","store_key":2184,"city":"Marseille"},{"name":"Chez Emile Records","lat":"45.76873920","long":"4.83102380","store_key":2196,"city":"Lyon"},{"name":"O'CD","lat":"45.75612640","long":"4.83099794","store_key":993,"city":"Lyon"},{"name":"Maison du Livre","lat":"44.34988785","long":"2.57429099","store_key":2216,"city":"Rodez"},{"name":"Le livre à venir","lat":"48.86539841","long":"2.37673211","store_key":2218,"city":"Paris"},{"name":"CD MANIA","lat":"47.21229553","long":"-1.55961096","store_key":2219,"city":"Nantes"},{"name":"Lucky Experience","lat":"43.28842926","long":"5.38845682","store_key":2220,"city":"Marseille"},{"name":"Librairie OCEP - Place Média","lat":"49.05022049","long":"-1.44392502","store_key":2250,"city":"Coutances"},{"name":"RetroFutur","lat":"48.87039910","long":"2.36545550","store_key":2270,"city":"Paris"},{"name":"Supersonic Records","lat":"48.85032720","long":"2.36970850","store_key":2281,"city":"Paris"},{"name":"Blind Spot - Les Angles Morts","lat":"48.10869598","long":"-1.68223202","store_key":2389,"city":"Rennes"},{"name":"CrocoJazz","lat":"48.84696820","long":"2.34787700","store_key":2433,"city":"Paris"},{"name":"Le cafédiskaire","lat":"50.63032230","long":"3.04511960","store_key":2521,"city":"Lille"},{"name":"Réglis Records","lat":"45.76975790","long":"4.83012930","store_key":2529,"city":"Lyon"},{"name":"Monster Melodies","lat":"48.85977173","long":"2.34620404","store_key":2549,"city":"Paris"},{"name":"Souffle Continu","lat":"48.85891342","long":"2.38614607","store_key":2553,"city":"Paris"},{"name":"Général Music","lat":"43.94769669","long":"4.80797720","store_key":2561,"city":"Avignon"},{"name":"Balades Sonores","lat":"48.88171005","long":"2.34619093","store_key":2580,"city":"Paris"},{"name":"Rock'n'Roll Voltage","lat":"48.85631940","long":"2.35769250","store_key":2585,"city":"Paris"},{"name":"Ex-Vinylo","lat":"43.82172220","long":"1.72505540","store_key":2586,"city":"Rabastens"},{"name":"Tiki Vinyl Store","lat":"45.76972198","long":"4.83255577","store_key":2641,"city":"Lyon"},{"name":"Leclerc Culturel","lat":"46.56517980","long":"3.33023530","store_key":9,"city":"Moulins"},{"name":"Music & Movies","lat":"43.52955246","long":"5.44591713","store_key":2667,"city":"Aix-en-Provence"},{"name":"FLOW MUSICAL","lat":"43.60510668","long":"-1.01040503","store_key":2691,"city":"Pouillon"},{"name":"broc recordz shop","lat":"48.64770460","long":"2.33856840","store_key":2718,"city":"Sainte-Geneviève-des-Bois"},{"name":"Soul Ableta Disquaire","lat":"48.89050240","long":"2.35086070","store_key":2780,"city":"Paris"},{"name":"Fnac Toulouse - Wilson","lat":"43.60534260","long":"1.44862300","store_key":2791,"city":"Toulouse"},{"name":"Polymorphe Records","lat":"43.31655500","long":"6.07670000","store_key":2795,"city":"Rocbaron"},{"name":"Fnac Toulon","lat":"43.12056770","long":"5.93808830","store_key":2808,"city":"Toulon"},{"name":"La Freak","lat":"48.85771190","long":"2.37673220","store_key":2819,"city":"Paris"},{"name":"Blazing Music","lat":"48.90225990","long":"2.34189800","store_key":2828,"city":"Paris"},{"name":"33 & Co","lat":"48.58216095","long":"7.74189615","store_key":2909,"city":"Strasbourg"},{"name":"William Disques","lat":"49.24946976","long":"4.03327322","store_key":2947,"city":"Reims"},{"name":"King Bees Music","lat":"44.20435333","long":"0.61625803","store_key":2960,"city":"Agen"},{"name":"Discobuzz Vinyl Records Collector Store","lat":"43.23157883","long":"0.07656200","store_key":3003,"city":"Tarbes"},{"name":"La cuve à son","lat":"48.84974460","long":"2.37539450","store_key":3005,"city":"Paris"},{"name":"La Machine à Musique successeur Lignerolles","lat":"44.84060080","long":"-0.57332120","store_key":3009,"city":"Bordeaux"},{"name":"Mange Disque","lat":"43.49030240","long":"-1.47797030","store_key":3016,"city":"Bayonne"},{"name":"Aux comptoirs du chineur","lat":"48.85441620","long":"2.36241650","store_key":3022,"city":"Paris"},{"name":"La Malle A Disques","lat":"49.89585114","long":"2.29749990","store_key":3136,"city":"Amiens"},{"name":"Sonic Import","lat":"43.70350647","long":"7.26970816","store_key":3137,"city":"Nice"},{"name":"Le Discobole","lat":"48.07613590","long":"7.35527030","store_key":3155,"city":"Colmar"},{"name":"Ground Zero","lat":"48.87928260","long":"2.34948180","store_key":3199,"city":"Paris"},{"name":"O'CD","lat":"48.86310790","long":"2.34886500","store_key":993,"city":"Paris"},{"name":"Les disques du Yeti","lat":"48.90148926","long":"2.33927894","store_key":3218,"city":"Paris"},{"name":"Aladin musique","lat":"46.69680950","long":"-1.94194000","store_key":3245,"city":"Saint-Gilles-Croix-de-Vie"},{"name":"La Caverne du Disque","lat":"47.63860470","long":"6.85769520","store_key":3305,"city":"Belfort"},{"name":"LP Records","lat":"48.51434430","long":"-2.76200680","store_key":1671,"city":"Saint-Brieuc"},{"name":"Fnac","lat":"47.97518620","long":"-4.09616250","store_key":872,"city":"Quimper"},{"name":"Crocodisc","lat":"48.84933853","long":"2.34621406","store_key":3372,"city":"Paris"},{"name":"Galette Records","lat":"43.29337692","long":"5.38528395","store_key":3390,"city":"Marseille"},{"name":"La Démothèque","lat":"45.18376923","long":"0.72397500","store_key":3402,"city":"Périgueux"},{"name":"Toolbox Records","lat":"48.86288452","long":"2.37910390","store_key":3419,"city":"Paris"},{"name":"New Bullitt","lat":"43.60550308","long":"1.44195104","store_key":3423,"city":"Toulouse"},{"name":"Pastime Paradise","lat":"48.90232598","long":"2.34194573","store_key":3456,"city":"Paris"},{"name":"Rocket Records","lat":"48.90227890","long":"2.34198999","store_key":3457,"city":"Paris"},{"name":"Fuzzy amp Vinyls","lat":"43.77633286","long":"7.50714207","store_key":3482,"city":"Menton"},{"name":"O'CD","lat":"48.85362330","long":"2.36664470","store_key":993,"city":"Paris"},{"name":"O'CD","lat":"44.83597680","long":"-0.57367710","store_key":993,"city":"Bordeaux"},{"name":"Mood","lat":"48.88803482","long":"2.40126801","store_key":3494,"city":"Paris"},{"name":"Le Chat Bleu Le Chat Chineur","lat":"44.85239290","long":"-0.57111550","store_key":3521,"city":"Bordeaux"},{"name":"Big Star Records","lat":"50.29006940","long":"2.77805100","store_key":3524,"city":"Arras"},{"name":"Mélodie En Sous- Sol","lat":"47.74737340","long":"7.33405110","store_key":3549,"city":"Mulhouse"},{"name":"Renaissens","lat":"48.84167480","long":"2.23833299","store_key":3564,"city":"Boulogne"},{"name":"E.Leclerc Espace Culturel","lat":"48.58990780","long":"-3.81462980","store_key":1139,"city":"Morlaix"},{"name":"Unik Music","lat":"47.99798020","long":"0.20040620","store_key":3624,"city":"Le Mans"},{"name":"Fnac","lat":"48.87543490","long":"2.32702680","store_key":872,"city":"Paris"},{"name":"Fnac Champs Elysees","lat":"48.87154390","long":"2.30500150","store_key":3650,"city":"Paris"},{"name":"Mixape","lat":"47.47184150","long":"-0.55450300","store_key":3654,"city":"Angers"},{"name":"E.Leclerc Espace Culturel","lat":"48.55469820","long":"-3.15179810","store_key":1139,"city":"Guingamp"},{"name":"Comme À La Radio","lat":"47.21805850","long":"-1.56226510","store_key":3662,"city":"Nantes"},{"name":"Dangerhouse","lat":"45.76780820","long":"4.82923270","store_key":3720,"city":"Lyon"},{"name":"Oneness Records","lat":"47.22184940","long":"-1.54738440","store_key":3721,"city":"Nantes"},{"name":"Tourne-Disques & Tire-Bouchons","lat":"48.73160500","long":"-3.45955920","store_key":3728,"city":"Lannion"},{"name":"ZIC & BUL","lat":"48.86433960","long":"2.37867850","store_key":3763,"city":"Paris"},{"name":"O'CD","lat":"48.84890366","long":"2.34780788","store_key":993,"city":"Paris"},{"name":"Bedisc","lat":"48.85034943","long":"2.39931107","store_key":3784,"city":"Paris"},{"name":"Yoyaku","lat":"48.87256241","long":"2.39023709","store_key":3788,"city":"Paris"},{"name":"La Boutique de La Sirène","lat":"46.15832138","long":"-1.14978695","store_key":3791,"city":"La Rochelle"},{"name":"The Box - Disquaire","lat":"47.32520180","long":"5.04480130","store_key":3918,"city":"Dijon"},{"name":"Librairie Mac Donald","lat":"48.89904250","long":"2.37867780","store_key":3938,"city":"Paris"},{"name":"Ultimae Records","lat":"45.75985060","long":"4.83272890","store_key":3944,"city":"Lyon"},{"name":"Book'In","lat":"42.69993200","long":"2.88941600","store_key":3968,"city":"Perpignan"},{"name":"Music Avenue Paris","lat":"48.85173416","long":"2.38473606","store_key":4053,"city":"Paris"},{"name":"Riviere Marc","lat":"48.90226364","long":"2.34198999","store_key":4054,"city":"Paris"},{"name":"La Main dans le Bac","lat":"48.57998900","long":"7.75351580","store_key":4068,"city":"Strasbourg"},{"name":"LE REVE DE L ESCALIER","lat":"49.44387436","long":"1.08799601","store_key":4078,"city":"Rouen"},{"name":"La Tannerie","lat":"46.19926350","long":"5.22542630","store_key":4092,"city":"Bourg-en-Bresse"},{"name":"Skanking Shop","lat":"43.61295120","long":"3.87899080","store_key":4093,"city":"Montpellier"},{"name":"ROCK Heaven","lat":"43.60371399","long":"2.23837495","store_key":4094,"city":"Castres"},{"name":"Scred Boutique","lat":"48.89042550","long":"2.34675530","store_key":4095,"city":"Paris"},{"name":"Cultural Space E.Leclerc","lat":"48.01548170","long":"-4.08273120","store_key":4153,"city":"Quimper"},{"name":"Le Disc'air Du Bassin","lat":"44.63611530","long":"-1.07624000","store_key":4182,"city":"Gujan-Mestras"},{"name":"Livr-etctera","lat":"45.60869598","long":"4.06452417","store_key":4220,"city":"Montbrison"},{"name":"Listen!","lat":"48.86370500","long":"2.37210510","store_key":4259,"city":"Paris"},{"name":"Betino's Record Shop","lat":"48.86129379","long":"2.37020493","store_key":4342,"city":"Paris"},{"name":"It's Only...","lat":"48.11053467","long":"-1.67798996","store_key":4412,"city":"Rennes"},{"name":"Plus De Bruit","lat":"48.87948590","long":"2.33479520","store_key":4413,"city":"Paris"},{"name":"O'CD","lat":"43.60991669","long":"3.87559295","store_key":993,"city":"Montpellier"},{"name":"Rock'n'Roll Attitude","lat":"43.60681720","long":"3.87652680","store_key":4446,"city":"Montpellier"},{"name":"Cultura Mâcon","lat":"46.28597530","long":"4.80994810","store_key":4448,"city":"Mâcon"},{"name":"Zdb Records","lat":"49.49608231","long":"0.12593301","store_key":4473,"city":"Le Havre"},{"name":"Le laboratoire Vinyles","lat":"43.60046070","long":"1.44237860","store_key":4474,"city":"Toulouse"},{"name":"Boulinier","lat":"48.81989670","long":"2.34261799","store_key":4476,"city":"Paris"},{"name":"Bande Dessinée Musique","lat":"47.21622420","long":"-1.55608320","store_key":4486,"city":"Nantes"},{"name":"Come Prima Independent Record Store","lat":"43.94780460","long":"4.80834340","store_key":4542,"city":"Avignon"},{"name":"Deep End","lat":"44.83672714","long":"-0.57516903","store_key":4543,"city":"Bordeaux"},{"name":"Baromètre","lat":"47.39504450","long":"0.67873560","store_key":4544,"city":"Tours"},{"name":"Gibert Joseph Paris 6 Musique","lat":"48.84997210","long":"2.34214000","store_key":4545,"city":"Paris"},{"name":"O'CD","lat":"43.28799057","long":"5.38244009","store_key":993,"city":"Marseille"},{"name":"Les Allumés du Jazz","lat":"48.00620651","long":"0.19290601","store_key":4553,"city":"Le Mans"},{"name":"SPIRITS Disquaire Shop","lat":"48.48329730","long":"2.34720960","store_key":4559,"city":"La Ferté-Alais"},{"name":"Cultura Mérignac","lat":"44.82999520","long":"-0.66196360","store_key":4633,"city":"Mérignac"},{"name":"Etoile Disques","lat":"48.88142110","long":"2.29129600","store_key":4649,"city":"Paris"},{"name":"Disc'orama Record Shop","lat":"45.18685150","long":"5.73067188","store_key":4669,"city":"Grenoble"},{"name":"Cultural Space E.Leclerc Ploufragan","lat":"48.49843400","long":"-2.77873930","store_key":4693,"city":"Ploufragan"},{"name":"Cultura","lat":"48.89078000","long":"2.23731870","store_key":561,"city":"Puteaux"},{"name":"Discotis","lat":"43.55030470","long":"7.02938720","store_key":4794,"city":"Cannes"},{"name":"Vinyle Attitude","lat":"49.18785560","long":"2.41347010","store_key":4801,"city":"Gouvieux"},{"name":"UN SON IMPUR","lat":"49.44429850","long":"1.09631590","store_key":4808,"city":"Rouen"},{"name":"Bigoût Records","lat":"45.76946960","long":"4.83519470","store_key":4816,"city":"Lyon"},{"name":"O'CD","lat":"47.39251250","long":"0.68537100","store_key":993,"city":"Tours"},{"name":"Shop Ton Son","lat":"47.71976852","long":"-1.37641704","store_key":4865,"city":"Châteaubriant"},{"name":"Wango Tango","lat":"47.81507070","long":"6.38129230","store_key":4866,"city":"Luxeuil-les-Bains"},{"name":"Planète Disques","lat":"45.76682663","long":"4.83187580","store_key":4896,"city":"Lyon"},{"name":"Punk Records","lat":"48.69407654","long":"6.18105412","store_key":4897,"city":"Nancy"},{"name":"Old School LP","lat":"48.90223312","long":"2.34198999","store_key":4955,"city":"Paris"},{"name":"black market","lat":"47.31774902","long":"5.03506613","store_key":4975,"city":"Dijon"},{"name":"Exit Music For A Drink","lat":"47.47291670","long":"-0.55242950","store_key":4976,"city":"Angers"},{"name":"Fnac Lorient","lat":"47.74862400","long":"-3.36375970","store_key":4987,"city":"Lorient"},{"name":"Rhizome Record Store","lat":"48.69044580","long":"6.17918090","store_key":5046,"city":"Nancy"},{"name":"Le Bruit Qui Tourne","lat":"46.81255740","long":"1.69233860","store_key":5110,"city":"Châteauroux"},{"name":"Discomaniaks","lat":"43.40645610","long":"3.70028730","store_key":5111,"city":"Sète"},{"name":"Vinyl Ourson","lat":"46.32570520","long":"-0.46354940","store_key":5115,"city":"Niort"},{"name":"Metallian Store","lat":"45.18281000","long":"5.73207200","store_key":5116,"city":"Grenoble"},{"name":"Les Enfants du Roc'h","lat":"48.36412390","long":"-3.74751780","store_key":5119,"city":"Huelgoat"},{"name":"Fnac Saint-Brieuc","lat":"48.51170800","long":"-2.76025700","store_key":5121,"city":"Saint-Brieuc"},{"name":"Evrlst.Inc","lat":"43.69988840","long":"7.27416230","store_key":5139,"city":"Nice"},{"name":"Le Mange Disque","lat":"50.69046460","long":"3.17187360","store_key":5144,"city":"Roubaix"},{"name":"Spliff Ministore","lat":"45.77667999","long":"3.08623290","store_key":5172,"city":"Clermont-Ferrand"},{"name":"Besides Records","lat":"50.63348389","long":"3.06455207","store_key":5173,"city":"Lille"},{"name":"Pop Culture","lat":"48.85510635","long":"2.37543988","store_key":5182,"city":"Paris"},{"name":"Vinyl Shop The Rev'","lat":"45.26437210","long":"1.76606740","store_key":5183,"city":"Tulle"},{"name":"La Cellule Records","lat":"43.12271680","long":"5.93446910","store_key":5242,"city":"Toulon"},{"name":"Disquart","lat":"45.04342280","long":"5.05027280","store_key":5250,"city":"Romans-sur-Isère"},{"name":"International Records","lat":"44.93064499","long":"4.88914680","store_key":5251,"city":"Valence"},{"name":"Kosimi Records","lat":"43.69981050","long":"7.27162190","store_key":5252,"city":"Nice"},{"name":"O'CD","lat":"43.59850311","long":"1.44410503","store_key":993,"city":"Toulouse"},{"name":"O'CD","lat":"47.21640015","long":"-1.55274200","store_key":993,"city":"Nantes"},{"name":"Nostalgia","lat":"48.85180664","long":"2.39949393","store_key":677,"city":"Paris"},{"name":"Locked Grooves","lat":"48.58798300","long":"7.74214800","store_key":5263,"city":"Strasbourg"},{"name":"Sono Music","lat":"50.72179413","long":"1.61048698","store_key":5264,"city":"Boulogne-sur-Mer"},{"name":"Melomania","lat":"48.84972670","long":"2.35128200","store_key":5272,"city":"Paris"},{"name":"Tripsichord Music","lat":"43.29495090","long":"5.38387390","store_key":5287,"city":"Marseille"},{"name":"HAFFI DREAD RECORD","lat":"47.90033270","long":"1.91260800","store_key":5323,"city":"Orléans"},{"name":"Groove Rennes","lat":"48.11411500","long":"-1.67929500","store_key":5332,"city":"Rennes"},{"name":"Cin et Music","lat":"48.63935471","long":"-2.01770997","store_key":5364,"city":"Saint-Malo"},{"name":"Eklectik Disques-Livres","lat":"45.82906723","long":"1.25605702","store_key":5365,"city":"Limoges"},{"name":"Music Avenue","lat":"45.78477420","long":"4.89557990","store_key":5377,"city":"Villeurbanne"},{"name":"OPUS 51","lat":"49.26859283","long":"3.96152496","store_key":5378,"city":"Champigny"},{"name":"Hands And Arms Music","lat":"48.85005130","long":"2.37937190","store_key":5381,"city":"Paris"},{"name":"Vinyle Paris","lat":"48.88272095","long":"2.34585190","store_key":5382,"city":"Paris"},{"name":"Fnac Bordeaux","lat":"44.83995190","long":"-0.57403450","store_key":5386,"city":"Bordeaux"},{"name":"DiscoFile","lat":"43.64982740","long":"0.58867130","store_key":5447,"city":"Auch"},{"name":"Librairie Gibert Joseph","lat":"45.18728110","long":"5.72359740","store_key":5476,"city":"Grenoble"},{"name":"cursol music","lat":"44.83481640","long":"-0.57707590","store_key":5478,"city":"Bordeaux"},{"name":"Rythm'n BD","lat":"48.00017890","long":"0.19904980","store_key":5481,"city":"Le Mans"},{"name":"Fnac Rouen","lat":"49.44272020","long":"1.09338360","store_key":5488,"city":"Rouen"},{"name":"Rockmitaine","lat":"50.62466080","long":"3.05501780","store_key":5491,"city":"Lille"},{"name":"Vintage Music 56","lat":"47.80995850","long":"-2.38333690","store_key":5496,"city":"Malestroit"},{"name":"Frozen Records","lat":"47.22087350","long":"-1.54845330","store_key":5512,"city":"Nantes"},{"name":"Le Silence De La Rue","lat":"48.85338974","long":"2.38246989","store_key":5555,"city":"Paris"},{"name":"Le Comptoir du Disque","lat":"43.61079407","long":"3.87832594","store_key":5562,"city":"Montpellier"},{"name":"All Access","lat":"48.88822174","long":"2.31673908","store_key":5563,"city":"Paris"},{"name":"Urban Music","lat":"50.63620377","long":"3.06519389","store_key":5579,"city":"Lille"},{"name":"Méli Mélodie disquaire","lat":"45.43584442","long":"4.39087105","store_key":5581,"city":"Saint-Étienne"},{"name":"Armadillo","lat":"43.59624770","long":"1.44435740","store_key":5582,"city":"Toulouse"},{"name":"Gemini Cricket","lat":"48.90229416","long":"2.34198999","store_key":5610,"city":"Paris"},{"name":"Collector's Story","lat":"49.63966751","long":"-1.62331498","store_key":5633,"city":"Cherbourg-en-Cotentin"},{"name":"O'CD Grenoble","lat":"45.18923600","long":"5.72704980","store_key":5634,"city":"Grenoble"},{"name":"Point Show","lat":"45.82976913","long":"1.26007104","store_key":5640,"city":"Limoges"},{"name":"Turnover Concept Store","lat":"48.69107610","long":"6.18007640","store_key":5641,"city":"Nancy"},{"name":"Pop Music","lat":"48.79823303","long":"2.13511491","store_key":3496,"city":"Versailles"},{"name":"Panorama Records","lat":"48.90169525","long":"2.34211612","store_key":5661,"city":"Paris"},{"name":"Disc'o'phil (Philippe Auxietre)","lat":"48.72891617","long":"4.59063005","store_key":5761,"city":"Vitry-le-François"},{"name":"Fnac","lat":"48.39330720","long":"-4.47958710","store_key":872,"city":"Brest"},{"name":"Vinyles 61","lat":"48.42914290","long":"0.08762010","store_key":5793,"city":"Alençon"},{"name":"Arbouse Store","lat":"43.83867300","long":"4.35975600","store_key":5802,"city":"Nîmes"},{"name":"Fuzz","lat":"43.49318750","long":"-1.47694530","store_key":5827,"city":"Bayonne"},{"name":"Blow Up Records","lat":"49.12214279","long":"6.17783308","store_key":5892,"city":"Metz"},{"name":"100% white puzzle records","lat":"47.06550980","long":"-1.25334299","store_key":5948,"city":"Cugand"},{"name":"Nazeyrollas Disques Photos","lat":"43.48106766","long":"-1.55904102","store_key":5963,"city":"Biarritz"},{"name":"Général Music","lat":"43.60762024","long":"3.88044691","store_key":2561,"city":"Montpellier"},{"name":"L'Antre du Malt","lat":"49.44343420","long":"1.08651220","store_key":5965,"city":"Rouen"},{"name":"L'arrière-boutique of Malakoff","lat":"48.82299360","long":"2.30473550","store_key":5982,"city":"Paris"},{"name":"Bourdon Jean-Claude","lat":"46.77645700","long":"4.82217450","store_key":6021,"city":"Saint-Rémy"},{"name":"Le tigre rose","lat":"43.60578820","long":"1.43377790","store_key":6040,"city":"Toulouse"},{"name":"The Great Googamooga Record Shop","lat":"50.63706184","long":"3.05619972","store_key":6055,"city":"Lille"},{"name":"Home Wax","lat":"47.47164154","long":"-0.55521798","store_key":6082,"city":"Angers"},{"name":"Hit Import","lat":"43.70409393","long":"7.26989985","store_key":6102,"city":"Nice"},{"name":"Les Echos Du Rock","lat":"47.90802980","long":"7.21276170","store_key":6125,"city":"Guebwiller"},{"name":"O'CD","lat":"48.11501694","long":"-1.67931700","store_key":993,"city":"Rennes"},{"name":"Bad Seeds Recordshop","lat":"48.39691162","long":"-4.47969198","store_key":6134,"city":"Brest"},{"name":"La Face Cachée","lat":"49.11633682","long":"6.17544317","store_key":6171,"city":"Metz"},{"name":"Mélomane","lat":"47.21321106","long":"-1.55377996","store_key":6172,"city":"Nantes"},{"name":"Furet du Nord","lat":"50.63663270","long":"3.06298820","store_key":6231,"city":"Lille"},{"name":"Pisch Boutique","lat":"47.21925920","long":"-1.55517230","store_key":6248,"city":"Nantes"},{"name":"shellacrecords","lat":"48.68790490","long":"6.18335600","store_key":6322,"city":"Nancy"},{"name":"Le Collectionneur - Restaurant Vitrolles","lat":"43.46012670","long":"5.24908240","store_key":6338,"city":"Vitrolles"},{"name":"Bigwax Records","lat":"48.86708110","long":"2.37532370","store_key":6355,"city":"Paris"},{"name":"BARNEY'S GROOVES Record Shop - Vernon","lat":"49.09268610","long":"1.48625080","store_key":6368,"city":"Vernon"},{"name":"Dizonord","lat":"48.89518560","long":"2.34192740","store_key":6384,"city":"Paris"},{"name":"Bébé Vinyle","lat":"47.65217790","long":"-2.08668050","store_key":6431,"city":"Redon"},{"name":"Blow Up","lat":"43.53113780","long":"5.44977370","store_key":6438,"city":"Aix-en-Provence"},{"name":"LP-vinyle","lat":"50.10861160","long":"1.83829800","store_key":6439,"city":"Abbeville"},{"name":"Bobun","lat":"48.83946890","long":"2.38165840","store_key":6460,"city":"Paris"},{"name":"Comics Manga Disques Vinyles","lat":"49.44067228","long":"1.09101790","store_key":6465,"city":"Rouen"},{"name":"La voie du Silence","lat":"48.84613419","long":"2.30212593","store_key":6539,"city":"Paris"},{"name":"Paris Jazz Corner","lat":"48.84430060","long":"2.35349870","store_key":6543,"city":"Paris"},{"name":"Librairie GILDA","lat":"48.86036301","long":"2.34560108","store_key":6544,"city":"Paris"},{"name":"On The Ground","lat":"48.90224838","long":"2.34198999","store_key":6545,"city":"Paris"},{"name":"KS Music","lat":"48.90221024","long":"2.34198999","store_key":6546,"city":"Paris"},{"name":"Diabolo Menthe","lat":"44.83844150","long":"-0.57560810","store_key":6562,"city":"Bordeaux"},{"name":"Vinyl Kafé \"L'Eden Rock\"","lat":"43.89272690","long":"-0.50259602","store_key":6573,"city":"Mont-de-Marsan"},{"name":"Rupture Record Store","lat":"48.87445068","long":"2.35648894","store_key":6579,"city":"Paris"},{"name":"Bookoff","lat":"48.86899185","long":"2.33534288","store_key":1250,"city":"Paris"},{"name":"Vinyle & Hifi Vintage","lat":"49.39536280","long":"2.78794030","store_key":6594,"city":"Compiègne"},{"name":"Citeaux Sphere","lat":"48.85001300","long":"2.38111460","store_key":6666,"city":"Paris"},{"name":"Broc Culture","lat":"45.89266700","long":"3.11323230","store_key":6689,"city":"Riom"},{"name":"Spartacus","lat":"43.42920560","long":"5.38425840","store_key":6690,"city":"Cabriès"},{"name":"Planet'R","lat":"49.11474991","long":"-1.09007800","store_key":6697,"city":"Saint-Lô"},{"name":"Freedvd.fr - Le cinquième disque","lat":"48.84351360","long":"2.34955090","store_key":6699,"city":"Paris"},{"name":"FNAC Lille","lat":"50.63584180","long":"3.06489580","store_key":6700,"city":"Lille"},{"name":"Espace Culturel  E.Leclerc","lat":"48.28353960","long":"-3.56234670","store_key":6703,"city":"Carhaix-Plouguer"},{"name":"Le Discopathe","lat":"43.60835180","long":"3.87116620","store_key":6711,"city":"Montpellier"},{"name":"HiFi Store Paris","lat":"48.89235050","long":"2.34955910","store_key":6722,"city":"Paris"},{"name":"Fnac","lat":"48.87906290","long":"2.29486770","store_key":872,"city":"Paris"},{"name":"Syncrophone Records","lat":"48.85381140","long":"2.37558020","store_key":6741,"city":"Paris"},{"name":"La Dame Blanche Record Shop","lat":"48.84696030","long":"2.34809160","store_key":6756,"city":"Paris"},{"name":"Music Factory","lat":"47.68555069","long":"-0.87260598","store_key":6769,"city":"Segré"},{"name":"Music Fear Satan","lat":"48.85439150","long":"2.38260940","store_key":6773,"city":"Paris"},{"name":"InnerDisc","lat":"43.59883990","long":"1.43195760","store_key":6828,"city":"Toulouse"},{"name":"Le Rideau de Fer","lat":"48.88583700","long":"2.34628940","store_key":6835,"city":"Paris"},{"name":"Crazy Rhythm","lat":"43.70087814","long":"7.27019310","store_key":6858,"city":"Nice"},{"name":"Paul Émile Vinyls","lat":"43.60155990","long":"1.44265740","store_key":6859,"city":"Toulouse"},{"name":"Collectors Boutique","lat":"50.63846060","long":"3.10112190","store_key":6879,"city":"Mons-en-Barœul"},{"name":"Exodisc","lat":"48.89166641","long":"2.34397411","store_key":6884,"city":"Paris"},{"name":"10 K 7","lat":"50.70009613","long":"3.18067193","store_key":6919,"city":"Roubaix"},{"name":"Ciel Rouge","lat":"47.32459641","long":"5.04475212","store_key":6946,"city":"Dijon"},{"name":"Retro Music Shop","lat":"50.71663200","long":"3.17670770","store_key":6960,"city":"Tourcoing"},{"name":"Cultura","lat":"44.79192670","long":"-0.52880390","store_key":561,"city":"Bègles"},{"name":"Editions Actes Sud","lat":"43.67856216","long":"4.62490320","store_key":7026,"city":"Arles"},{"name":"Trou Noir Disques","lat":"43.83862260","long":"4.35991890","store_key":7033,"city":"Nîmes"},{"name":"Furet du Nord","lat":"50.63032990","long":"2.96933960","store_key":6231,"city":"Englos"},{"name":"STUDIO RECORD","lat":"50.94768970","long":"1.85344160","store_key":7043,"city":"Calais"},{"name":"Fnac","lat":"48.89219960","long":"2.23986250","store_key":872,"city":"La Défense"},{"name":"79 Tours","lat":"46.32590750","long":"-0.46435840","store_key":7064,"city":"Niort"},{"name":"Original Watts","lat":"45.76911545","long":"4.83249092","store_key":7080,"city":"Lyon"},{"name":"Les Kiosques","lat":"43.12462800","long":"5.93010600","store_key":7177,"city":"Toulon"},{"name":"Le Grand Cercle","lat":"49.03145730","long":"2.10251540","store_key":7189,"city":"Éragny"},{"name":"Tête de Chou","lat":"48.11076500","long":"-1.67187730","store_key":7222,"city":"Rennes"},{"name":"Tiki Shop St Jean de Luz","lat":"43.39000070","long":"-1.66007180","store_key":7263,"city":"Saint-Jean-de-Luz"},{"name":"L‘ombre de Mars","lat":"43.29264990","long":"5.38477360","store_key":7269,"city":"Marseille"},{"name":"Le Roy Lire, the medieval library","lat":"48.56313880","long":"3.28655980","store_key":7287,"city":"Provins"},{"name":"Total Heaven","lat":"44.83213806","long":"-0.57203501","store_key":7309,"city":"Bordeaux"},{"name":"Madison Tours","lat":"47.39604568","long":"0.69279599","store_key":7310,"city":"Tours"},{"name":"Rockin' Bones","lat":"48.11419296","long":"-1.67962301","store_key":7320,"city":"Rennes"},{"name":"Vinyl Office","lat":"48.85141754","long":"2.37852502","store_key":7321,"city":"Paris"},{"name":"L'Oreille KC","lat":"48.39580917","long":"-4.47859716","store_key":7322,"city":"Brest"},{"name":"CD-BD","lat":"47.47130585","long":"-0.55412400","store_key":7323,"city":"Angers"},{"name":"Disc' Ayres","lat":"44.83689499","long":"-0.57462102","store_key":7330,"city":"Bordeaux"},{"name":"Black and Blue","lat":"43.61183720","long":"3.87821780","store_key":7331,"city":"Montpellier"},{"name":"Gibert Joseph Toulouse","lat":"43.60553360","long":"1.44188905","store_key":7332,"city":"Toulouse"},{"name":"Gibert Joseph Lyon","lat":"45.75762520","long":"4.83498190","store_key":7391,"city":"Lyon"},{"name":"O'CD","lat":"50.63476944","long":"3.06530595","store_key":993,"city":"Lille"},{"name":"The Sounds Of Music","lat":"45.75908279","long":"4.82595682","store_key":7395,"city":"Lyon"},{"name":"La Violetera","lat":"48.87640762","long":"2.34733510","store_key":7399,"city":"Paris"},{"name":"Sofa Records","lat":"45.76720047","long":"4.83053923","store_key":7407,"city":"Lyon"},{"name":"Chacuterie","lat":"44.83289719","long":"-0.56371999","store_key":7511,"city":"Bordeaux"},{"name":"Livity Records","lat":"45.76680140","long":"4.82798080","store_key":7512,"city":"Lyon"},{"name":"Librairie Micita","lat":"44.83579900","long":"-0.57206300","store_key":7513,"city":"Bordeaux"},{"name":"Maquis Mega Store","lat":"48.86607361","long":"2.35072589","store_key":7521,"city":"Paris"},{"name":"Adipocere Records","lat":"46.20397949","long":"5.22647190","store_key":7522,"city":"Bourg-en-Bresse"},{"name":"L'Ivre Livre","lat":"42.96515656","long":"1.60615098","store_key":7523,"city":"Foix"},{"name":"Wood Records","lat":"47.21184880","long":"-1.55213840","store_key":7529,"city":"Nantes"},{"name":"Agbara Records","lat":"45.00958750","long":"1.09860700","store_key":7565,"city":"Saint-Léon-sur-Vézère"},{"name":"Vinyl Shop","lat":"48.39410782","long":"-4.48145914","store_key":2480,"city":"Brest"},{"name":"44 Tours","lat":"47.20533360","long":"-1.55559770","store_key":7651,"city":"Nantes"},{"name":"Modulor Records","lat":"48.86818150","long":"2.40395010","store_key":7652,"city":"Paris"},{"name":"Walli.One.Records","lat":"47.81406190","long":"-3.63246990","store_key":7657,"city":"Moëlan-sur-Mer"},{"name":"Vinyles Store","lat":"48.00376000","long":"0.19860600","store_key":7674,"city":"Le Mans"}]