[{"name":"Container Records","lat":"51.46362020","long":"-0.11241710","store_key":7,"city":"London"},{"name":"Resolution Records","lat":"51.38140390","long":"-2.36678930","store_key":10,"city":"Bath"},{"name":"Rose Red Records","lat":"50.72654640","long":"-1.84054930","store_key":11,"city":"Bournemouth"},{"name":"Music Nostalgia","lat":"50.26285170","long":"-5.04982500","store_key":12,"city":"Truro"},{"name":"hmv","lat":"53.19029880","long":"-2.88894230","store_key":14,"city":"Chester"},{"name":"hmv","lat":"57.14564060","long":"-2.10139540","store_key":14,"city":"Aberdeen"},{"name":"hmv","lat":"52.04246880","long":"-0.75788910","store_key":14,"city":"Milton Keynes"},{"name":"Vintage & Vinyl","lat":"51.08043289","long":"1.18409204","store_key":15,"city":"Folkestone"},{"name":"Beat Route","lat":"52.63507342","long":"-1.13444060","store_key":16,"city":"Leicester"},{"name":"Project Vinyl","lat":"51.41870880","long":"-0.08154900","store_key":42,"city":"London"},{"name":"KCC Vinyl Record Store","lat":"56.11282600","long":"-3.15508850","store_key":43,"city":"Kirkcaldy"},{"name":"Octopus's Garden - Vintage Clothing, Records and CD's","lat":"54.59646606","long":"-5.93292284","store_key":58,"city":"Belfast"},{"name":"Wrecking Ball","lat":"53.74201390","long":"-0.33935140","store_key":60,"city":"Hull"},{"name":"Double Double Good Music Emporium Record Store","lat":"52.80512800","long":"-2.11792590","store_key":65,"city":"Stafford"},{"name":"Good Times","lat":"52.60775870","long":"1.73466030","store_key":72,"city":"Great Yarmouth"},{"name":"Reflex Records","lat":"50.78638150","long":"-1.08750530","store_key":76,"city":"Portsmouth"},{"name":"Freemens Common Antiques Centre","lat":"52.61957670","long":"-1.13259560","store_key":84,"city":"Leicester"},{"name":"Dig At The Dock","lat":"53.40006600","long":"-2.99369010","store_key":87,"city":"Liverpool"},{"name":"Le Freak Records","lat":"56.45619670","long":"-2.99275050","store_key":114,"city":"Dundee"},{"name":"Rainy Days","lat":"50.73130538","long":"-1.16221510","store_key":115,"city":"Ryde"},{"name":"Dr. Vinyl","lat":"51.42891290","long":"-0.16633270","store_key":119,"city":"London"},{"name":"Music Mania","lat":"51.79010460","long":"1.15448480","store_key":153,"city":"Clacton-on-Sea"},{"name":"Decktronix","lat":"51.38340400","long":"0.51591300","store_key":161,"city":"Rochester"},{"name":"Go Discs","lat":"50.83274170","long":"-0.27228610","store_key":162,"city":"Shoreham-by-Sea"},{"name":"Rocking Revolutions","lat":"51.96883279","long":"-0.43437217","store_key":163,"city":"Bedford"},{"name":"Music & Video Exchange","lat":"51.48114014","long":"-0.00996300","store_key":164,"city":"London"},{"name":"Rough Trade West","lat":"51.51608658","long":"-0.20452100","store_key":165,"city":"London"},{"name":"Kingbee Records","lat":"53.44237137","long":"-2.27143598","store_key":169,"city":"Manchester"},{"name":"Jumbo Records","lat":"53.80099690","long":"-1.54360100","store_key":178,"city":"Leeds"},{"name":"Flashback Records","lat":"51.57807159","long":"-0.12357400","store_key":179,"city":"London"},{"name":"The Sound Machine","lat":"51.45713806","long":"-0.97161603","store_key":187,"city":"Reading"},{"name":"Gatefield Sounds","lat":"51.35855865","long":"1.02445900","store_key":199,"city":"Whitstable"},{"name":"Union Music Store","lat":"50.87193890","long":"0.01275830","store_key":204,"city":"Lewes"},{"name":"Love Music","lat":"55.86267471","long":"-4.25191689","store_key":212,"city":"Glasgow"},{"name":"Canterbury Rock","lat":"51.28435750","long":"1.07048890","store_key":214,"city":"Canterbury"},{"name":"Circular Sound","lat":"52.63084412","long":"1.29105902","store_key":221,"city":"Norwich"},{"name":"Earworm Records","lat":"53.96145630","long":"-1.07970500","store_key":233,"city":"York"},{"name":"Mare's Nest Music, Row A, No34, Norwich Market","lat":"52.62833786","long":"1.29272294","store_key":251,"city":"Norwich"},{"name":"Record Junkee","lat":"53.37596230","long":"-1.47260100","store_key":258,"city":"Sheffield"},{"name":"If Music","lat":"51.51463130","long":"-0.13630290","store_key":273,"city":"London"},{"name":"Groucho's Record Store","lat":"56.45809174","long":"-2.97394896","store_key":315,"city":"Dundee"},{"name":"Rob's Record Mart","lat":"52.95444489","long":"-1.15252304","store_key":343,"city":"Nottingham"},{"name":"Sounds That Swing","lat":"51.53754250","long":"-0.14541950","store_key":352,"city":"London"},{"name":"Sound Knowledge","lat":"51.41975610","long":"-1.73275510","store_key":356,"city":"Marlborough"},{"name":"West Quay Records","lat":"51.12948608","long":"-3.00177908","store_key":365,"city":"Bridgwater"},{"name":"Eldica","lat":"51.54867940","long":"-0.07642160","store_key":375,"city":"London"},{"name":"Fine City Sounds","lat":"52.62999730","long":"1.29128360","store_key":382,"city":"Norwich"},{"name":"Palais de Danse","lat":"55.86494700","long":"-4.25762400","store_key":415,"city":"Glasgow"},{"name":"Idle Hands Records","lat":"51.46244812","long":"-2.58871007","store_key":416,"city":"Bristol"},{"name":"Whizzy Wallop Vinyl","lat":"52.09374990","long":"1.31974290","store_key":424,"city":"Woodbridge"},{"name":"Retro Revolution","lat":"52.67157745","long":"-1.93395698","store_key":438,"city":"Burntwood"},{"name":"Hi-Tackle","lat":"53.49021149","long":"-2.24944496","store_key":439,"city":"Manchester"},{"name":"Blackcat Records","lat":"51.02259620","long":"-3.10698710","store_key":444,"city":"Taunton"},{"name":"Revolution Records & Vapes","lat":"52.58573540","long":"-1.98387970","store_key":453,"city":"Walsall"},{"name":"Out Of Joint Records","lat":"52.63524250","long":"-1.13483360","store_key":457,"city":"Leicester"},{"name":"Specialist Subject Records","lat":"51.45557950","long":"-2.58278960","store_key":458,"city":"Bristol"},{"name":"Warren Record Store","lat":"53.74590220","long":"-0.33457050","store_key":482,"city":"Hull"},{"name":"Rough Trade Nottingham","lat":"52.95391083","long":"-1.14401305","store_key":493,"city":"Nottingham"},{"name":"The Record Shop","lat":"50.83978271","long":"0.47000301","store_key":495,"city":"Bexhill-on-Sea"},{"name":"Ignite Records (Level 2)","lat":"52.48141861","long":"-1.89464605","store_key":496,"city":"Birmingham"},{"name":"Eds Attic Records","lat":"51.57272720","long":"-3.22054410","store_key":498,"city":"Caerphilly"},{"name":"hmv","lat":"52.40862980","long":"-1.51330270","store_key":14,"city":"Coventry"},{"name":"hmv","lat":"53.40399920","long":"-2.98711140","store_key":14,"city":"Liverpool"},{"name":"Oxfam","lat":"52.15251890","long":"-0.70264420","store_key":500,"city":"Olney"},{"name":"Oxfam Shop","lat":"51.75413510","long":"-1.25717620","store_key":501,"city":"Oxford"},{"name":"Vinyl Head Record Shop","lat":"51.33160330","long":"1.41389050","store_key":502,"city":"Ramsgate"},{"name":"Backtrack Records","lat":"51.63195801","long":"-3.65894198","store_key":504,"city":"Maesteg"},{"name":"Leigh Record Exchange","lat":"51.54763031","long":"0.63720202","store_key":505,"city":"Southend-on-Sea"},{"name":"Tribe Records","lat":"53.79623970","long":"-1.53858850","store_key":528,"city":"Leeds"},{"name":"BPM Records","lat":"52.92328420","long":"-1.47963050","store_key":530,"city":"Derby"},{"name":"Long Play Caf√©","lat":"54.96841200","long":"-1.60875070","store_key":537,"city":"Newcastle upon Tyne"},{"name":"Vinyl Matters","lat":"51.00534030","long":"-0.93808170","store_key":538,"city":"Petersfield"},{"name":"Timeslip Records","lat":"54.58794785","long":"-5.93267107","store_key":557,"city":"Belfast"},{"name":"Northern Rocks Vintage Vinyl","lat":"54.67994150","long":"-1.21989630","store_key":566,"city":"Hartlepool"},{"name":"Overdraft Records","lat":"50.91936830","long":"-1.42936530","store_key":570,"city":"Southampton"},{"name":"Record Culture","lat":"52.45676420","long":"-2.14773850","store_key":585,"city":"Stourbridge"},{"name":"Out of the Attic Music","lat":"53.74378250","long":"-0.34204500","store_key":586,"city":"Hull"},{"name":"Cob Records","lat":"52.92453384","long":"-4.12650919","store_key":594,"city":"Porthmadog"},{"name":"Grey n Pink Records","lat":"53.19492722","long":"-2.88634205","store_key":595,"city":"Chester"},{"name":"Alan's Records","lat":"51.59330370","long":"-0.16699600","store_key":603,"city":"London"},{"name":"Eastern Bloc","lat":"53.48281180","long":"-2.23384960","store_key":604,"city":"Manchester"},{"name":"Clampdown Records","lat":"53.48014832","long":"-2.23311210","store_key":612,"city":"Manchester"},{"name":"X Records","lat":"53.58132935","long":"-2.42852902","store_key":613,"city":"Bolton"},{"name":"Reflex","lat":"54.97222900","long":"-1.61496699","store_key":629,"city":"Newcastle upon Tyne"},{"name":"Astonishing Sounds","lat":"53.78954315","long":"-2.24066210","store_key":641,"city":"Burnley"},{"name":"Convoy Records","lat":"53.27646100","long":"-2.69827720","store_key":667,"city":"Frodsham"},{"name":"Dig Vinyl","lat":"53.40375530","long":"-2.97929840","store_key":672,"city":"Liverpool"},{"name":"The Jacaranda","lat":"53.40240500","long":"-2.97957500","store_key":680,"city":"Liverpool"},{"name":"backtrax music","lat":"53.14457703","long":"-2.36318207","store_key":692,"city":"Sandbach"},{"name":"Mike's Record Shop unit 29-31","lat":"51.58855370","long":"-0.00442190","store_key":693,"city":"London"},{"name":"Here's Julie's the Vinyl Years","lat":"50.11866379","long":"-5.53867102","store_key":711,"city":"Penzance"},{"name":"Kellys Records","lat":"51.47993851","long":"-3.17880988","store_key":723,"city":"Cardiff"},{"name":"Super Marche","lat":"54.04820380","long":"-2.80250200","store_key":734,"city":"Lancaster"},{"name":"Visual Vinyl","lat":"52.39516300","long":"-1.43122740","store_key":750,"city":"Coventry"},{"name":"Entertainment World","lat":"52.46436710","long":"-1.77593000","store_key":771,"city":"Birmingham"},{"name":"Groove Records","lat":"53.02281120","long":"-1.48216470","store_key":798,"city":"Belper"},{"name":"Terminal Records","lat":"51.80263901","long":"-4.96023989","store_key":806,"city":"Haverfordwest"},{"name":"Middle Floor Records","lat":"50.82798050","long":"-0.13586120","store_key":813,"city":"Brighton"},{"name":"Lost In Music","lat":"50.21458054","long":"-5.29565287","store_key":814,"city":"Camborne"},{"name":"hmv","lat":"55.88440790","long":"-3.51253170","store_key":14,"city":"Livingston"},{"name":"hmv","lat":"54.59942240","long":"-5.92939310","store_key":14,"city":"Belfast"},{"name":"hmv","lat":"53.02818160","long":"-2.17624770","store_key":14,"city":"Stoke-on-Trent"},{"name":"hmv","lat":"51.89984290","long":"-2.07434530","store_key":14,"city":"Cheltenham"},{"name":"Moonlight","lat":"53.04353714","long":"-2.99533510","store_key":816,"city":"Wrexham"},{"name":"Unearthed Sounds","lat":"50.73559189","long":"-2.02338004","store_key":817,"city":"Poole"},{"name":"White Label Records","lat":"49.18263626","long":"-2.10138988","store_key":128,"city":"Saint Helier"},{"name":"Modus","lat":"53.02850920","long":"-1.48647590","store_key":835,"city":"Belper"},{"name":"Music Man","lat":"51.45525380","long":"-0.98624040","store_key":843,"city":"Reading"},{"name":"Maidinvinyl Quality Records","lat":"57.14761590","long":"-2.10671640","store_key":853,"city":"Aberdeen"},{"name":"Sound Preservation Society Records","lat":"50.54654460","long":"-3.49732520","store_key":855,"city":"Teignmouth"},{"name":"Loud & Clear Edinburgh","lat":"55.97718350","long":"-3.17372820","store_key":860,"city":"Edinburgh"},{"name":"Retrospect Records","lat":"51.55106950","long":"-0.07342280","store_key":879,"city":"London"},{"name":"St Helena Hospice Music Shop","lat":"51.83340550","long":"1.24519410","store_key":881,"city":"Frinton-on-Sea"},{"name":"Room 33 Records","lat":"50.47125430","long":"-4.72099800","store_key":890,"city":"Bodmin"},{"name":"Elvis Shakespeare","lat":"55.96428680","long":"-3.17698002","store_key":899,"city":"Edinburgh"},{"name":"Troutmark","lat":"51.58386612","long":"-2.99313402","store_key":907,"city":"Newport"},{"name":"Second Scene","lat":"51.64225006","long":"-0.38219401","store_key":914,"city":"Watford"},{"name":"Psychamok Records","lat":"53.41826248","long":"-3.04100394","store_key":929,"city":"Liverpool"},{"name":"Empire Records","lat":"51.75094930","long":"-0.34156780","store_key":942,"city":"St Albans"},{"name":"Vinyl Planet","lat":"53.26071520","long":"-2.13207310","store_key":971,"city":"Macclesfield"},{"name":"Vinyl Resting Place","lat":"53.48251780","long":"-2.23619690","store_key":973,"city":"Manchester"},{"name":"We Buy Vinyl Records Mansfield Notts","lat":"53.14376780","long":"-1.19265730","store_key":984,"city":"Mansfield"},{"name":"Just the Sound","lat":"54.84555640","long":"-1.47195390","store_key":1014,"city":"Houghton le Spring"},{"name":"Revolution Records","lat":"51.91169790","long":"-0.20785870","store_key":671,"city":"Stevenage"},{"name":"Stuart Duckett Design Store","lat":"54.48803530","long":"-0.61799980","store_key":1027,"city":"Whitby"},{"name":"The Music Box","lat":"52.66207800","long":"0.16369700","store_key":1037,"city":"Wisbech"},{"name":"Beyond Vinyl","lat":"54.97047690","long":"-1.61926330","store_key":1041,"city":"Newcastle upon Tyne"},{"name":"Vinyl Fixx","lat":"53.79340490","long":"-1.59485940","store_key":1056,"city":"Leeds"},{"name":"Sound and Vision Express Ltd","lat":"51.88389620","long":"-2.07685470","store_key":1073,"city":"Cheltenham"},{"name":"S T Records","lat":"52.51154480","long":"-2.09146620","store_key":1086,"city":"Dudley"},{"name":"CLIC Sargent charity shop","lat":"51.46392441","long":"-2.60787797","store_key":1093,"city":"Bristol"},{"name":"hmv","lat":"52.05865380","long":"1.15396880","store_key":14,"city":"Ipswich"},{"name":"hmv","lat":"51.53912730","long":"0.71295560","store_key":14,"city":"Southend-on-Sea"},{"name":"hmv","lat":"51.76897540","long":"0.09277580","store_key":14,"city":"Harlow"},{"name":"hmv","lat":"54.64310320","long":"-3.54497720","store_key":14,"city":"Workington"},{"name":"hmv","lat":"50.94187546","long":"-2.62980509","store_key":14,"city":"Yeovil"},{"name":"Backtracks Music & Games","lat":"55.94343290","long":"-3.20294800","store_key":1095,"city":"Edinburgh"},{"name":"Vinyl Boutique Record Store","lat":"51.53755188","long":"-0.14542200","store_key":1096,"city":"London"},{"name":"Cruisin Records","lat":"51.46229553","long":"0.10817900","store_key":1097,"city":"Welling"},{"name":"Badlands","lat":"51.90224457","long":"-2.07772398","store_key":1118,"city":"Cheltenham"},{"name":"Creekside Vinyl","lat":"51.31541450","long":"0.89166930","store_key":1137,"city":"Faversham"},{"name":"Cavern Record Shop","lat":"57.14644280","long":"-2.10135700","store_key":1148,"city":"Aberdeen"},{"name":"PK Music Exchange","lat":"51.47150040","long":"-2.59237790","store_key":1185,"city":"Bristol"},{"name":"Vinyl Pimp","lat":"51.54428101","long":"-0.02623700","store_key":1195,"city":"London"},{"name":"Kaleidoscope","lat":"53.45356070","long":"-2.74007710","store_key":1198,"city":"Saint Helens"},{"name":"Scene & Heard","lat":"50.54639435","long":"-3.49794793","store_key":1204,"city":"Teignmouth"},{"name":"Record Collector","lat":"53.37734820","long":"-1.50112340","store_key":1209,"city":"Sheffield"},{"name":"Derrick's Music","lat":"51.61897278","long":"-3.94860101","store_key":1214,"city":"Swansea"},{"name":"Rye Wax","lat":"51.46991300","long":"-0.06749640","store_key":1243,"city":"London"},{"name":"The Vinyl Frontier","lat":"50.76793289","long":"0.27913100","store_key":1248,"city":"Eastbourne"},{"name":"Sounds OK","lat":"50.15216446","long":"-5.06598377","store_key":1300,"city":"Falmouth"},{"name":"Sounds Of The Suburbs","lat":"51.57073593","long":"-0.41149199","store_key":1301,"city":"Ruislip"},{"name":"EVIL EYE VINYL Record Shop","lat":"53.99364471","long":"-1.54360402","store_key":1311,"city":"Harrogate"},{"name":"Bob's Records","lat":"52.55747000","long":"-0.13024510","store_key":448,"city":"Peterborough"},{"name":"Ransom Note Records","lat":"51.55170660","long":"0.02967110","store_key":1333,"city":"London"},{"name":"Retro! Records and toys","lat":"52.75171650","long":"0.39666620","store_key":1339,"city":"King's Lynn"},{"name":"Vinyl and Valves Records","lat":"52.44912210","long":"-1.77866400","store_key":1352,"city":"Birmingham"},{"name":"Shed Load Of Vinyl","lat":"53.87491310","long":"-1.71077570","store_key":1364,"city":"Leeds"},{"name":"Smugglers Records","lat":"54.08544540","long":"-0.18676700","store_key":1380,"city":"Bridlington"},{"name":"Phoenix Sound","lat":"50.53071976","long":"-3.60933709","store_key":1381,"city":"Newton Abbot"},{"name":"hmv","lat":"51.73308070","long":"0.47284310","store_key":14,"city":"Chelmsford"},{"name":"hmv","lat":"51.57749950","long":"0.18342130","store_key":14,"city":"Romford"},{"name":"hmv","lat":"51.45439550","long":"-0.97095070","store_key":14,"city":"Reading"},{"name":"hmv","lat":"53.48318790","long":"-2.24172910","store_key":14,"city":"Manchester"},{"name":"hmv","lat":"53.56642532","long":"-0.08726200","store_key":14,"city":"Grimsby"},{"name":"hmv","lat":"53.99282180","long":"-1.53910630","store_key":14,"city":"Harrogate"},{"name":"586 Records","lat":"54.97363281","long":"-1.61135900","store_key":1402,"city":"Newcastle upon Tyne"},{"name":"Soul Proprietors","lat":"51.44954681","long":"-0.11790300","store_key":1411,"city":"London"},{"name":"Rock 'n' Roll Soldiers","lat":"51.54157460","long":"-0.14756210","store_key":1422,"city":"London"},{"name":"BLUE GROOVE SOUNDZ","lat":"51.51856210","long":"-0.20735180","store_key":1427,"city":"London"},{"name":"Kelham Island Books + Music","lat":"53.38816620","long":"-1.47545090","store_key":1435,"city":"Sheffield"},{"name":"Retro Vinyl Records Liverpool","lat":"53.42063920","long":"-2.94910490","store_key":1444,"city":"Liverpool"},{"name":"Crypt Of The Wizard","lat":"51.53084860","long":"-0.06898310","store_key":1454,"city":"London"},{"name":"Undercover Records","lat":"51.43842000","long":"-0.12744590","store_key":1466,"city":"London"},{"name":"Plymouth Vintage Vinyl","lat":"50.38778305","long":"-4.05047798","store_key":1467,"city":"Plymouth"},{"name":"Clocktower Music","lat":"50.73200490","long":"-2.76176410","store_key":1484,"city":"Bridport"},{"name":"Vintique Ltd","lat":"52.23105621","long":"-1.08102405","store_key":1486,"city":"Northampton"},{"name":"Collectors Records Centre","lat":"51.23801041","long":"-0.57535398","store_key":1487,"city":"Guildford"},{"name":"The Vintage Emporium Stockport","lat":"53.41406180","long":"-2.13367010","store_key":1508,"city":"Bredbury"},{"name":"Nothing Ventured Vinyl","lat":"50.78655750","long":"-1.07395940","store_key":1520,"city":"Portsmouth"},{"name":"Rotation Records","lat":"50.82191560","long":"-0.15313310","store_key":1521,"city":"Brighton"},{"name":"Yo Yo Records London","lat":"51.53107980","long":"-0.06674962","store_key":1523,"city":"London"},{"name":"Retrorama at Tarmount","lat":"50.83284630","long":"-0.27318320","store_key":1531,"city":"Shoreham-by-Sea"},{"name":"Probe Records","lat":"53.40444946","long":"-2.98408794","store_key":1543,"city":"Liverpool"},{"name":"Betterdaze","lat":"54.33880615","long":"-1.43263400","store_key":1544,"city":"Northallerton"},{"name":"Archive Records","lat":"51.37289810","long":"-0.48385200","store_key":1574,"city":"Addlestone"},{"name":"Norman Records","lat":"53.78849792","long":"-1.56568301","store_key":1577,"city":"Leeds"},{"name":"Square Records","lat":"50.79877620","long":"-1.98700350","store_key":1578,"city":"Wimborne Minster"},{"name":"Replay Records","lat":"53.57287979","long":"-0.07346400","store_key":1589,"city":"Grimsby"},{"name":"Rapture","lat":"51.78497240","long":"-1.48483850","store_key":1606,"city":"Witney"},{"name":"TWO TWELVE TENS","lat":"51.54016100","long":"0.70625680","store_key":1700,"city":"Southend-on-Sea"},{"name":"Aberdeen Vinyl Records","lat":"57.14638820","long":"-2.09737470","store_key":1712,"city":"Aberdeen"},{"name":"Digbeth Records","lat":"52.47538130","long":"-1.88260030","store_key":1730,"city":"Birmingham"},{"name":"Cigarette Records","lat":"51.41854780","long":"-0.01882840","store_key":1739,"city":"London"},{"name":"Plastic Wax Records","lat":"51.46973801","long":"-2.59329796","store_key":1751,"city":"Bristol"},{"name":"VoxBox Music","lat":"55.95770264","long":"-3.20719910","store_key":1764,"city":"Edinburgh"},{"name":"Rooster Records","lat":"50.72155730","long":"-3.53381470","store_key":1770,"city":"Exeter"},{"name":"Soul Brother Records","lat":"51.45872116","long":"-0.20941000","store_key":1773,"city":"London"},{"name":"B Side The C Side","lat":"51.37131119","long":"1.13001204","store_key":1793,"city":"Herne Bay"},{"name":"Maverick Records","lat":"53.24071503","long":"-1.42007601","store_key":1828,"city":"Chesterfield"},{"name":"Aintree Vinyl Records","lat":"53.46818160","long":"-2.95565650","store_key":1829,"city":"Liverpool"},{"name":"Back To Mono","lat":"53.22934000","long":"-0.54080500","store_key":1869,"city":"Lincoln"},{"name":"Massive International","lat":"51.54129410","long":"-0.14621000","store_key":1884,"city":"London"},{"name":"Presto Music","lat":"52.29169700","long":"-1.53331800","store_key":1895,"city":"Leamington Spa"},{"name":"Visual Vinyl","lat":"52.14153240","long":"-0.99687110","store_key":750,"city":"Towcester"},{"name":"Dead Wax Social","lat":"50.82414950","long":"-0.14009810","store_key":1905,"city":"Brighton"},{"name":"SK1 RECORDS","lat":"53.41107260","long":"-2.15721230","store_key":1906,"city":"Stockport"},{"name":"Vintage Corner at Number 5","lat":"51.06935740","long":"-1.79280870","store_key":1915,"city":"Salisbury"},{"name":"East London Vinyl","lat":"51.59374370","long":"0.02490950","store_key":1917,"city":"London"},{"name":"Hip City Records","lat":"51.62331340","long":"0.56957750","store_key":1922,"city":"Wickford"},{"name":"Gordon's Records & Collectables","lat":"52.90651980","long":"-0.64025070","store_key":1924,"city":"Grantham"},{"name":"Circles Records","lat":"51.59071960","long":"-0.14389590","store_key":1933,"city":"London"},{"name":"RPM - Reaching People Through Music","lat":"51.34079180","long":"0.73212510","store_key":1944,"city":"Sittingbourne"},{"name":"Kristina Records","lat":"51.54391620","long":"-0.04691800","store_key":1966,"city":"London"},{"name":"Jam","lat":"50.15689850","long":"-5.07143879","store_key":2001,"city":"Falmouth"},{"name":"hmv","lat":"52.91880490","long":"-1.47325490","store_key":14,"city":"Derby"},{"name":"Soundz","lat":"50.78677750","long":"-1.07927406","store_key":2006,"city":"Portsmouth"},{"name":"Brill","lat":"51.52581787","long":"-0.10948300","store_key":2007,"city":"London"},{"name":"Concorde Music Shop","lat":"56.39623260","long":"-3.43259597","store_key":2026,"city":"Perth"},{"name":"Noiseisforheroes","lat":"53.80112590","long":"-1.55310850","store_key":2036,"city":"Leeds"},{"name":"Vinyl Vanguard London","lat":"51.58058990","long":"-0.03240480","store_key":2038,"city":"London"},{"name":"Beyond the Download","lat":"51.41084960","long":"-0.83369690","store_key":2043,"city":"Wokingham"},{"name":"Mr Bongo","lat":"50.82679367","long":"-0.13712201","store_key":2045,"city":"Brighton"},{"name":"Universal Roots Records","lat":"51.46203613","long":"-0.11492800","store_key":2047,"city":"London"},{"name":"Collector Cave UK","lat":"51.46127720","long":"-2.59122810","store_key":2051,"city":"Bristol"},{"name":"Vanishing Point Records","lat":"53.23479300","long":"-1.42738650","store_key":2074,"city":"Chesterfield"},{"name":"Flow And Ebb","lat":"55.23663860","long":"-4.85574950","store_key":2076,"city":"Girvan"},{"name":"Sanctuary Music","lat":"51.69667090","long":"-2.21626240","store_key":2084,"city":"Nailsworth"},{"name":"Spaced Out Records (Shiftys)","lat":"51.12404400","long":"-2.74377500","store_key":2114,"city":"Street"},{"name":"Shaks' Stax of Wax","lat":"51.41067123","long":"-0.29836401","store_key":2150,"city":"London"},{"name":"Sweet Memories Vinyl Records","lat":"50.79914474","long":"-1.07717097","store_key":2151,"city":"Portsmouth"},{"name":"Ed's Vinyl","lat":"50.82924271","long":"-0.13814700","store_key":2152,"city":"Brighton"},{"name":"Record Detective Shop","lat":"51.62340546","long":"-0.10355600","store_key":2155,"city":"London"},{"name":"Sounds Original","lat":"51.49806595","long":"-0.30549800","store_key":2156,"city":"London"},{"name":"Beehive Records","lat":"51.62316513","long":"0.56996298","store_key":2164,"city":"Battlesbridge"},{"name":"Third Eye","lat":"51.28026020","long":"1.07773160","store_key":2175,"city":"Canterbury"},{"name":"Sound & Vision","lat":"50.43684540","long":"-3.56789770","store_key":2186,"city":"Paignton"},{"name":"Transmission Record Shop","lat":"51.38853455","long":"1.39467895","store_key":2222,"city":"Margate"},{"name":"Platform One Records","lat":"50.84124700","long":"0.47021740","store_key":2227,"city":"Bexhill-on-Sea"},{"name":"hmv","lat":"51.26742600","long":"-1.08792170","store_key":14,"city":"Basingstoke"},{"name":"hmv","lat":"51.23706200","long":"-0.57635330","store_key":14,"city":"Guildford"},{"name":"hmv","lat":"51.56085670","long":"-1.78417630","store_key":14,"city":"Swindon"},{"name":"hmv","lat":"51.56897220","long":"0.46075960","store_key":14,"city":"Basildon"},{"name":"hmv","lat":"52.75437200","long":"0.39521900","store_key":14,"city":"King's Lynn"},{"name":"Pebble Records","lat":"50.76827621","long":"0.28167099","store_key":2229,"city":"Eastbourne"},{"name":"Music and Movies Exchange","lat":"53.44989600","long":"-2.08384870","store_key":2230,"city":"Hyde"},{"name":"Walden Records","lat":"52.02468872","long":"0.23722300","store_key":2231,"city":"Saffron Walden"},{"name":"Whizzy Wallop","lat":"52.16817093","long":"1.40168798","store_key":2232,"city":"Marlesford"},{"name":"Black Sofa Records","lat":"53.54214478","long":"-2.10753608","store_key":2245,"city":"Oldham"},{"name":"Ra-Ra Rok Records","lat":"51.53965980","long":"-0.14388220","store_key":2257,"city":"London"},{"name":"Wax and Beans","lat":"53.59154270","long":"-2.29817920","store_key":2262,"city":"Bury"},{"name":"Missing Records","lat":"55.85802560","long":"-4.26000730","store_key":2268,"city":"Glasgow"},{"name":"B Side Records","lat":"51.39751140","long":"-1.32663840","store_key":2273,"city":"Newbury"},{"name":"Eel Pie Records","lat":"51.44682620","long":"-0.32675700","store_key":2282,"city":"London"},{"name":"Wired Records","lat":"52.57834070","long":"-0.25853620","store_key":2288,"city":"Peterborough"},{"name":"Vinyl Junction 42","lat":"53.52172706","long":"-1.39646840","store_key":2294,"city":"Cudworth"},{"name":"Vinyl Realm","lat":"51.35083500","long":"-1.99431900","store_key":2295,"city":"Devizes"},{"name":"The Centre for Better Grooves","lat":"51.47063900","long":"-2.59312070","store_key":2303,"city":"Bristol"},{"name":"Mostly Vinyl Micky","lat":"55.85571830","long":"-4.23819440","store_key":2322,"city":"Glasgow"},{"name":"Cafe Artum","lat":"52.48389590","long":"-1.89278190","store_key":2325,"city":"Birmingham"},{"name":"Sleeve Notes Records","lat":"51.45692840","long":"-0.30307640","store_key":2340,"city":"London"},{"name":"Vinyl Hunter Essex","lat":"51.89317200","long":"0.98042700","store_key":2342,"city":"Colchester"},{"name":"Rough Trade East","lat":"51.52110291","long":"-0.07249300","store_key":2371,"city":"London"},{"name":"Beatniks","lat":"52.63516235","long":"1.29624403","store_key":2408,"city":"Norwich"},{"name":"Out of Time Records","lat":"52.05385208","long":"1.16003895","store_key":2409,"city":"Ipswich"},{"name":"Oxfam","lat":"50.90191130","long":"-1.40382130","store_key":500,"city":"Southampton"},{"name":"Trading Post Records","lat":"51.74499893","long":"-2.21635008","store_key":2417,"city":"Stroud"},{"name":"Dub Merchant","lat":"53.48253632","long":"-2.23609209","store_key":2437,"city":"Manchester"},{"name":"Market Hall Records","lat":"52.19201279","long":"-2.21906209","store_key":2457,"city":"Worcester"},{"name":"101 Records","lat":"51.37527040","long":"-0.10246170","store_key":2466,"city":"London"},{"name":"Vic's Vinyl Records","lat":"51.33111191","long":"-0.77939898","store_key":2477,"city":"Camberley"},{"name":"Vinyl Cafe","lat":"54.89479446","long":"-2.94035292","store_key":499,"city":"Carlisle"},{"name":"Drumbeat Record Shop","lat":"53.64994431","long":"-2.63076591","store_key":2478,"city":"Chorley"},{"name":"hmv","lat":"52.47684380","long":"-1.89519670","store_key":14,"city":"Birmingham"},{"name":"hmv","lat":"53.22717300","long":"-0.54112130","store_key":14,"city":"Lincoln"},{"name":"hmv","lat":"54.97437430","long":"-1.61589950","store_key":14,"city":"Newcastle upon Tyne"},{"name":"hmv","lat":"51.48203170","long":"-3.17651850","store_key":14,"city":"Cardiff"},{"name":"hmv","lat":"53.14462160","long":"-1.19892400","store_key":14,"city":"Mansfield"},{"name":"Skegness Records + Tamla Coffee Bar","lat":"53.13678360","long":"0.34195799","store_key":2479,"city":"Skegness"},{"name":"Revolutions Records","lat":"50.85667010","long":"-2.16081080","store_key":2510,"city":"Blandford Forum"},{"name":"Jelly Bone Records","lat":"55.07049370","long":"-3.61156280","store_key":2512,"city":"Dumfries"},{"name":"Riverman Records","lat":"51.75631630","long":"-1.26327210","store_key":2530,"city":"Oxford"},{"name":"Seismic Records","lat":"52.29170830","long":"-1.53752790","store_key":2538,"city":"Leamington Spa"},{"name":"Music & Video Exchange","lat":"51.50948910","long":"-0.19479080","store_key":164,"city":"London"},{"name":"Spillers Records","lat":"51.47877710","long":"-3.17694780","store_key":2558,"city":"Cardiff"},{"name":"Empire Exchange","lat":"53.48097610","long":"-2.23439288","store_key":2562,"city":"Manchester"},{"name":"Tangled Parrot","lat":"51.85786450","long":"-4.30377140","store_key":2568,"city":"Carmarthen"},{"name":"Soundclash Records","lat":"52.63087082","long":"1.28967404","store_key":2570,"city":"Norwich"},{"name":"Traxx Records","lat":"52.46436310","long":"-1.77585304","store_key":2584,"city":"Birmingham"},{"name":"Revo Records","lat":"53.72155700","long":"-1.85878750","store_key":2597,"city":"Halifax"},{"name":"Carnival Records","lat":"52.11161640","long":"-2.32776500","store_key":2599,"city":"Malvern"},{"name":"Its for You Vinyl & Vintage","lat":"52.58303020","long":"-2.12932580","store_key":2609,"city":"Wolverhampton"},{"name":"Henry's Records","lat":"52.80601501","long":"-1.63920999","store_key":2613,"city":"Burton-on-Trent"},{"name":"Sister Ray","lat":"51.51444520","long":"-0.13580320","store_key":2627,"city":"London"},{"name":"Temple Of Vinyl","lat":"50.82944107","long":"-0.13838600","store_key":2628,"city":"Brighton"},{"name":"Rolling Records","lat":"51.37947780","long":"-0.01466340","store_key":2092,"city":"London"},{"name":"Belfast Underground Records","lat":"54.59818268","long":"-5.93345785","store_key":2637,"city":"Belfast"},{"name":"Otherside","lat":"55.83667620","long":"-4.27004750","store_key":2652,"city":"Glasgow"},{"name":"Beatin Rhythm Records","lat":"53.53176498","long":"-2.28670406","store_key":2654,"city":"Manchester"},{"name":"Another Record Shop","lat":"54.68598970","long":"-1.21990770","store_key":2670,"city":"Hartlepool"},{"name":"RPM","lat":"50.78696300","long":"-1.06360330","store_key":2677,"city":"Portsmouth"},{"name":"Sound Records - Stroud","lat":"51.74503200","long":"-2.21545950","store_key":2692,"city":"Stroud"},{"name":"P&C Music","lat":"53.99778590","long":"-1.52919950","store_key":2711,"city":"Harrogate"},{"name":"Strand Records","lat":"52.98902690","long":"-2.13651670","store_key":2737,"city":"Stoke-on-Trent"},{"name":"Riverside Records","lat":"53.43135520","long":"-1.35809360","store_key":2743,"city":"Rotherham"},{"name":"Tome Records","lat":"51.54655100","long":"-0.05585100","store_key":2745,"city":"London"},{"name":"Vinyl Destination","lat":"52.40705300","long":"-1.51420350","store_key":92,"city":"Coventry"},{"name":"hmv","lat":"53.79455150","long":"-1.74942180","store_key":14,"city":"Bradford"},{"name":"Uptown Vinyl Records","lat":"52.65315810","long":"-0.47893930","store_key":2774,"city":"Stamford"},{"name":"The Vault","lat":"50.72171560","long":"-1.87551700","store_key":2776,"city":"Bournemouth"},{"name":"Red House Music","lat":"51.71305030","long":"-3.44241160","store_key":2798,"city":"Aberdare"},{"name":"Oxfam","lat":"51.40098070","long":"0.01689460","store_key":500,"city":"London"},{"name":"The Record Box","lat":"51.20704910","long":"-1.47858620","store_key":2815,"city":"Andover"},{"name":"Collectors Paradise","lat":"51.70488550","long":"-0.61303660","store_key":2821,"city":"Chesham"},{"name":"Pick n Mix Records","lat":"51.59716000","long":"-0.11192530","store_key":2822,"city":"London"},{"name":"Spinning Discs Sheffield","lat":"53.35693300","long":"-1.47642790","store_key":2829,"city":"Sheffield"},{"name":"Jesse May's Vintage","lat":"53.64790344","long":"-2.31548691","store_key":2845,"city":"Bury"},{"name":"Rebel Records & Toys","lat":"52.68997270","long":"-2.02901770","store_key":2857,"city":"Cannock"},{"name":"Legacy Records","lat":"53.64605250","long":"-3.00384450","store_key":2871,"city":"Southport"},{"name":"Oxfam","lat":"53.48195760","long":"-2.23599440","store_key":500,"city":"Manchester"},{"name":"Slipped Discs","lat":"51.85768590","long":"-4.30904920","store_key":2879,"city":"Carmarthen"},{"name":"VOD Music","lat":"53.16610718","long":"-3.14252710","store_key":2913,"city":"Mold"},{"name":"Mixed Up Records","lat":"55.87280900","long":"-4.28204580","store_key":2917,"city":"Glasgow"},{"name":"Zen Records","lat":"51.58436584","long":"-0.06850200","store_key":2930,"city":"London"},{"name":"LP Record Store","lat":"53.37750244","long":"-1.46748102","store_key":2937,"city":"Sheffield"},{"name":"FOPP","lat":"51.51364800","long":"-0.12844420","store_key":2949,"city":"London"},{"name":"Ventnor Exchange","lat":"50.59467950","long":"-1.20618040","store_key":2961,"city":"Ventnor"},{"name":"Shotgun Barbers","lat":"51.46371380","long":"-2.60783810","store_key":2979,"city":"Bristol"},{"name":"Oldies Unlimited","lat":"52.58565570","long":"-2.13044600","store_key":2991,"city":"Wolverhampton"},{"name":"Vinyl Eddie","lat":"53.93827057","long":"-1.10859299","store_key":2992,"city":"York"},{"name":"Wood Street Indoor Market","lat":"51.58843231","long":"-0.00435500","store_key":3001,"city":"London"},{"name":"Magic Discs","lat":"51.36401367","long":"0.60910702","store_key":3007,"city":"Rainham"},{"name":"Five Rise Records","lat":"53.84981570","long":"-1.83640560","store_key":3027,"city":"Bingley"},{"name":"Underneath Printed Matter","lat":"50.85849390","long":"0.58289450","store_key":3039,"city":"Hastings"},{"name":"Lee Furneaux Books","lat":"50.55015520","long":"-4.14401940","store_key":3064,"city":"Tavistock"},{"name":"hmv","lat":"55.76013820","long":"-4.18141830","store_key":14,"city":"Glasgow"},{"name":"Double Four Records","lat":"53.44313049","long":"-1.94991803","store_key":3076,"city":"Glossop"},{"name":"Bull Dog Music","lat":"51.99473790","long":"-0.72908840","store_key":3091,"city":"Milton Keynes"},{"name":"Whizzy Wallop Vinyl","lat":"52.27264023","long":"1.52314103","store_key":424,"city":"Saxmundham"},{"name":"The Electric Church","lat":"53.18951040","long":"-2.54019650","store_key":3093,"city":"Winsford"},{"name":"Kriminal Records","lat":"51.58889771","long":"-2.99596310","store_key":3102,"city":"Newport"},{"name":"Sound it Out Records","lat":"54.56133652","long":"-1.31393504","store_key":3110,"city":"Stockton-on-Tees"},{"name":"RPM Music","lat":"54.97158432","long":"-1.61238098","store_key":3119,"city":"Newcastle Upon Tyne"},{"name":"Ben's Collectors Records","lat":"51.23505783","long":"-0.57160401","store_key":3126,"city":"Guildford"},{"name":"Monorail Music","lat":"55.85570145","long":"-4.24602699","store_key":3150,"city":"Glasgow"},{"name":"The Exchange","lat":"50.43116600","long":"-3.69114300","store_key":32,"city":"Totnes"},{"name":"Face The Dawn","lat":"51.45402145","long":"-2.59314203","store_key":3170,"city":"Bristol"},{"name":"The Rock Shop","lat":"51.45409012","long":"-2.59303999","store_key":1111,"city":"Bristol"},{"name":"Record Shop","lat":"51.67587662","long":"-0.60744500","store_key":1054,"city":"Amersham"},{"name":"hmv","lat":"52.23896700","long":"-0.89438850","store_key":14,"city":"Northampton"},{"name":"hmv","lat":"52.62607930","long":"1.29014290","store_key":14,"city":"Norwich"},{"name":"Fine Records","lat":"50.82973480","long":"-0.17322600","store_key":3224,"city":"Brighton"},{"name":"Vinyl Vault","lat":"51.89893130","long":"-2.07352550","store_key":3236,"city":"Cheltenham"},{"name":"Thrifty Store","lat":"53.38361860","long":"-1.46552830","store_key":3258,"city":"Sheffield"},{"name":"Big Brother Music & Film","lat":"50.72894040","long":"-1.94239820","store_key":3263,"city":"Poole"},{"name":"Black Circle Records","lat":"51.91669846","long":"-0.66073501","store_key":1627,"city":"Leighton Buzzard"},{"name":"The Magic City","lat":"53.71379140","long":"-2.09675420","store_key":3296,"city":"Todmorden"},{"name":"Body Music","lat":"51.58447460","long":"-0.07259700","store_key":3300,"city":"London"},{"name":"Just Dropped In","lat":"52.40783310","long":"-1.49290830","store_key":3316,"city":"Coventry"},{"name":"Les Aldrich Music","lat":"51.59030730","long":"-0.14656000","store_key":3324,"city":"London"},{"name":"Jazz House Records","lat":"52.63930880","long":"-1.11404480","store_key":3334,"city":"Leicester"},{"name":"The Vinyl Adventure","lat":"53.64956610","long":"-1.78243740","store_key":3350,"city":"Huddersfield"},{"name":"M.I.T.B Records","lat":"51.51609218","long":"-0.20447463","store_key":3353,"city":"London"},{"name":"Avalanche Records","lat":"55.94701799","long":"-3.19749022","store_key":3365,"city":"Edinburgh"},{"name":"Bridport Music Centre","lat":"50.73222880","long":"-2.75799990","store_key":3368,"city":"Bridport"},{"name":"Truck Store","lat":"51.74837494","long":"-1.23839998","store_key":3380,"city":"Oxford"},{"name":"Underground Solu'shn","lat":"55.95067215","long":"-3.19079304","store_key":3386,"city":"Edinburgh"},{"name":"Skeleton Records","lat":"53.38851890","long":"-3.03103200","store_key":3409,"city":"Liverpool"},{"name":"Disc Discovery","lat":"53.74904633","long":"-0.34979901","store_key":3411,"city":"Hull"},{"name":"The Record Album","lat":"50.82911682","long":"-0.14172500","store_key":3415,"city":"Brighton"},{"name":"Love Vinyl","lat":"51.53307870","long":"-0.07644990","store_key":3437,"city":"London"},{"name":"Union Vinyl","lat":"57.47781640","long":"-4.22253560","store_key":3444,"city":"Inverness"},{"name":"Left For Dead","lat":"52.70656586","long":"-2.75103807","store_key":3471,"city":"Shrewsbury"},{"name":"The Vault - Vinyl Records/CDs","lat":"50.73370920","long":"-1.77556110","store_key":3472,"city":"Christchurch"},{"name":"Vinyl Guru","lat":"54.97008400","long":"-1.61821400","store_key":3483,"city":"Newcastle upon Tyne"},{"name":"Leamington Record Store","lat":"52.28582960","long":"-1.53375440","store_key":3500,"city":"Leamington Spa"},{"name":"The BBE Store","lat":"51.53972220","long":"-0.05792230","store_key":3502,"city":"London"},{"name":"RUBBER SOUL RECORDS","lat":"53.02420425","long":"-2.17858410","store_key":3505,"city":"Stoke-on-Trent"},{"name":"Stranger Than Paradise Records","lat":"51.53779310","long":"-0.05733850","store_key":3515,"city":"London"},{"name":"Angkor Soul Marple","lat":"53.39473100","long":"-2.06145800","store_key":3519,"city":"Stockport"},{"name":"Sound Venture Records","lat":"52.76899560","long":"-0.37829720","store_key":3532,"city":"Bourne"},{"name":"Eclipse Records","lat":"52.58377250","long":"-1.98187110","store_key":3544,"city":"Walsall"},{"name":"The Little Record Shop","lat":"51.58475876","long":"-0.11529700","store_key":3559,"city":"London"},{"name":"hmv","lat":"50.71814810","long":"-1.97930860","store_key":14,"city":"Poole"},{"name":"Back-Tracks","lat":"50.92311930","long":"-1.44470720","store_key":3567,"city":"Southampton"},{"name":"Hey Jude's","lat":"52.76903534","long":"-2.37781596","store_key":3588,"city":"Newport TF10"},{"name":"Vinyl Underground Records","lat":"53.55431750","long":"-1.48137930","store_key":3608,"city":"Barnsley"},{"name":"Wild Horses Music","lat":"51.54133500","long":"-0.14677640","store_key":3610,"city":"London"},{"name":"Barter Books","lat":"55.41032200","long":"-1.69964300","store_key":3614,"city":"Alnwick"},{"name":"Blackpool's Original C.D. & Dvd.Centre","lat":"53.81012150","long":"-3.05414770","store_key":3625,"city":"Blackpool"},{"name":"All Night Flight Records","lat":"53.41121300","long":"-2.15679540","store_key":3636,"city":"Stockport"},{"name":"The Vinyl Whistle","lat":"53.82063640","long":"-1.57726010","store_key":3639,"city":"Leeds"},{"name":"To Have And To Hold Records","lat":"51.99212570","long":"-2.15762390","store_key":3640,"city":"Tewkesbury"},{"name":"Jelly Records","lat":"51.55234470","long":"-0.04406670","store_key":3641,"city":"London"},{"name":"Hey Joe music & coffee","lat":"51.61885700","long":"0.30228800","store_key":3649,"city":"Brentwood"},{"name":"Fish Records","lat":"52.90188180","long":"-2.14783500","store_key":3661,"city":"Stone"},{"name":"JJJ Vinyl","lat":"51.64265310","long":"0.07577240","store_key":3669,"city":"London"},{"name":"Harbour Records","lat":"50.84583350","long":"-0.93660920","store_key":3686,"city":"Emsworth"},{"name":"Phonica Records","lat":"51.51436790","long":"-0.13706080","store_key":3697,"city":"London"},{"name":"Piccadilly Records","lat":"53.48281860","long":"-2.23547196","store_key":3699,"city":"Manchester"},{"name":"Smithfield Exchange","lat":"53.48522186","long":"-2.23747396","store_key":3722,"city":"Manchester"},{"name":"Muse Music and Love Cafe","lat":"53.74139023","long":"-2.01690698","store_key":3743,"city":"Hebden Bridge"},{"name":"Fives Records","lat":"51.54161835","long":"0.65911001","store_key":3747,"city":"Southend-on-Sea"},{"name":"The Rock Box Record Store","lat":"51.33863310","long":"-0.74713970","store_key":3756,"city":"Camberley"},{"name":"Assai Records (HTS Scotland Ltd)","lat":"56.45882150","long":"-2.97093250","store_key":3770,"city":"Dundee"},{"name":"Therapy The Hub Ltd (Record Store)","lat":"53.32108688","long":"-1.14301395","store_key":3773,"city":"Worksop"},{"name":"Forever Records","lat":"52.95377130","long":"-1.14578410","store_key":3793,"city":"Nottingham"},{"name":"Oxfam","lat":"56.11945220","long":"-3.93743740","store_key":500,"city":"Stirling"},{"name":"Premier Record Stores","lat":"54.60135269","long":"-5.93335199","store_key":3812,"city":"Belfast"},{"name":"Camden Lock Vinyl","lat":"51.54145050","long":"-0.14579301","store_key":3813,"city":"London"},{"name":"Halton Grooves","lat":"53.79917908","long":"-1.46456897","store_key":3817,"city":"Leeds"},{"name":"Museumvinyl","lat":"50.33869010","long":"-4.79235010","store_key":3834,"city":"Saint Austell"},{"name":"Underground Records","lat":"52.96341760","long":"-1.15196670","store_key":296,"city":"Nottingham"},{"name":"Shoveitupyourcult Records","lat":"53.69111930","long":"-1.63126390","store_key":3842,"city":"Dewsbury"},{"name":"Discovery Music Store","lat":"53.79637810","long":"-1.75988170","store_key":3844,"city":"Bradford"},{"name":"Grainger Cd Shop","lat":"54.97307300","long":"-1.61459160","store_key":3855,"city":"Newcastle upon Tyne"},{"name":"The Indie Arcade","lat":"53.38575600","long":"-1.47588100","store_key":3878,"city":"Sheffield"},{"name":"Russell's Records","lat":"51.11080551","long":"-0.86365300","store_key":3888,"city":"Bordon"},{"name":"Intense Records","lat":"51.73576320","long":"0.46678850","store_key":3889,"city":"Chelmsford"},{"name":"hmv","lat":"51.62944420","long":"-0.75336040","store_key":14,"city":"High Wycombe"},{"name":"hmv","lat":"52.70896840","long":"-2.75476780","store_key":14,"city":"Shrewsbury"},{"name":"Bobs Records","lat":"50.85678180","long":"0.59130300","store_key":3890,"city":"Hastings"},{"name":"The Independent Record Shop Ltd","lat":"51.88746643","long":"-2.08084512","store_key":3902,"city":"Cheltenham"},{"name":"Dance2","lat":"51.23668380","long":"-0.57449320","store_key":3905,"city":"Guildford"},{"name":"Bridge Garage Antique centre","lat":"50.93172836","long":"0.53505498","store_key":3908,"city":"Hastings"},{"name":"Pleasures Of Past Times","lat":"51.51061750","long":"-0.12773650","store_key":3920,"city":"London"},{"name":"Bug Vinyl","lat":"53.84376600","long":"-0.43267520","store_key":3922,"city":"Beverley"},{"name":"Reel Around The Fountain Records","lat":"53.44496918","long":"-2.31079602","store_key":3930,"city":"Manchester"},{"name":"Harrow Audio","lat":"51.58229550","long":"-0.33880170","store_key":3974,"city":"Harrow"},{"name":"Records","lat":"51.46148800","long":"-0.00671800","store_key":3989,"city":"London"},{"name":"Hot Rats","lat":"54.90276160","long":"-1.38674800","store_key":3991,"city":"Sunderland"},{"name":"Double Four Records","lat":"53.40938950","long":"-2.15542889","store_key":3076,"city":"Stockport"},{"name":"Supertone Records","lat":"51.45969391","long":"-0.12352300","store_key":4009,"city":"London"},{"name":"Howling Sounds","lat":"51.33585830","long":"1.41629350","store_key":4029,"city":"Ramsgate"},{"name":"Revolver","lat":"51.34571620","long":"-2.97577210","store_key":4047,"city":"Weston-super-Mare"},{"name":"SJ Records","lat":"52.19354600","long":"-1.70780170","store_key":4051,"city":"Stratford-upon-Avon"},{"name":"Longwell Records","lat":"51.41337585","long":"-2.49770594","store_key":4105,"city":"Keynsham"},{"name":"The Record Store","lat":"51.15035870","long":"0.87169550","store_key":1197,"city":"Ashford"},{"name":"hmv","lat":"54.95687710","long":"-1.66889830","store_key":14,"city":"Gateshead"},{"name":"hmv","lat":"51.61865980","long":"-3.94408360","store_key":14,"city":"Swansea"},{"name":"Oxfam Music Shop","lat":"55.95921550","long":"-3.21262470","store_key":4108,"city":"Edinburgh"},{"name":"Wow and Flutter","lat":"50.85529580","long":"0.57701770","store_key":4109,"city":"Hastings"},{"name":"Rays Jazz At Foyles","lat":"51.51429100","long":"-0.13004860","store_key":4110,"city":"London"},{"name":"Record Revivals","lat":"54.28078210","long":"-0.40604750","store_key":4111,"city":"Scarborough"},{"name":"Saxosoul Records","lat":"54.52644220","long":"-1.55703520","store_key":4145,"city":"Darlington"},{"name":"The Ram Shack","lat":"55.33322460","long":"-3.44278980","store_key":4152,"city":"Moffat"},{"name":"Heavy Crates","lat":"53.74157760","long":"-2.01650650","store_key":4160,"city":"Hebden Bridge"},{"name":"Strange Victory Records","lat":"54.59998890","long":"-5.93105220","store_key":4177,"city":"Belfast"},{"name":"Rickety Ramshackle","lat":"52.41446100","long":"-4.08327000","store_key":4204,"city":"Aberystwyth"},{"name":"Up North Records","lat":"53.19127410","long":"-2.89015130","store_key":4211,"city":"Chester"},{"name":"Music Junkee","lat":"53.37589210","long":"-1.47270070","store_key":4225,"city":"Sheffield"},{"name":"Gastro Vinyl","lat":"51.45556259","long":"-2.60355902","store_key":4226,"city":"Bristol"},{"name":"Chris's Music","lat":"53.12749170","long":"-1.28892920","store_key":4234,"city":"Sutton-in-Ashfield"},{"name":"Memories Antiques","lat":"53.64848709","long":"-2.31733203","store_key":4238,"city":"Bury"},{"name":"Tubeway Records","lat":"52.70948760","long":"-2.75438730","store_key":4244,"city":"Shrewsbury"},{"name":"Heroes","lat":"51.70488820","long":"-0.61298664","store_key":4250,"city":"Chesham"},{"name":"Hurley Books","lat":"50.26985680","long":"-4.78729370","store_key":4251,"city":"Mevagissey"},{"name":"On Broadway Records","lat":"51.48072920","long":"-0.20691010","store_key":4262,"city":"London"},{"name":"Friendly Records","lat":"51.44076540","long":"-2.60416240","store_key":4297,"city":"Bristol"},{"name":"Electron Records","lat":"53.78942871","long":"-2.24083090","store_key":4299,"city":"Burnley"},{"name":"hmv","lat":"50.72100100","long":"-1.88245490","store_key":14,"city":"Bournemouth"},{"name":"hmv","lat":"54.89608110","long":"-2.93432010","store_key":14,"city":"Carlisle"},{"name":"Rock Bottom Records","lat":"51.36054230","long":"1.02447605","store_key":4300,"city":"Whitstable"},{"name":"Oxfam","lat":"51.51064140","long":"-0.30529390","store_key":500,"city":"London"},{"name":"All Secondhands","lat":"51.57015228","long":"-1.77668798","store_key":4329,"city":"Swindon"},{"name":"Rhyl Comic & Disc Co","lat":"53.32016373","long":"-3.49056005","store_key":4337,"city":"Rhyl"},{"name":"Swordfish Records","lat":"52.48233795","long":"-1.89341402","store_key":4340,"city":"Birmingham"},{"name":"Vinyl Villains","lat":"55.95832610","long":"-3.18374290","store_key":4354,"city":"Edinburgh"},{"name":"Sifters Records","lat":"53.42132950","long":"-2.21682000","store_key":4366,"city":"Manchester"},{"name":"Vinyl Revival","lat":"53.48333359","long":"-2.23506808","store_key":4367,"city":"Manchester"},{"name":"Marrs Plectrum Records","lat":"52.60817337","long":"-0.26206800","store_key":4386,"city":"Peterborough"},{"name":"Vinyl Revelations","lat":"51.88055970","long":"-0.41391210","store_key":4388,"city":"Luton"},{"name":"Forest Vinyl Ltd","lat":"51.82606280","long":"-2.51007090","store_key":4425,"city":"Cinderford"},{"name":"Loud & Clear","lat":"55.86312103","long":"-4.27723885","store_key":4449,"city":"Glasgow"},{"name":"Polar Bear Records","lat":"52.43462372","long":"-1.89407206","store_key":4480,"city":"Birmingham"},{"name":"The Wax Factor","lat":"50.82812881","long":"-0.13795701","store_key":4481,"city":"Brighton"},{"name":"All Ages Records","lat":"51.53785324","long":"-0.13959900","store_key":4484,"city":"London"},{"name":"Rock 'n' Roll Rescue","lat":"51.53741530","long":"-0.14564500","store_key":4516,"city":"London"},{"name":"D'Vinyl Records","lat":"51.49268510","long":"-3.17165010","store_key":4521,"city":"Cardiff"},{"name":"Nervous Records","lat":"52.54120050","long":"-1.36593060","store_key":4532,"city":"Hinckley"},{"name":"Spotty Vinyl Records","lat":"51.47613144","long":"-0.03682100","store_key":4536,"city":"London"},{"name":"Grandpas Basement","lat":"53.83459690","long":"-1.77507850","store_key":4572,"city":"Shipley"},{"name":"Spiral Scratch","lat":"52.61842170","long":"-1.11762520","store_key":4591,"city":"Leicester"},{"name":"Reggae Masters","lat":"51.37394610","long":"-0.10252940","store_key":4595,"city":"London"},{"name":"Rhythm & Brews","lat":"51.49110840","long":"-0.26901990","store_key":4623,"city":"London"},{"name":"The vinyl Curtain","lat":"50.82785416","long":"-0.13587300","store_key":4647,"city":"Brighton"},{"name":"hmv","lat":"51.90422080","long":"-0.20235270","store_key":14,"city":"Stevenage"},{"name":"hmv","lat":"53.81600730","long":"-3.05448630","store_key":14,"city":"Blackpool"},{"name":"hmv","lat":"53.74323490","long":"-0.33602200","store_key":14,"city":"Hull"},{"name":"hmv","lat":"51.01412280","long":"-3.10166520","store_key":14,"city":"Taunton"},{"name":"hmv","lat":"53.79863790","long":"-1.54390580","store_key":14,"city":"Leeds"},{"name":"hmv","lat":"51.06312180","long":"-1.31208503","store_key":14,"city":"Winchester"},{"name":"hmv","lat":"50.85666050","long":"0.57978830","store_key":14,"city":"Hastings"},{"name":"hmv","lat":"52.95763930","long":"-1.14726420","store_key":14,"city":"Nottingham"},{"name":"hmv","lat":"54.90558930","long":"-1.38506500","store_key":14,"city":"Sunderland"},{"name":"Oxfam","lat":"51.45455170","long":"-0.96865797","store_key":500,"city":"Reading"},{"name":"Kings Records","lat":"50.85459330","long":"0.56028140","store_key":4651,"city":"Hastings"},{"name":"BAILA Coffee & Vinyl","lat":"51.55398560","long":"-1.77704704","store_key":4652,"city":"Swindon"},{"name":"Lobster Records & Distribution","lat":"51.53981781","long":"-0.05751000","store_key":4667,"city":"London"},{"name":"The Groove Records","lat":"50.75143433","long":"-1.65888095","store_key":4668,"city":"New Milton"},{"name":"Liquorice Records","lat":"51.49284744","long":"-0.77553898","store_key":4678,"city":"Maidenhead"},{"name":"St George's Market","lat":"54.59588820","long":"-5.92202170","store_key":4683,"city":"Belfast"},{"name":"Super Heroes","lat":"51.07867370","long":"-4.05872200","store_key":4685,"city":"Barnstaple"},{"name":"Domino Entertainments","lat":"55.06799120","long":"-3.61340070","store_key":4686,"city":"Dumfries"},{"name":"PHASE ONE - Liverpool","lat":"53.40274800","long":"-2.98129600","store_key":4690,"city":"Liverpool"},{"name":"Grooves","lat":"58.98297940","long":"-2.95758600","store_key":327,"city":"Kirkwall"},{"name":"Grind & Groove Records","lat":"53.86819077","long":"-1.90595305","store_key":4718,"city":"Keighley"},{"name":"The Attic","lat":"52.74736580","long":"-1.47002720","store_key":4729,"city":"Ashby-de-la-Zouch"},{"name":"Keswick Collectables","lat":"54.60006332","long":"-3.13598704","store_key":4730,"city":"Keswick"},{"name":"Sister Midnight Records","lat":"51.47471070","long":"-0.02598310","store_key":4744,"city":"London"},{"name":"Psychotron Records","lat":"52.54976250","long":"-1.84175320","store_key":4745,"city":"Sutton Coldfield"},{"name":"chipfreq","lat":"54.97008360","long":"-1.61821410","store_key":4747,"city":"Newcastle upon Tyne"},{"name":"Play It Again","lat":"51.39869431","long":"-1.32138670","store_key":232,"city":"Newbury"},{"name":"Low Company","lat":"51.55476970","long":"-0.06709370","store_key":4765,"city":"London"},{"name":"Swansfield Music","lat":"55.41423430","long":"-1.70738420","store_key":4803,"city":"Alnwick"},{"name":"Format","lat":"51.84838660","long":"1.26927460","store_key":4805,"city":"Walton on the Naze"},{"name":"Hidden Sounds","lat":"51.52415330","long":"-0.05471290","store_key":4812,"city":"London"},{"name":"Revolver Records","lat":"51.54586220","long":"0.67795520","store_key":67,"city":"Southend-on-Sea"},{"name":"Music Specialists","lat":"51.42875010","long":"-0.16650920","store_key":4818,"city":"London"},{"name":"Spinning Superiority Record Shop","lat":"54.97935180","long":"-1.59466310","store_key":4826,"city":"Newcastle upon Tyne"},{"name":"Classical Bargain Records","lat":"51.43774760","long":"0.07140710","store_key":4838,"city":"London"},{"name":"Pop Recs","lat":"54.90130810","long":"-1.38529680","store_key":4839,"city":"Sunderland"},{"name":"Second Time Around","lat":"51.62337112","long":"-3.45568705","store_key":4840,"city":"Tonypandy"},{"name":"Music for the Soul Records","lat":"53.44845200","long":"-2.35607600","store_key":4841,"city":"Manchester"},{"name":"Visual Vinyl","lat":"52.23371610","long":"-1.07874750","store_key":750,"city":"Northampton"},{"name":"Southsea's Pie and Vinyl","lat":"50.78880490","long":"-1.09356740","store_key":4893,"city":"Portsmouth"},{"name":"3B Records","lat":"53.40285492","long":"-2.97916603","store_key":4901,"city":"Liverpool"},{"name":"Punker Bunker","lat":"50.82756424","long":"-0.13775100","store_key":4905,"city":"Brighton"},{"name":"Out Of Time","lat":"52.63366699","long":"1.29672897","store_key":4909,"city":"Norwich"},{"name":"The Book and Record Bar","lat":"51.43101501","long":"-0.10235400","store_key":4914,"city":"London"},{"name":"Minster Records","lat":"53.84104190","long":"-0.42541640","store_key":4929,"city":"Beverley"},{"name":"Just Imagination Memorabilia","lat":"51.45717670","long":"-0.97179780","store_key":4940,"city":"Reading"},{"name":"A Ray Of Delight","lat":"50.85403824","long":"-0.55625898","store_key":4945,"city":"Arundel"},{"name":"South Record Shop","lat":"51.53958210","long":"0.71051600","store_key":4946,"city":"Southend-on-Sea"},{"name":"Relevant Record Cafe","lat":"52.19712067","long":"0.14653400","store_key":4950,"city":"Cambridge"},{"name":"Lost In Vinyl","lat":"52.21059930","long":"0.11505860","store_key":4952,"city":"Cambridge"},{"name":"Soundwaves Here We Come","lat":"53.48255539","long":"-2.23617697","store_key":4959,"city":"Manchester"},{"name":"Carmel Records","lat":"51.54115830","long":"0.69864710","store_key":4972,"city":"Southend-on-Sea"},{"name":"Badgerbeats","lat":"51.73092651","long":"0.68250602","store_key":4990,"city":"Maldon"},{"name":"Paul's Vinyl Frontier","lat":"50.85363690","long":"-0.98202350","store_key":5014,"city":"Havant"},{"name":"Revolutions Music","lat":"54.28139740","long":"-0.40000920","store_key":5015,"city":"Scarborough"},{"name":"Trickytraxx Record Shop","lat":"54.85523960","long":"-1.83248780","store_key":5028,"city":"Consett"},{"name":"Amorini Antiques Centre","lat":"53.39498840","long":"-3.01258740","store_key":5029,"city":"Liverpool"},{"name":"Winyl","lat":"51.94510170","long":"1.06364170","store_key":5034,"city":"Manningtree"},{"name":"Too Damn Loud","lat":"53.80021840","long":"-1.54152900","store_key":5037,"city":"Leeds"},{"name":"TRUE BLUE RECORDS","lat":"51.49118120","long":"-3.14291130","store_key":5038,"city":"Cardiff"},{"name":"Giant Kitten","lat":"53.79566320","long":"-1.54097360","store_key":5064,"city":"Leeds"},{"name":"Dockyard Discs","lat":"50.37913490","long":"-4.17246480","store_key":5079,"city":"Plymouth"},{"name":"The Record Shop","lat":"52.75170898","long":"0.39677399","store_key":495,"city":"King's Lynn"},{"name":"Uptown Vinyl Records","lat":"52.80234909","long":"-0.15288100","store_key":2774,"city":"Pinchbeck"},{"name":"LSD Records","lat":"51.08020490","long":"-1.86432900","store_key":5106,"city":"Salisbury"},{"name":"Revolutions Records","lat":"50.81806300","long":"-0.37712400","store_key":2510,"city":"Worthing"},{"name":"Heathen Chemistry Records","lat":"50.85248510","long":"-1.18248390","store_key":5140,"city":"Fareham"},{"name":"Olympic Studios Records","lat":"51.47482160","long":"-0.24087350","store_key":5141,"city":"London"},{"name":"Banquet Records","lat":"51.40915298","long":"-0.30326399","store_key":5154,"city":"London"},{"name":"Dragon Records","lat":"54.59703064","long":"-5.93435097","store_key":5175,"city":"Belfast"},{"name":"E&M Mart","lat":"53.73371887","long":"-0.37557101","store_key":5180,"city":"Hull"},{"name":"Those Old Records","lat":"52.75924683","long":"-1.93406498","store_key":5220,"city":"Rugeley"},{"name":"Backbeat Records","lat":"55.94377899","long":"-3.18276310","store_key":5240,"city":"Edinburgh"},{"name":"Vinyl Underground","lat":"52.23869700","long":"-0.89162210","store_key":5284,"city":"Northampton"},{"name":"Prime Cuts","lat":"51.47233030","long":"-2.59137500","store_key":5288,"city":"Bristol"},{"name":"Cult Vinyl","lat":"53.41877230","long":"-2.99679650","store_key":5296,"city":"Liverpool"},{"name":"Across The Tracks","lat":"50.82687378","long":"-0.13800301","store_key":5298,"city":"Brighton"},{"name":"Resident Music","lat":"50.82616425","long":"-0.13861001","store_key":5302,"city":"Brighton"},{"name":"Crazy Beat Records","lat":"51.55350113","long":"0.24796200","store_key":5307,"city":"Upminster"},{"name":"Tallbird Records","lat":"53.23595600","long":"-1.43020900","store_key":5328,"city":"Chesterfield"},{"name":"Adrians Records","lat":"51.61241531","long":"0.52084100","store_key":5334,"city":"Wickford"},{"name":"Custard Cube Music","lat":"53.75266070","long":"-2.36373930","store_key":5349,"city":"Accrington"},{"name":"Lion Vibes","lat":"51.46223450","long":"-0.11161400","store_key":5354,"city":"London"},{"name":"Medway Record Centre","lat":"51.38676071","long":"0.54456300","store_key":5374,"city":"Gillingham"},{"name":"Bella Union Vinyl Shop & Coffee","lat":"50.82143400","long":"-0.14232800","store_key":5395,"city":"Brighton"},{"name":"hmv","lat":"50.81087870","long":"-0.37124530","store_key":14,"city":"Worthing"},{"name":"Hyde & Seek Records","lat":"53.45093536","long":"-2.07815599","store_key":5399,"city":"Hyde"},{"name":"Mudshark Records","lat":"53.22479840","long":"-4.12825930","store_key":5400,"city":"Bangor, LL"},{"name":"Music Mania","lat":"50.80947113","long":"-0.37632400","store_key":153,"city":"Worthing"},{"name":"Static Records","lat":"53.54560820","long":"-2.63428180","store_key":5413,"city":"Wigan"},{"name":"Coda Vinyl Cafe","lat":"53.25551510","long":"-1.91344180","store_key":5431,"city":"Buxton"},{"name":"Vinyl Coffee","lat":"52.26178490","long":"-0.74753180","store_key":5451,"city":"Northampton"},{"name":"Tasty records","lat":"53.38618980","long":"-2.35306000","store_key":5489,"city":"Altrincham"},{"name":"Vinyl Van","lat":"50.70997470","long":"-2.43772470","store_key":5503,"city":"Dorchester"},{"name":"thesoundtracktoyourlife","lat":"55.94233720","long":"-3.20205730","store_key":5511,"city":"Edinburgh"},{"name":"RK Bass Records","lat":"50.82800500","long":"-0.13586900","store_key":5536,"city":"Brighton"},{"name":"Uptight Records","lat":"50.83814640","long":"-0.17787800","store_key":5564,"city":"Brighton"},{"name":"Europa Music","lat":"56.11903200","long":"-3.93791700","store_key":5569,"city":"Stirling"},{"name":"Out on the Floor Records","lat":"51.53969440","long":"-0.14391150","store_key":5570,"city":"London"},{"name":"MushiMushi Records","lat":"52.96804047","long":"-1.17258000","store_key":5586,"city":"Nottingham"},{"name":"Vintage Vinyl Records.tel","lat":"51.78659821","long":"-2.36413097","store_key":5622,"city":"Saul"},{"name":"Groovy Records","lat":"50.62951660","long":"-1.17750299","store_key":358,"city":"Shanklin"},{"name":"Rebound","lat":"53.96319580","long":"-1.08529496","store_key":5643,"city":"York"},{"name":"Just For The Record","lat":"52.37207510","long":"-1.26199280","store_key":1128,"city":"Rugby"},{"name":"Lorenzo's Record Shack","lat":"51.46941300","long":"-0.06787900","store_key":5645,"city":"London"},{"name":"Defend Vinyl","lat":"53.39137120","long":"-2.93145040","store_key":5654,"city":"Liverpool"},{"name":"Play Vinyl","lat":"51.52938080","long":"-0.06960800","store_key":5659,"city":"London"},{"name":"hmv","lat":"51.27496390","long":"0.52005350","store_key":14,"city":"Maidstone"},{"name":"Basement Traxx","lat":"53.26131220","long":"-2.12561510","store_key":5677,"city":"Macclesfield"},{"name":"Oxfam","lat":"50.69993760","long":"-1.29339990","store_key":500,"city":"Newport 2"},{"name":"Vintage Vinyl at Keighley Indoor Market","lat":"53.86571080","long":"-1.90743500","store_key":5700,"city":"Keighley"},{"name":"Relics Hifi & Vinyl","lat":"51.45100560","long":"-2.60655540","store_key":5712,"city":"Bristol"},{"name":"Vinylstore Jr","lat":"51.27678770","long":"1.07682940","store_key":5727,"city":"Canterbury"},{"name":"hmv","lat":"56.46329140","long":"-2.96842690","store_key":14,"city":"Dundee"},{"name":"hmv","lat":"55.85761480","long":"-4.25215550","store_key":14,"city":"Glasgow"},{"name":"hmv","lat":"52.63600710","long":"-1.13459350","store_key":14,"city":"Leicester"},{"name":"hmv","lat":"51.43503370","long":"-0.51070940","store_key":14,"city":"Staines"},{"name":"Rick's Records","lat":"50.85693359","long":"0.59302902","store_key":5398,"city":"Hastings"},{"name":"Oxfam Dalston","lat":"51.54423141","long":"-0.07579500","store_key":5728,"city":"London"},{"name":"Wall Of Noise Music","lat":"55.95584488","long":"-2.77817106","store_key":5743,"city":"Haddington"},{"name":"Visual Vinyl","lat":"52.10885239","long":"-1.28081000","store_key":750,"city":"Banbury"},{"name":"Spin Records","lat":"57.15012360","long":"-2.09639311","store_key":4459,"city":"Aberdeen"},{"name":"Printers & Stationers","lat":"51.52969980","long":"-0.06966720","store_key":5766,"city":"London"},{"name":"Stormcrow Records","lat":"53.74536410","long":"-1.60059080","store_key":5773,"city":"Leeds"},{"name":"Frank Harvey Hi Fi Excellence","lat":"52.40837200","long":"-1.51847130","store_key":5781,"city":"Coventry"},{"name":"Old School Records","lat":"53.04538190","long":"-2.99229410","store_key":5786,"city":"Wrexham"},{"name":"Loafers Vinyl & Coffee","lat":"53.72228760","long":"-1.85680350","store_key":5800,"city":"Halifax"},{"name":"Sounds Records","lat":"51.28041560","long":"1.07796060","store_key":5817,"city":"Canterbury"},{"name":"Some Great Reward","lat":"55.83429570","long":"-4.26585310","store_key":5818,"city":"Glasgow"},{"name":"Greencat Records","lat":"56.00246750","long":"-2.51643730","store_key":5820,"city":"Dunbar"},{"name":"Mister Tee Records","lat":"52.39157850","long":"-2.24649160","store_key":5837,"city":"Kidderminster"},{"name":"Andy's Records","lat":"52.41597650","long":"-4.07841330","store_key":5875,"city":"Aberystwyth"},{"name":"Sounds Of The Universe","lat":"51.51394490","long":"-0.13465960","store_key":5880,"city":"London"},{"name":"Wanted Music","lat":"51.40622330","long":"-0.03294700","store_key":5886,"city":"London"},{"name":"GJM Music","lat":"53.74208069","long":"-0.33944499","store_key":5902,"city":"Hull"},{"name":"The Cavern","lat":"50.39352036","long":"-3.51597309","store_key":5903,"city":"Brixham"},{"name":"Like Vinyl","lat":"51.54198837","long":"-0.14736000","store_key":5915,"city":"London"},{"name":"Beatdown Records","lat":"54.96953964","long":"-1.61938703","store_key":5916,"city":"Newcastle upon Tyne"},{"name":"The LP Cafe","lat":"51.66006920","long":"-0.40167390","store_key":5935,"city":"Watford"},{"name":"White Rabbit Records","lat":"52.70776367","long":"-2.75604606","store_key":5942,"city":"Shrewsbury"},{"name":"DnR Vinyl","lat":"51.38319778","long":"-0.06561400","store_key":5952,"city":"London"},{"name":"Really Good Records","lat":"50.37115479","long":"-4.13742685","store_key":5953,"city":"Plymouth"},{"name":"LN-CC","lat":"51.55080200","long":"-0.07312800","store_key":5971,"city":"London"},{"name":"Reckless Records","lat":"51.51433970","long":"-0.13531200","store_key":1171,"city":"London"},{"name":"Honest Jon's Records London","lat":"51.51918411","long":"-0.20735399","store_key":5980,"city":"London"},{"name":"Flashback Records","lat":"51.52515793","long":"-0.07138800","store_key":179,"city":"London"},{"name":"hmv","lat":"56.11738460","long":"-3.93589950","store_key":14,"city":"Stirling"},{"name":"hmv","lat":"52.52174220","long":"-1.46899470","store_key":14,"city":"Nuneaton"},{"name":"Number One Records & Tapes","lat":"54.85063934","long":"-5.81945705","store_key":5992,"city":"Larne"},{"name":"Family Store","lat":"50.82602490","long":"-0.13866640","store_key":6009,"city":"Brighton"},{"name":"Antiques & Silver Vaults","lat":"51.06808472","long":"0.68607599","store_key":6010,"city":"Tenterden"},{"name":"Disc Disciples","lat":"51.54158086","long":"-0.14604474","store_key":6023,"city":"London"},{"name":"Chaldon Books & Records","lat":"51.28755410","long":"-0.08900380","store_key":6029,"city":"Caterham"},{"name":"hmv","lat":"51.40317500","long":"0.01640400","store_key":14,"city":"London"},{"name":"Disc World","lat":"51.47823420","long":"-0.02684400","store_key":6046,"city":"London"},{"name":"Level Crossing Records","lat":"51.46735310","long":"-0.26647720","store_key":6047,"city":"London"},{"name":"Taurus Vinyl","lat":"50.45436478","long":"-4.46401978","store_key":6070,"city":"Liskeard"},{"name":"Records & Relics","lat":"53.81842804","long":"-3.04720306","store_key":4931,"city":"Blackpool"},{"name":"Vinyl Tap","lat":"53.64809036","long":"-1.78261197","store_key":551,"city":"Huddersfield"},{"name":"Wanted Records","lat":"51.45419276","long":"-2.59324426","store_key":6083,"city":"Bristol"},{"name":"Cool Discs Music","lat":"54.99626541","long":"-7.31815386","store_key":6095,"city":"Londonderry"},{"name":"Si's Sounds","lat":"50.87284470","long":"0.01081800","store_key":6100,"city":"Lewes"},{"name":"Endless Music","lat":"53.53583960","long":"-2.26988480","store_key":6110,"city":"Manchester"},{"name":"The Record Shop","lat":"51.49303100","long":"-3.17105270","store_key":495,"city":"Cardiff"},{"name":"Retro Sounds Records","lat":"50.41455841","long":"-5.07670212","store_key":6137,"city":"Newquay"},{"name":"FOPP","lat":"52.20733190","long":"0.11960520","store_key":2949,"city":"Cambridge"},{"name":"hmv","lat":"53.38247870","long":"-1.46797340","store_key":14,"city":"Sheffield"},{"name":"hmv","lat":"57.47816700","long":"-4.22150600","store_key":14,"city":"Inverness"},{"name":"Holt Vinyl Vault","lat":"52.90678660","long":"1.09061980","store_key":6152,"city":"Holt"},{"name":"Crash Records Leeds","lat":"53.79896545","long":"-1.54146898","store_key":6153,"city":"Leeds"},{"name":"Retro Centre","lat":"51.13573456","long":"0.26859799","store_key":6154,"city":"Tunbridge Wells"},{"name":"Acorn Records","lat":"50.26308823","long":"-5.05499601","store_key":6155,"city":"Truro"},{"name":"Urban Vinyl Ltd","lat":"50.60858154","long":"-2.45361996","store_key":6156,"city":"Weymouth"},{"name":"Relics Records","lat":"53.80018440","long":"-1.54156940","store_key":6160,"city":"Leeds"},{"name":"Helter Skelter Records","lat":"50.83625031","long":"-0.77143198","store_key":6162,"city":"Chichester"},{"name":"Summit","lat":"52.48649216","long":"-1.93684196","store_key":6174,"city":"Birmingham"},{"name":"G.O. Records","lat":"53.76868660","long":"-0.35524650","store_key":6179,"city":"Hull"},{"name":"Drift","lat":"50.43057632","long":"-3.69166994","store_key":6180,"city":"Totnes"},{"name":"Oxfam","lat":"50.43148340","long":"-3.69039510","store_key":500,"city":"Totnes"},{"name":"Pannier Market","lat":"50.53090668","long":"-3.61128592","store_key":6181,"city":"Newton Abbot"},{"name":"Slide Record Shop","lat":"52.13738632","long":"-0.46740499","store_key":6190,"city":"Bedford"},{"name":"Pure Vinyl Records","lat":"51.46416110","long":"-0.11559430","store_key":6196,"city":"London"},{"name":"Deco Audio","lat":"51.81940860","long":"-0.83108870","store_key":6205,"city":"Aylesbury"},{"name":"Viva-Vinyl Record Store & Cafe","lat":"50.85019080","long":"-0.17839980","store_key":6224,"city":"Brighton"},{"name":"Music's Not Dead","lat":"50.83748291","long":"0.47142769","store_key":6267,"city":"Bexhill-on-Sea"},{"name":"Highstreet Records","lat":"51.05658090","long":"-2.41001990","store_key":6269,"city":"Wincanton"},{"name":"Record Corner","lat":"51.18523026","long":"-0.61235499","store_key":6283,"city":"Godalming"},{"name":"Blast Music & Comics","lat":"51.87837680","long":"0.55103270","store_key":6298,"city":"Braintree"},{"name":"Released Records","lat":"53.79599370","long":"-1.54002050","store_key":6316,"city":"Leeds"},{"name":"Triassic Tusk Records","lat":"56.20497380","long":"-2.78306470","store_key":6318,"city":"Anstruther"},{"name":"Music & Bean Co","lat":"50.73883660","long":"-4.00238830","store_key":6320,"city":"Okehampton"},{"name":"Swansea Bay Records","lat":"51.61938610","long":"-3.94494260","store_key":6325,"city":"Swansea"},{"name":"Strummer Room Records","lat":"52.06200580","long":"-1.33764440","store_key":6330,"city":"Banbury"},{"name":"Aux Records","lat":"52.46773260","long":"1.74522290","store_key":6331,"city":"Lowestoft"},{"name":"Bob's Records","lat":"52.86065700","long":"-3.05435300","store_key":448,"city":"Oswestry"},{"name":"Seen & Heard","lat":"53.69252960","long":"-1.30872910","store_key":6345,"city":"Pontefract"},{"name":"Fantayzia Records","lat":"52.40762310","long":"-1.49414670","store_key":6348,"city":"Coventry"},{"name":"Island Vintage","lat":"51.33506780","long":"1.41724500","store_key":6366,"city":"Ramsgate"},{"name":"Dusty Fingers Records","lat":"51.48091110","long":"-3.17903710","store_key":6376,"city":"Cardiff"},{"name":"The Record Shed Darlington Co. Durham","lat":"54.52468720","long":"-1.55542340","store_key":6386,"city":"Darlington"},{"name":"Electric Palace Records","lat":"51.07013990","long":"0.69064550","store_key":6402,"city":"Tenterden"},{"name":"hmv","lat":"51.27803530","long":"1.07988730","store_key":14,"city":"Canterbury"},{"name":"hmv","lat":"52.58455380","long":"-2.12855550","store_key":14,"city":"Wolverhampton"},{"name":"hmv","lat":"51.45815530","long":"-2.58833020","store_key":14,"city":"Bristol"},{"name":"hmv","lat":"54.52580390","long":"-1.55473570","store_key":14,"city":"Darlington"},{"name":"Spiral Archive","lat":"52.24090380","long":"-0.89031290","store_key":6409,"city":"Northampton"},{"name":"Music Mania","lat":"53.02552032","long":"-2.17700601","store_key":153,"city":"Stoke-on-Trent"},{"name":"The Music Room / Book Stop","lat":"50.55019760","long":"-4.14562511","store_key":6410,"city":"Tavistock"},{"name":"Grammar School Records","lat":"50.95123291","long":"0.73359901","store_key":6422,"city":"Rye"},{"name":"Bending Sound Records","lat":"54.66353226","long":"-5.66467190","store_key":6437,"city":"Bangor, BT"},{"name":"Voodoo Soup Records - Vinyl Records & CD's","lat":"54.60170360","long":"-5.93341540","store_key":6446,"city":"Belfast"},{"name":"Radio Respect CIC","lat":"50.78284390","long":"-0.67892580","store_key":6454,"city":"Bognor Regis"},{"name":"Red Robin Records","lat":"57.14704480","long":"-2.09885380","store_key":6457,"city":"Aberdeen"},{"name":"Starfish records","lat":"51.35897840","long":"1.44239870","store_key":6461,"city":"Broadstairs"},{"name":"JB Cool Records","lat":"52.47378790","long":"1.74981460","store_key":6473,"city":"Lowestoft"},{"name":"FOPP","lat":"55.95320480","long":"-3.19492180","store_key":2949,"city":"Edinburgh"},{"name":"Vinyl Exchange","lat":"53.48253632","long":"-2.23552203","store_key":6496,"city":"Manchester"},{"name":"Spin It Records","lat":"53.74234090","long":"-0.33432270","store_key":6499,"city":"Hull"},{"name":"Quicksilver Music","lat":"53.64563370","long":"-3.00690007","store_key":6501,"city":"Southport"},{"name":"Audio Gold","lat":"51.58704080","long":"-0.13364450","store_key":6507,"city":"London"},{"name":"101 Collectors Records","lat":"51.21402740","long":"-0.80239803","store_key":6538,"city":"Farnham"},{"name":"Bear Tree Records","lat":"53.37917000","long":"-1.47721140","store_key":6548,"city":"Sheffield"},{"name":"Vintage Trax","lat":"52.29426470","long":"-1.95028540","store_key":6581,"city":"Redditch"},{"name":"Stall 7 Records","lat":"50.82615400","long":"-0.13878290","store_key":6585,"city":"Brighton"},{"name":"Musical Box","lat":"53.42329025","long":"-2.93877196","store_key":720,"city":"Liverpool"},{"name":"Black Slab Records","lat":"54.61796951","long":"-1.06953394","store_key":6596,"city":"Redcar"},{"name":"Fascinating Rhythms","lat":"54.13579559","long":"-0.79976398","store_key":6600,"city":"Malton"},{"name":"Pop Boutique Vinyl Record Store","lat":"53.40223694","long":"-2.97680402","store_key":6602,"city":"Liverpool"},{"name":"World of Echo","lat":"51.52914770","long":"-0.06948890","store_key":6629,"city":"London"},{"name":"Goldies Independent Music Hub & Coffee House","lat":"54.99476520","long":"-1.43046890","store_key":6645,"city":"South Shields"},{"name":"FOPP","lat":"52.95051100","long":"-1.14747000","store_key":2949,"city":"Nottingham"},{"name":"hmv","lat":"52.06245770","long":"-1.33323190","store_key":14,"city":"Banbury"},{"name":"Not Just A Record Shop","lat":"50.77414322","long":"0.29593399","store_key":6663,"city":"Eastbourne"},{"name":"Rockaboom","lat":"52.63524810","long":"-1.13501400","store_key":6664,"city":"Leicester"},{"name":"Vinyl Lounge","lat":"53.14505386","long":"-1.19611096","store_key":5607,"city":"Mansfield"},{"name":"Dyscworld Music Ltd","lat":"54.28516006","long":"-0.40123099","store_key":6665,"city":"Scarborough"},{"name":"Off The Beaten Tracks","lat":"53.36507416","long":"-0.00358300","store_key":6685,"city":"Louth"},{"name":"The Singles Bar","lat":"50.82814026","long":"-0.13800301","store_key":6686,"city":"Brighton"},{"name":"Goldrush Records","lat":"56.39892320","long":"-3.42853590","store_key":6688,"city":"Perth"},{"name":"Press to Play","lat":"52.63111670","long":"1.28829990","store_key":6709,"city":"Norwich"},{"name":"Courthouse Record Store","lat":"50.85722000","long":"0.59236850","store_key":6710,"city":"Hastings"},{"name":"7 Countess St","lat":"55.63290310","long":"-4.78508610","store_key":6718,"city":"Saltcoats"},{"name":"even flow","lat":"51.14177810","long":"0.26006190","store_key":6728,"city":"Tunbridge Wells"},{"name":"Palace Vinyl","lat":"51.41820500","long":"-0.08156300","store_key":6732,"city":"London"},{"name":"Next Door Records","lat":"51.50636940","long":"-0.23150560","store_key":6733,"city":"London"},{"name":"Action Records","lat":"53.75977707","long":"-2.69373703","store_key":6739,"city":"Preston"},{"name":"Snu-Peas","lat":"50.72771835","long":"-1.83691394","store_key":6740,"city":"Bournemouth"},{"name":"Rocks Off","lat":"53.61557770","long":"-2.15445209","store_key":6754,"city":"Rochdale"},{"name":"Rarekind Records","lat":"50.82796860","long":"-0.13587900","store_key":6755,"city":"Brighton"},{"name":"Rubadub","lat":"55.85699280","long":"-4.25596970","store_key":6759,"city":"Glasgow"},{"name":"Raves From The Grave","lat":"51.23112340","long":"-2.32090200","store_key":6768,"city":"Frome"},{"name":"Red House Records","lat":"51.56151320","long":"-1.78910010","store_key":6771,"city":"Swindon"},{"name":"Fopp","lat":"55.85883830","long":"-4.25715100","store_key":6790,"city":"Glasgow"},{"name":"rpmdiscs-vinyl records","lat":"54.72432070","long":"-1.37538370","store_key":6800,"city":"Wingate"},{"name":"Opus 13 Ltd","lat":"51.45737839","long":"-2.59805012","store_key":6802,"city":"Bristol"},{"name":"Caf√© OTO","lat":"51.54689960","long":"-0.07475670","store_key":6836,"city":"London"},{"name":"The Diskery Birmingham","lat":"52.47206116","long":"-1.89910495","store_key":6861,"city":"Birmingham"},{"name":"Good Time Collectables - CD's DVD Vinyl","lat":"53.44363022","long":"-2.97003293","store_key":6865,"city":"Liverpool"},{"name":"Record Fayre","lat":"55.85652240","long":"-4.24518390","store_key":6872,"city":"Glasgow"},{"name":"Peckings Records","lat":"51.50401306","long":"-0.24342901","store_key":6880,"city":"London"},{"name":"Abbazappa Record Shop","lat":"54.99480800","long":"-7.32409600","store_key":6883,"city":"Londonderry"},{"name":"Raves From The Grave","lat":"51.20449829","long":"-2.18121004","store_key":6768,"city":"Warminster"},{"name":"Boo Hoo Records","lat":"50.90759659","long":"-1.39358997","store_key":6886,"city":"Southampton"},{"name":"David's Bookshops","lat":"51.97863230","long":"-0.22815130","store_key":6893,"city":"Letchworth Garden City"},{"name":"Area 51 Records","lat":"51.87641907","long":"0.55340099","store_key":6896,"city":"Braintree"},{"name":"The Vinyl Revival Store","lat":"52.29361010","long":"-0.25382430","store_key":6921,"city":"Buckden"},{"name":"Ray's Records","lat":"52.09532040","long":"-1.94653580","store_key":6944,"city":"Evesham"},{"name":"Phils Vinyl Vault","lat":"50.60997140","long":"-2.45330600","store_key":6947,"city":"Weymouth"},{"name":"Hatters Hall","lat":"51.31389236","long":"0.89094001","store_key":6953,"city":"Faversham"},{"name":"Oxfam","lat":"55.87372870","long":"-4.29563730","store_key":500,"city":"Glasgow"},{"name":"People's Sound Records","lat":"51.51782910","long":"-0.20390400","store_key":6969,"city":"London"},{"name":"Payback Records","lat":"51.45386480","long":"-2.59324370","store_key":6970,"city":"Bristol"},{"name":"Rat Records","lat":"51.47406460","long":"-0.09359310","store_key":6973,"city":"London"},{"name":"Chameleon","lat":"57.14083660","long":"-2.11990590","store_key":6989,"city":"Aberdeen"},{"name":"hmv","lat":"51.88827896","long":"0.89725900","store_key":14,"city":"Colchester"},{"name":"hmv","lat":"53.38999190","long":"-2.59522450","store_key":14,"city":"Warrington"},{"name":"hmv","lat":"53.52355240","long":"-1.13768160","store_key":14,"city":"Doncaster"},{"name":"hmv","lat":"53.59298680","long":"-2.29591670","store_key":14,"city":"Bury"},{"name":"hmv","lat":"50.26425890","long":"-5.05263770","store_key":14,"city":"Truro"},{"name":"hmv","lat":"52.24612690","long":"0.71020470","store_key":14,"city":"Bury Saint Edmunds"},{"name":"Langley Mill Records","lat":"53.02067947","long":"-1.32791805","store_key":6990,"city":"Langley Mill"},{"name":"Vinyl Collectors and Sellers","lat":"51.06911320","long":"-1.79335410","store_key":6991,"city":"Salisbury"},{"name":"Chunes","lat":"50.60771970","long":"-2.45331280","store_key":6992,"city":"Weymouth"},{"name":"RPM Discs","lat":"54.72579956","long":"-1.37932301","store_key":6993,"city":"Wingate"},{"name":"Disc-o-Box","lat":"50.85674860","long":"-2.16099870","store_key":7011,"city":"Blandford Forum"},{"name":"Market Deeping Records","lat":"52.67399979","long":"-0.31089500","store_key":7017,"city":"Peterborough"},{"name":"Vinyl Hunter","lat":"52.24861480","long":"0.71218250","store_key":7021,"city":"Bury Saint Edmunds"},{"name":"Second Spin","lat":"50.83980390","long":"0.46959450","store_key":2386,"city":"Bexhill-on-Sea"},{"name":"Drew's Records","lat":"50.85188293","long":"0.56181902","store_key":7031,"city":"Hastings"},{"name":"Lilley's Vinyl Revival","lat":"51.28796900","long":"-2.47877600","store_key":7041,"city":"Radstock"},{"name":"Cafe Greenhouse","lat":"55.97473820","long":"-3.17134840","store_key":7049,"city":"Edinburgh"},{"name":"Merlin Records","lat":"51.63437510","long":"-0.09429310","store_key":7051,"city":"London"},{"name":"Banbury Emporium","lat":"52.06131050","long":"-1.33778180","store_key":7057,"city":"Banbury"},{"name":"Red Rock Records","lat":"50.71715927","long":"-1.98341596","store_key":7070,"city":"Poole"},{"name":"Alun Hughes","lat":"53.04571915","long":"-2.99280500","store_key":7072,"city":"Wrexham"},{"name":"Rough Trade Bristol","lat":"51.45665270","long":"-2.59364720","store_key":7085,"city":"Bristol"},{"name":"FortyFive Vinyl Caf√©","lat":"53.95720673","long":"-1.08632398","store_key":7086,"city":"York"},{"name":"Assai Records Edinburgh (HTS Scotland Ltd)","lat":"55.94661331","long":"-3.20301700","store_key":7091,"city":"Edinburgh"},{"name":"Let It Roll Records","lat":"51.54525290","long":"-0.14147230","store_key":7096,"city":"London"},{"name":"Boiler Room Records","lat":"50.71329000","long":"-1.98738180","store_key":7104,"city":"Poole"},{"name":"radio/ON","lat":"51.45411080","long":"-2.60199380","store_key":7111,"city":"Bristol"},{"name":"Sound On Wax","lat":"52.39910420","long":"0.26636490","store_key":7114,"city":"Ely"},{"name":"Stylus","lat":"51.98782910","long":"-0.18663060","store_key":7115,"city":"Baldock"},{"name":"Honest Jon's","lat":"51.53589040","long":"-0.12599220","store_key":7118,"city":"London"},{"name":"Dress Code","lat":"50.78848070","long":"-1.08232410","store_key":7124,"city":"Portsmouth"},{"name":"The Record Station","lat":"51.14785960","long":"-2.71449610","store_key":7140,"city":"Glastonbury"},{"name":"Snoopers Paradise Ltd","lat":"50.82633209","long":"-0.13872400","store_key":7146,"city":"Brighton"},{"name":"Spinderella Records","lat":"53.13683701","long":"-1.55619800","store_key":7148,"city":"Matlock"},{"name":"The Record Caf√©","lat":"53.79764175","long":"-1.75704503","store_key":7153,"city":"Bradford"},{"name":"G40 Records","lat":"55.85494995","long":"-4.23717403","store_key":7155,"city":"Glasgow"},{"name":"Flipside Vinyl & CDs","lat":"55.60548782","long":"-4.49589586","store_key":7156,"city":"Kilmarnock"},{"name":"Wall Of Sound","lat":"53.79893112","long":"-1.54147601","store_key":7167,"city":"Leeds"},{"name":"Vinyl Fiction","lat":"53.44687420","long":"-2.27763780","store_key":7181,"city":"Manchester"},{"name":"Dig & Delve","lat":"50.15200960","long":"-5.06639510","store_key":7187,"city":"Falmouth"},{"name":"Cloisters Arts & Antiques Centre","lat":"52.39985200","long":"0.26247550","store_key":7193,"city":"Ely"},{"name":"Play It Again","lat":"51.58822600","long":"-1.42684000","store_key":232,"city":"Wantage"},{"name":"Emortal Records Birmingham","lat":"52.42878890","long":"-1.92291440","store_key":7225,"city":"Birmingham"},{"name":"hmv","lat":"55.98019490","long":"-3.17889620","store_key":14,"city":"Edinburgh"},{"name":"hmv","lat":"53.64579960","long":"-1.77907380","store_key":14,"city":"Huddersfield"},{"name":"hmv","lat":"53.75810850","long":"-2.70164420","store_key":14,"city":"Preston"},{"name":"hmv","lat":"52.40144920","long":"-0.72738710","store_key":14,"city":"Kettering"},{"name":"High Street Books","lat":"53.36721039","long":"-2.00155210","store_key":7229,"city":"New Mills"},{"name":"Planet Rock","lat":"53.48442078","long":"-2.21443892","store_key":1801,"city":"Manchester"},{"name":"Mod Lang UK","lat":"52.36893240","long":"-2.71699490","store_key":7230,"city":"Ludlow"},{"name":"Cliffs","lat":"51.38821030","long":"1.39508295","store_key":7231,"city":"Margate"},{"name":"Skipton Sound Bar Ltd","lat":"53.96009445","long":"-2.01842093","store_key":7232,"city":"Skipton"},{"name":"Smugglers Record Shop","lat":"51.22471600","long":"1.40348330","store_key":7233,"city":"Deal"},{"name":"81 Renshaw/81 Records","lat":"53.40280533","long":"-2.97596502","store_key":7260,"city":"Liverpool"},{"name":"Train of Thought Emporium & Gallery","lat":"50.81537970","long":"-0.37117260","store_key":7265,"city":"Worthing"},{"name":"The Record Shed","lat":"54.77730400","long":"-1.57570810","store_key":7270,"city":"Durham"},{"name":"hmv","lat":"52.48115850","long":"-1.89324420","store_key":14,"city":"Birmingham"},{"name":"Hussar Records","lat":"50.73648940","long":"-3.48072720","store_key":7283,"city":"Exeter"},{"name":"Sound Vinyl, Second Hand Records at Bambino","lat":"51.41898240","long":"-0.07970360","store_key":7289,"city":"London"},{"name":"Flashback Records","lat":"51.53762054","long":"-0.09974400","store_key":179,"city":"London"},{"name":"Spun Out","lat":"52.23664474","long":"-0.90039301","store_key":7312,"city":"Northampton"},{"name":"Discovery Music","lat":"51.07733536","long":"-4.05710697","store_key":3133,"city":"Barnstaple"},{"name":"Cult Hero","lat":"50.82183090","long":"-0.13962780","store_key":7318,"city":"Brighton"},{"name":"Slipped Discs Brown Sugar","lat":"51.62623978","long":"0.41805300","store_key":7363,"city":"Billericay"},{"name":"Tonearm Vinyl","lat":"53.39265380","long":"-1.47660040","store_key":7367,"city":"Sheffield"},{"name":"Hundred Records","lat":"50.98858643","long":"-1.49648404","store_key":7382,"city":"Romsey"},{"name":"The Underworld","lat":"53.14378738","long":"-1.19280005","store_key":7446,"city":"Mansfield"},{"name":"Casbah Records London","lat":"51.48135820","long":"-0.01078390","store_key":7468,"city":"London"},{"name":"Elephant Records","lat":"51.06254764","long":"-1.31131608","store_key":7484,"city":"Winchester"},{"name":"Diverse Vinyl","lat":"51.58540470","long":"-2.99593530","store_key":7495,"city":"Newport"},{"name":"Lion Coffee + Records Clapton","lat":"51.55397034","long":"-0.05351500","store_key":7506,"city":"London"},{"name":"Rock-A-Billy's Records & Memorabilia","lat":"52.72398100","long":"-1.37058200","store_key":7528,"city":"Coalville"},{"name":"Mo'fidelity Records","lat":"56.71355810","long":"-2.46799940","store_key":7534,"city":"Montrose"},{"name":"Vinilo Record Store","lat":"50.90125640","long":"-1.40104810","store_key":7541,"city":"Southampton"},{"name":"Rocket Records","lat":"52.39817429","long":"-0.72673100","store_key":3457,"city":"Kettering"},{"name":"Black Pearl Vinyl","lat":"51.86626800","long":"-2.24671100","store_key":7555,"city":"Gloucester"},{"name":"Music One Vinyl","lat":"51.82400650","long":"-3.01951390","store_key":7556,"city":"Abergavenny"},{"name":"The Record Den","lat":"53.32335050","long":"-3.82665690","store_key":7568,"city":"Llandudno"},{"name":"hmv","lat":"53.95963770","long":"-1.08426760","store_key":14,"city":"York"},{"name":"hmv","lat":"54.57539080","long":"-1.23582320","store_key":14,"city":"Middlesbrough"},{"name":"HMV Telford","lat":"52.67671470","long":"-2.44625410","store_key":7611,"city":"Telford"},{"name":"Waxworks Vinyl","lat":"52.61845779","long":"-1.11762702","store_key":7612,"city":"Leicester"},{"name":"St Johns Wood Collectables","lat":"51.53261948","long":"-0.18122301","store_key":7613,"city":"London"},{"name":"Wah Wah Records","lat":"53.68371201","long":"-1.49678099","store_key":5279,"city":"Wakefield"},{"name":"Townsend Records","lat":"53.87065506","long":"-2.39197397","store_key":7640,"city":"Clitheroe"},{"name":"Atlantis Records","lat":"51.54990800","long":"-0.05498800","store_key":6114,"city":"London"},{"name":"Coast Vinyl","lat":"51.38701340","long":"1.38149220","store_key":7677,"city":"Margate"},{"name":"Veeez Emporium","lat":"51.35040930","long":"-2.97889910","store_key":7681,"city":"Weston-super-Mare"}]