[{"name":"Metal Throne Record Store","lat":"38.00341480","long":"23.67795980","store_key":143,"city":"Egaleo"},{"name":"To Diskadiko - Τo Δισκάδικο","lat":"37.97783050","long":"23.72579920","store_key":252,"city":"Athina"},{"name":"Stereodisc","lat":"40.63310242","long":"22.94184875","store_key":293,"city":"Thessaloniki"},{"name":"Habeat Records","lat":"37.97821600","long":"23.72535100","store_key":606,"city":"Athina"},{"name":"Music Machine Records","lat":"37.98314260","long":"23.73689400","store_key":620,"city":"Athina"},{"name":"playground record shop","lat":"40.62914658","long":"22.94967079","store_key":673,"city":"Thessaloniki"},{"name":"Imantas","lat":"37.97838974","long":"23.72156906","store_key":837,"city":"Athina"},{"name":"Music Works","lat":"38.03945330","long":"23.68987690","store_key":895,"city":"Athina"},{"name":"On Stage Records","lat":"40.63060640","long":"22.95084480","store_key":1030,"city":"Thessaloniki"},{"name":"Scarecrow Records","lat":"37.98673650","long":"23.73160250","store_key":1161,"city":"Athina"},{"name":"Rhythm Records","lat":"37.98568344","long":"23.73518181","store_key":1205,"city":"Athina"},{"name":"Crossroad","lat":"37.97615433","long":"23.72426414","store_key":1220,"city":"Athina"},{"name":"Liotropia Records","lat":"37.98540700","long":"23.73288900","store_key":1261,"city":"Athina"},{"name":"Magic Corner","lat":"35.36775540","long":"24.47545080","store_key":1335,"city":"Rethymno"},{"name":"Studio 52 κατάστημα μουσικής","lat":"40.63161087","long":"22.95145416","store_key":1613,"city":"Thessaloniki"},{"name":"Empire Vinyl-CD-DVD","lat":"40.63241310","long":"22.94944680","store_key":1638,"city":"Thessaloniki"},{"name":"Off The Record","lat":"37.94326782","long":"23.64801598","store_key":513,"city":"Pireas"},{"name":"A Strange Attractor","lat":"37.98483180","long":"23.73621620","store_key":1848,"city":"Athina"},{"name":"Ikaros Records","lat":"38.02011490","long":"23.79796982","store_key":1879,"city":"Athina"},{"name":"Discos Afrikana","lat":"37.97877260","long":"23.71438380","store_key":1961,"city":"Athina"},{"name":"Discobole","lat":"37.98321090","long":"23.73398230","store_key":2025,"city":"Athina"},{"name":"Underflow Records & Art Gallery","lat":"37.96459370","long":"23.72760200","store_key":2028,"city":"Athina"},{"name":"Palaiopoleio","lat":"35.36783200","long":"24.47489610","store_key":2086,"city":"Rethymno"},{"name":"Joe Records","lat":"38.24477800","long":"21.73289800","store_key":2236,"city":"Patra"},{"name":"MUSIC WORLD","lat":"35.18952530","long":"25.72029320","store_key":2311,"city":"Agios Nikolaos"},{"name":"Musicland","lat":"40.62815830","long":"22.94877150","store_key":2328,"city":"Thessaloniki"},{"name":"Vinyl Mania","lat":"40.63107930","long":"22.95136160","store_key":2500,"city":"Thessaloniki"},{"name":"To Pikap","lat":"40.63932970","long":"22.94428720","store_key":2525,"city":"Thessaloniki"},{"name":"7 + 7","lat":"37.97613907","long":"23.72473717","store_key":2589,"city":"Athina"},{"name":"Zacharias - ζαχαριας","lat":"37.97621536","long":"23.72520828","store_key":2590,"city":"Athina"},{"name":"Alone Music Store","lat":"40.62863250","long":"22.95000510","store_key":2824,"city":"Thessaloniki"},{"name":"Record House","lat":"37.94612503","long":"23.71171379","store_key":2931,"city":"Athina"},{"name":"Anazitisi Records","lat":"38.03680420","long":"23.72888374","store_key":3153,"city":"Athina"},{"name":"Solonos Records","lat":"37.98191071","long":"23.73637581","store_key":3154,"city":"Athina"},{"name":"Velona Records","lat":"40.62813568","long":"22.94917107","store_key":3268,"city":"Thessaloniki"},{"name":"Dirty Noise","lat":"37.98410230","long":"23.73595610","store_key":3297,"city":"Athina"},{"name":"Lo-Fi Concept","lat":"37.97837400","long":"23.73072600","store_key":3298,"city":"Athina"},{"name":"Art Rat Records","lat":"37.98515320","long":"23.73659897","store_key":3417,"city":"Athina"},{"name":"Syd Records","lat":"37.97806931","long":"23.72554207","store_key":3473,"city":"Athina"},{"name":"Old school Records","lat":"37.98561194","long":"23.73730669","store_key":3670,"city":"Athina"},{"name":"Phonomono Records","lat":"40.62961130","long":"22.95176030","store_key":3677,"city":"Thessaloniki"},{"name":"Blackspin Records","lat":"38.03391090","long":"23.81029410","store_key":4048,"city":"Athina"},{"name":"Vinyl Salvation","lat":"40.63672256","long":"22.93820190","store_key":4050,"city":"Thessaloniki"},{"name":"Update Records","lat":"37.97763443","long":"23.72994995","store_key":4321,"city":"Athina"},{"name":"Vinyl City","lat":"37.98617040","long":"23.74253870","store_key":4322,"city":"Athina"},{"name":"Kasseta Records","lat":"37.98052690","long":"23.72955280","store_key":4368,"city":"Athina"},{"name":"Shiva Records","lat":"37.97614290","long":"23.72469180","store_key":4389,"city":"Athina"},{"name":"Vinyl Microstore","lat":"37.97779846","long":"23.72533607","store_key":4433,"city":"Athina"},{"name":"Mr. CD","lat":"38.46649933","long":"23.59672928","store_key":4035,"city":"Khalkis"},{"name":"Vinylio","lat":"37.98295593","long":"23.73301506","store_key":3310,"city":"Athina"},{"name":"Music Center","lat":"37.78579510","long":"20.89673380","store_key":4809,"city":"Zakinthos"},{"name":"360 RECORD STORE","lat":"37.97782898","long":"23.70926476","store_key":4886,"city":"Athina"},{"name":"Musical","lat":"38.24617386","long":"21.73296547","store_key":4933,"city":"Patra"},{"name":"Vinylio Record Store Cafe Bar","lat":"37.98483060","long":"23.73194700","store_key":4989,"city":"Athina"},{"name":"Le Disque Noir","lat":"37.98514175","long":"23.73249817","store_key":5096,"city":"Athina"},{"name":"Reload Stores","lat":"37.98430880","long":"23.73191790","store_key":5097,"city":"Athina"},{"name":"Lōtós","lat":"40.63267899","long":"22.94869995","store_key":5282,"city":"Thessaloniki"},{"name":"Fokionos","lat":"37.99631119","long":"23.73555756","store_key":5366,"city":"Athina"},{"name":"Chameleon Audio","lat":"37.95459366","long":"23.73872375","store_key":5370,"city":"Athina"},{"name":"Rural Record Store","lat":"35.29448900","long":"24.90560800","store_key":5504,"city":"Sisarcha"},{"name":"Sound Effect Records","lat":"37.98985450","long":"23.73536680","store_key":5626,"city":"Athina"},{"name":"Rythmos Music Store","lat":"38.04257780","long":"23.75273610","store_key":5656,"city":"Athina"},{"name":"Entropia Records","lat":"37.99940130","long":"23.72584680","store_key":5789,"city":"Athina"},{"name":"Walk the line tattoo studio & records","lat":"39.63574970","long":"22.41821630","store_key":6049,"city":"Larisa"},{"name":"Diskorama","lat":"35.33704330","long":"25.13404920","store_key":6099,"city":"Iraklio"},{"name":"Plan 59","lat":"37.98560560","long":"23.73729630","store_key":6105,"city":"Athina"},{"name":"LA SI DO","lat":"37.94646570","long":"23.71373060","store_key":6113,"city":"Athina"},{"name":"Bowel of Noise","lat":"37.98495450","long":"23.73196340","store_key":6214,"city":"Athina"},{"name":"Grendel Metal Store","lat":"41.11548233","long":"25.40351105","store_key":6284,"city":"Komotini"},{"name":"Vinylkiosk","lat":"38.04196450","long":"23.75577070","store_key":6300,"city":"Athina"},{"name":"Diskopoleion Music Store","lat":"35.36897460","long":"24.47488390","store_key":6367,"city":"Rethymno"},{"name":"Homcore, Audio Machines & Vinyl","lat":"37.97427960","long":"23.73211120","store_key":6424,"city":"Athina"},{"name":"Rock & Roll Circus","lat":"37.98153305","long":"23.73742104","store_key":608,"city":"Athina"},{"name":"Aris Records","lat":"37.97620810","long":"23.72451380","store_key":6516,"city":"Athina"},{"name":"Steel Gallery Records","lat":"40.62954490","long":"22.95116510","store_key":6533,"city":"Thessaloniki"},{"name":"Zoulas Spyridon","lat":"39.62107468","long":"19.91720963","store_key":6681,"city":"Kerkira"},{"name":"Music Emporioum","lat":"37.97613907","long":"23.72470093","store_key":6887,"city":"Athina"},{"name":"Rock Rolla","lat":"37.97615433","long":"23.72442245","store_key":6888,"city":"Athina"},{"name":"Take Give","lat":"40.62920640","long":"22.94917160","store_key":7183,"city":"Thessaloniki"},{"name":"Chronontoulapo - Vintage Shop","lat":"35.51577377","long":"24.01890373","store_key":7247,"city":"Chania"},{"name":"Mousiko Magazi","lat":"37.78644460","long":"20.89816420","store_key":7271,"city":"Zakinthos"},{"name":"Haris","lat":"37.97615051","long":"23.72485924","store_key":7345,"city":"Athina"},{"name":"Noise Records","lat":"40.62999800","long":"22.95140900","store_key":7436,"city":"Thessaloniki"},{"name":"Mr. Vinylios","lat":"37.97614288","long":"23.72469139","store_key":7454,"city":"Athina"},{"name":"Aerakis","lat":"35.33889960","long":"25.13529380","store_key":7486,"city":"Heraklion"},{"name":"Record Lovers","lat":"38.02120700","long":"23.80130500","store_key":7631,"city":"Athina"},{"name":"Vinilio Patras","lat":"38.25173920","long":"21.74012640","store_key":7649,"city":"Patra"}]