[{"name":"Lamma Vinyl","lat":"22.22576520","long":"114.11174670","store_key":36,"city":"Hong Kong"},{"name":"Time Traveler","lat":"22.27762794","long":"114.17688751","store_key":246,"city":"Hong Kong"},{"name":"White Noise Records","lat":"22.32248790","long":"114.16752760","store_key":247,"city":"Hong Kong"},{"name":"Zoo Records","lat":"22.31641950","long":"114.17023940","store_key":508,"city":"Hong Kong"},{"name":"Infree Records","lat":"22.31598290","long":"114.17194240","store_key":582,"city":"Hong Kong"},{"name":"Vinyl Hero","lat":"22.33078450","long":"114.16189660","store_key":969,"city":"Hong Kong"},{"name":"Select 18","lat":"22.28339386","long":"114.15077209","store_key":1133,"city":"Hong Kong"},{"name":"Analog Dept. Records","lat":"22.30927600","long":"114.22519000","store_key":1142,"city":"Unknown"},{"name":"Walls of Sound","lat":"22.28267820","long":"114.15406400","store_key":1247,"city":"Hong Kong"},{"name":"Yuan Hua Company","lat":"22.33456300","long":"114.19924300","store_key":1347,"city":"Hong Kong"},{"name":"Stone Cold Records","lat":"22.28342640","long":"114.15449050","store_key":1654,"city":"Hong Kong"},{"name":"Win Win Shop","lat":"22.31796600","long":"114.17067600","store_key":1963,"city":"Hong Kong"},{"name":"Old Sound Collection","lat":"22.31605750","long":"114.17036330","store_key":2182,"city":"Hong Kong"},{"name":"Mahka","lat":"22.28556710","long":"114.14860180","store_key":2476,"city":"Hong Kong"},{"name":"HK68 黑膠專門店","lat":"22.35552406","long":"114.12601471","store_key":3238,"city":"Hong Kong"},{"name":"Oldsoulvinyl","lat":"22.29893494","long":"114.17557526","store_key":3607,"city":"Hong Kong"},{"name":"Death By Torturing Records","lat":"22.31152870","long":"114.18650250","store_key":3638,"city":"Hong Kong"},{"name":"Hang Sing LP Records","lat":"22.33063450","long":"114.16029260","store_key":3910,"city":"Hong Kong"},{"name":"Pro Sound","lat":"22.28385544","long":"114.15588379","store_key":4405,"city":"Hong Kong"},{"name":"Records Rendezvous","lat":"22.33784866","long":"114.19989777","store_key":4406,"city":"Hong Kong"},{"name":"VIBE Book & Music Shop","lat":"22.26475090","long":"114.00069170","store_key":5048,"city":"Hong Kong"},{"name":"Music Boutique","lat":"22.31603622","long":"114.17031860","store_key":5342,"city":"Hong Kong"},{"name":"Potato Head Hong Kong","lat":"22.28554200","long":"114.14032500","store_key":5490,"city":"Hong Kong"},{"name":"Collectables","lat":"22.28226471","long":"114.16152954","store_key":5631,"city":"Hong Kong"},{"name":"Ho","lat":"22.32952610","long":"114.16278530","store_key":5844,"city":"Hong Kong"},{"name":"Choice Hi Fi","lat":"22.28376770","long":"114.15588379","store_key":6108,"city":"Hong Kong"},{"name":"Loop Records","lat":"22.31012960","long":"114.22228550","store_key":6425,"city":"Hong Kong"},{"name":"The Beat Records","lat":"22.31810310","long":"114.17068340","store_key":6682,"city":"Hong Kong"},{"name":"Classic Shop","lat":"22.28341840","long":"114.15449250","store_key":6795,"city":"Hong Kong"},{"name":"Sam The Record Man","lat":"22.27748600","long":"114.18146300","store_key":7170,"city":"Hong Kong"},{"name":"Shun Cheong Record Co Ltd","lat":"22.31821000","long":"114.16993900","store_key":7632,"city":"Hong Kong"}]