[{"name":"Free Bird Music","lat":"45.80163130","long":"15.95883360","store_key":330,"city":"Zagreb"},{"name":"Ezop Antikvarijat","lat":"45.55756040","long":"18.67587990","store_key":615,"city":"Osijek"},{"name":"PDV Records x Merchandise","lat":"45.80978394","long":"15.95212555","store_key":1284,"city":"Zagreb"},{"name":"Karma Music Shop","lat":"45.79928000","long":"15.94875380","store_key":1559,"city":"Zagreb"},{"name":"Dallas Music Shop","lat":"45.32731090","long":"14.43909390","store_key":1649,"city":"Rijeka"},{"name":"CROATIA RECORDS - Music Shop","lat":"45.81220500","long":"15.97527800","store_key":1912,"city":"Zagreb"},{"name":"The Garden Brewery","lat":"45.79272730","long":"16.03269150","store_key":2470,"city":"Zagreb"},{"name":"Dancing Bear","lat":"45.81222920","long":"15.97217110","store_key":2664,"city":"Zagreb"},{"name":"Dirty Old Shop","lat":"45.80291367","long":"15.96154785","store_key":3719,"city":"Zagreb"},{"name":"ROXY","lat":"45.80141449","long":"15.96339321","store_key":4471,"city":"Zagreb"},{"name":"CROATIA RECORDS MUSIC SHOP","lat":"45.32633040","long":"14.44546080","store_key":4759,"city":"Rijeka"},{"name":"Antikvarijat & \"Marul\"","lat":"44.11801910","long":"15.23429585","store_key":5174,"city":"Zadar"},{"name":"Music Shop Koteks","lat":"43.50819397","long":"16.45133209","store_key":5891,"city":"Split"},{"name":"Woodstock record shop","lat":"45.80213830","long":"15.96031100","store_key":6142,"city":"Zagreb"},{"name":"Magic Records Shop","lat":"45.79209137","long":"15.91208172","store_key":7316,"city":"Zagreb"},{"name":"Aquarius Music Shop","lat":"45.81180310","long":"15.97229160","store_key":7343,"city":"Zagreb"}]