[{"name":"Wave","lat":"47.50093079","long":"19.05533218","store_key":168,"city":"Budapest"},{"name":"Lemezkuckó CD Store","lat":"47.50374222","long":"19.06652832","store_key":342,"city":"Budapest"},{"name":"Kalóz Records","lat":"47.49293400","long":"19.06839100","store_key":454,"city":"Budapest"},{"name":"Rockin' Box","lat":"47.49989700","long":"19.05643272","store_key":623,"city":"Budapest"},{"name":"musicland.hu","lat":"47.50137680","long":"19.07217450","store_key":931,"city":"Budapest"},{"name":"Média pont","lat":"47.51458740","long":"19.05021477","store_key":952,"city":"Budapest"},{"name":"LemezPiac - The biggest Vinyl Record & CD Fair in town","lat":"47.50978537","long":"19.08998343","store_key":1259,"city":"Budapest"},{"name":"Neon Music","lat":"47.50119730","long":"19.07233700","store_key":1766,"city":"Budapest"},{"name":"Rock Diszkont","lat":"47.50687027","long":"19.07134247","store_key":2410,"city":"Budapest"},{"name":"Liszt Ferenc könyv- és zeneműbolt","lat":"47.49281693","long":"19.07059860","store_key":2452,"city":"Budapest"},{"name":"Headbanger","lat":"47.49252890","long":"19.06071340","store_key":2978,"city":"Budapest"},{"name":"Rock's CD","lat":"47.49483520","long":"19.06586820","store_key":3451,"city":"Budapest"},{"name":"777Zenebolt","lat":"46.96465280","long":"18.93856180","store_key":3518,"city":"Dunaújváros"},{"name":"Stereo Kft.","lat":"47.47697449","long":"19.04454422","store_key":3727,"city":"Budapest"},{"name":"AktRecords","lat":"47.50478990","long":"19.05928520","store_key":4877,"city":"Budapest"},{"name":"Hanglemez","lat":"47.50309372","long":"19.06572723","store_key":4968,"city":"Budapest"},{"name":"Metro-Nom Hanglemezbolt","lat":"47.51261700","long":"19.05583800","store_key":5098,"city":"Budapest"},{"name":"hanglemeztasak.hu","lat":"47.49935532","long":"19.07379913","store_key":5245,"city":"Budapest"},{"name":"Deep","lat":"47.50774765","long":"19.06460381","store_key":5545,"city":"Budapest"},{"name":"Laci Bácsi","lat":"47.50200653","long":"19.06521034","store_key":5568,"city":"Budapest"},{"name":"CD Pince","lat":"47.50165939","long":"19.06788635","store_key":5592,"city":"Budapest"},{"name":"Vintage Records Hanglemezbolt","lat":"47.50054590","long":"19.06828320","store_key":5846,"city":"Budapest"},{"name":"Newport Records","lat":"47.50428170","long":"19.06420180","store_key":6178,"city":"Budapest"},{"name":"Hammer Music Cave (S.Ú.L.Y. Ltd.)","lat":"47.47785187","long":"19.04388809","store_key":6193,"city":"Budapest"},{"name":"Play Records","lat":"47.68902200","long":"17.63304390","store_key":7044,"city":"Győr"},{"name":"Victor Audio","lat":"46.90679169","long":"19.69625664","store_key":7317,"city":"Kecskemét"},{"name":"Vinyl Café Hanglemezbolt","lat":"47.52580261","long":"21.61862183","store_key":7515,"city":"Debrecen"}]