[{"name":"Warung Musik","lat":"-6.24458780","long":"106.80083160","store_key":838,"city":"Jakarta"},{"name":"TWINS MUSIC","lat":"-6.24474530","long":"106.80070200","store_key":848,"city":"Jakarta"},{"name":"Rewind Records","lat":"-8.65354061","long":"115.13225555","store_key":1252,"city":"North Kuta"},{"name":"Heyfolks!","lat":"-6.25519020","long":"106.78969240","store_key":1497,"city":"Jakarta"},{"name":"Mega Disc","lat":"-7.26580250","long":"112.76599170","store_key":2177,"city":"Surabaya"},{"name":"Floating store Record","lat":"-6.24436420","long":"106.80041880","store_key":2338,"city":"Jakarta"},{"name":"Millers Records","lat":"-8.66726620","long":"115.15787950","store_key":2527,"city":"North Kuta"},{"name":"Gudang Sarinah Ekosistem","lat":"-6.24605550","long":"106.84753180","store_key":2666,"city":"Jakarta"},{"name":"Paper Pot Records","lat":"-6.24419930","long":"106.79750060","store_key":2869,"city":"Jakarta"},{"name":"PHR (Piringan Hitam Recordstore)","lat":"-6.22787030","long":"106.79885200","store_key":2870,"city":"Jakarta"},{"name":"Laidback Blues Record Store","lat":"-6.24000170","long":"106.81202450","store_key":3063,"city":"Jakarta"},{"name":"Movement","lat":"-6.31063414","long":"106.79668427","store_key":3600,"city":"Jakarta"},{"name":"Grieve Records","lat":"-6.28343590","long":"106.79577590","store_key":3877,"city":"Jakarta"},{"name":"Lokananta Records","lat":"-7.55777430","long":"110.79552860","store_key":4859,"city":"Surakarta"},{"name":"Districtwax Record","lat":"-6.25815480","long":"106.82039670","store_key":5031,"city":"Jakarta"},{"name":"Musick Bus Store","lat":"-5.15489000","long":"119.43657600","store_key":5216,"city":"Sulawesi"},{"name":"Anti Music Shop","lat":"-6.23711080","long":"106.75927150","store_key":6015,"city":"Jakarta"},{"name":"Bhang Records","lat":"-6.89998000","long":"107.63647000","store_key":6016,"city":"Bandung"},{"name":"Toko Musik Luwes","lat":"-7.82767700","long":"110.36641140","store_key":6030,"city":"Yogyakarta"},{"name":"Quickening Bandung","lat":"-6.89697600","long":"107.61666200","store_key":7105,"city":"Bandung"},{"name":"Lian Records","lat":"-6.19927820","long":"106.84004610","store_key":7319,"city":"Jakarta"},{"name":"RAD RECORDS STORE","lat":"-6.23986920","long":"106.81210860","store_key":7384,"city":"Jakarta"},{"name":"Duta Suara Musik","lat":"-6.18440520","long":"106.82483870","store_key":7516,"city":"Jakarta"}]