[{"name":"InDub Reggae Store","lat":"53.34470110","long":"-6.26345160","store_key":69,"city":"Dublin"},{"name":"Golden Discs","lat":"52.66368540","long":"-8.62521610","store_key":133,"city":"Limerick"},{"name":"Rollercoaster Records","lat":"52.65303421","long":"-7.25327396","store_key":181,"city":"Kilkenny"},{"name":"Plugd","lat":"51.89874268","long":"-8.47618675","store_key":182,"city":"Cork"},{"name":"Dungarvan Music Shop (Ben O'Neill)","lat":"52.08947754","long":"-7.62386799","store_key":198,"city":"Dungarvan"},{"name":"Golden Discs","lat":"51.88040920","long":"-8.50753080","store_key":133,"city":"Cork"},{"name":"Classified Records","lat":"54.00291530","long":"-6.40334810","store_key":535,"city":"Dundalk"},{"name":"Mojos Records","lat":"53.34576970","long":"-6.26287720","store_key":554,"city":"Dublin"},{"name":"Vinyl Dublin","lat":"53.28959656","long":"-6.13017416","store_key":738,"city":"Dublin"},{"name":"Golden Discs","lat":"52.35481600","long":"-7.69143450","store_key":133,"city":"Clonmel"},{"name":"Rainbow Records","lat":"52.25860596","long":"-7.11197996","store_key":1018,"city":"Waterford"},{"name":"Golden Discs","lat":"53.17811210","long":"-6.79803020","store_key":133,"city":"Newbridge"},{"name":"Liber Bookshop","lat":"54.27141660","long":"-8.47528390","store_key":1488,"city":"Sligo"},{"name":"Tower Records","lat":"53.34224860","long":"-6.25775520","store_key":1621,"city":"Dublin"},{"name":"Custys Traditional Music Shop","lat":"52.84335327","long":"-8.98267460","store_key":1669,"city":"Ennis"},{"name":"Golden Discs","lat":"53.65411190","long":"-6.68753780","store_key":133,"city":"Navan"},{"name":"Discovery","lat":"53.27552270","long":"-7.49167290","store_key":1892,"city":"Tullamore"},{"name":"Golden Discs","lat":"53.34105890","long":"-6.22454870","store_key":133,"city":"Dublin"},{"name":"Repall Skateshop","lat":"51.89807540","long":"-8.47962140","store_key":2174,"city":"Cork"},{"name":"Bell, Book & Candle","lat":"53.27001760","long":"-9.06057820","store_key":2178,"city":"Galway"},{"name":"Sound Cellar","lat":"53.34311860","long":"-6.25935320","store_key":2243,"city":"Dublin"},{"name":"Redbox Records","lat":"53.33858490","long":"-6.42457030","store_key":2442,"city":"Dublin"},{"name":"OMG @ Zhivago","lat":"53.27293777","long":"-9.05220509","store_key":2501,"city":"Galway"},{"name":"TRAX Phone Repair","lat":"53.03216553","long":"-7.29600286","store_key":2502,"city":"Portlaoise"},{"name":"Golden Discs","lat":"52.26004791","long":"-7.11048222","store_key":133,"city":"Waterford"},{"name":"Multisound Record Store","lat":"53.99160385","long":"-7.36008978","store_key":3501,"city":"Cavan"},{"name":"Golden Discs","lat":"53.34004640","long":"-6.26143290","store_key":133,"city":"Dublin"},{"name":"Harlequinn Records","lat":"52.67631750","long":"-6.29142930","store_key":3525,"city":"Gorey"},{"name":"Golden Discs","lat":"54.27068910","long":"-8.47709280","store_key":133,"city":"SC"},{"name":"Claddagh Records Ltd","lat":"53.34510422","long":"-6.26406813","store_key":3802,"city":"Dublin"},{"name":"Golden Discs","lat":"51.89829090","long":"-8.47383920","store_key":133,"city":"Cork"},{"name":"Golden Discs","lat":"53.29231400","long":"-6.13492400","store_key":133,"city":"Dublin"},{"name":"The Record Room","lat":"54.27047740","long":"-8.47401010","store_key":1107,"city":"Sligo"},{"name":"Freebird Records","lat":"53.34306717","long":"-6.26110411","store_key":4324,"city":"Dublin"},{"name":"Mother Jones' Flea Market","lat":"51.90156710","long":"-8.46652850","store_key":4508,"city":"Cork"},{"name":"Hen's Teeth","lat":"53.33675980","long":"-6.27515310","store_key":4701,"city":"Dublin"},{"name":"Dive Records","lat":"52.25788010","long":"-7.11188750","store_key":4789,"city":"Waterford"},{"name":"Golden Discs","lat":"53.35332920","long":"-6.39010430","store_key":133,"city":"Dublin"},{"name":"Records & Relics","lat":"51.89707380","long":"-8.48294480","store_key":4931,"city":"Cork"},{"name":"Steamboat Records","lat":"52.66041900","long":"-8.63651000","store_key":4981,"city":"Limerick"},{"name":"Dingle Record Shop","lat":"52.14144516","long":"-10.27061272","store_key":5005,"city":"Dingle"},{"name":"Golden Discs","lat":"53.39767890","long":"-6.18911050","store_key":133,"city":"Dublin"},{"name":"All City","lat":"53.34456000","long":"-6.26334000","store_key":5153,"city":"Dublin"},{"name":"Golden Discs","lat":"53.39329400","long":"-6.39017630","store_key":133,"city":"Dublin"},{"name":"Optic Music @ The Big Romance","lat":"53.35341310","long":"-6.25919940","store_key":5453,"city":"Dublin"},{"name":"Golden Discs","lat":"52.26826970","long":"-9.70657090","store_key":133,"city":"Tralee"},{"name":"The Music, CD & Record Fair","lat":"53.34481430","long":"-6.26470709","store_key":5615,"city":"Dublin"},{"name":"Blackwax records","lat":"53.34177970","long":"-6.27857750","store_key":5699,"city":"Dublin"},{"name":"The RAGE-Record Art Game Emporium","lat":"53.34198761","long":"-6.26380301","store_key":5747,"city":"Dublin"},{"name":"Pleasure","lat":"53.27359750","long":"-9.05269870","store_key":5770,"city":"Galway"},{"name":"Blind Dog Vinyl","lat":"53.33945280","long":"-6.27353250","store_key":5842,"city":"Dublin"},{"name":"Music Zone","lat":"51.87745285","long":"-8.43795204","store_key":6201,"city":"Cork"},{"name":"Golden Discs","lat":"52.33854560","long":"-6.46164500","store_key":133,"city":"Wexford"},{"name":"Golden Discs","lat":"51.88615680","long":"-8.39611390","store_key":133,"city":"Cork"},{"name":"Tower Records","lat":"53.34866520","long":"-6.26022340","store_key":1621,"city":"Dublin"},{"name":"The Bens","lat":"53.48815490","long":"-10.01929390","store_key":6346,"city":"Clifden"},{"name":"Golden Discs","lat":"53.33633120","long":"-6.24950610","store_key":133,"city":"Dublin"},{"name":"Golden Discs","lat":"53.28685900","long":"-6.24237470","store_key":133,"city":"Dublin"},{"name":"South East Records","lat":"52.33665290","long":"-6.46088340","store_key":6885,"city":"Wexford"},{"name":"Spindizzy Records","lat":"53.34252090","long":"-6.26393000","store_key":6928,"city":"Dublin"},{"name":"AbsysRec","lat":"53.36648770","long":"-6.24619440","store_key":7053,"city":"Dublin"},{"name":"Golden Discs","lat":"53.34789920","long":"-6.26576250","store_key":133,"city":"Dublin"},{"name":"Golden Discs","lat":"53.42397680","long":"-7.93557880","store_key":133,"city":"Athlone"},{"name":"Bunker Vinyl","lat":"51.90112290","long":"-8.47143560","store_key":7526,"city":"Cork"},{"name":"The Secret Book and Record Store","lat":"53.34306800","long":"-6.26100480","store_key":7559,"city":"Dublin"},{"name":"Beat That Records","lat":"52.79784730","long":"-6.15287800","store_key":7634,"city":"Arklow"}]