[{"name":"Hasrita - קיבוץ מעברות","lat":"32.36419678","long":"34.90573120","store_key":638,"city":"Ma'abarot"},{"name":"Record Store","lat":"32.07065964","long":"34.82260895","store_key":683,"city":"Ramat Gan"},{"name":"Picolo - פיקולו","lat":"33.00697470","long":"35.09302380","store_key":1141,"city":"Nahariya"},{"name":"Ozen Darom","lat":"32.05943790","long":"34.77289710","store_key":1519,"city":"Tel Aviv-Yafo"},{"name":"Bside Haifa - ביסייד חיפה","lat":"32.80930710","long":"34.99401474","store_key":1616,"city":"Haifa"},{"name":"Disc Center","lat":"32.07510800","long":"34.77494200","store_key":1619,"city":"Tel Aviv-Yafo"},{"name":"bvrly","lat":"32.06163480","long":"34.77438220","store_key":1694,"city":"Tel Aviv-Yafo"},{"name":"Black Hole","lat":"32.07657110","long":"34.77658070","store_key":2154,"city":"Tel Aviv-Yafo"},{"name":"Uganda Bar","lat":"32.06083320","long":"34.76985910","store_key":2377,"city":"Tel Aviv-Yafo"},{"name":"Beatnik - ביטניק תקליטים","lat":"32.05737110","long":"34.76695100","store_key":2625,"city":"Tel Aviv-Yafo"},{"name":"The Storage Unit","lat":"32.07420731","long":"34.79941940","store_key":2972,"city":"Tel Aviv-Yafo"},{"name":"Gali Taklitim - גלי תקליטים","lat":"31.78190820","long":"35.21809170","store_key":3445,"city":"Jerusalem"},{"name":"Holit Records","lat":"32.07194100","long":"34.76872250","store_key":3951,"city":"Tel Aviv-Yafo"},{"name":"Krembo Records","lat":"32.05723572","long":"34.77082062","store_key":4060,"city":"Tel Aviv-Yafo"},{"name":"Beit Hataklit","lat":"32.05541992","long":"34.84938812","store_key":4097,"city":"Ramat Gan"},{"name":"Kaplan Records","lat":"32.05635690","long":"34.77110140","store_key":4213,"city":"Tel Aviv-Yafo"},{"name":"Simon's Record Store - התקליטיה של סימון","lat":"31.78009000","long":"35.21528710","store_key":4378,"city":"Jerusalem"},{"name":"Azoulay - אזולאי","lat":"32.05468410","long":"34.75627760","store_key":4549,"city":"Tel Aviv-Yafo"},{"name":"Chompi Records","lat":"32.07651120","long":"34.77446050","store_key":4584,"city":"Tel Aviv-Yafo"},{"name":"Panic","lat":"31.89572334","long":"34.81095123","store_key":4962,"city":"Rehovot"},{"name":"Chompi Records","lat":"32.05536270","long":"34.77173996","store_key":4584,"city":"Tel Aviv-Yafo"},{"name":"Third Ear","lat":"32.07431840","long":"34.77584860","store_key":5281,"city":"Tel Aviv-Yafo"},{"name":"Muzmarket Haifa - music on vinyl","lat":"32.81458330","long":"34.99744460","store_key":5787,"city":"Haifa"},{"name":"Nuweiba","lat":"32.06033870","long":"34.76931170","store_key":5794,"city":"Tel Aviv-Yafo"},{"name":"HaTav HaShmini","lat":"32.07336120","long":"34.78001950","store_key":5821,"city":"Tel Aviv-Yafo"},{"name":"Rockstore1970","lat":"31.96393350","long":"34.80238620","store_key":6044,"city":"Rishon LeTsiyon"},{"name":"Thrash Addiction - חנות תקליטים טראש אדיקשן","lat":"32.07171150","long":"34.76929690","store_key":6397,"city":"Tel Aviv-Yafo"},{"name":"The Third Ear Haifa - האוזן השלישית","lat":"32.80348270","long":"34.98492560","store_key":6487,"city":"Haifa"},{"name":"Hod Hamahat Record Shop","lat":"32.08993149","long":"34.77908325","store_key":6924,"city":"Tel Aviv-Yafo"},{"name":"Spinal Tap Vinyl","lat":"32.05342484","long":"34.75621414","store_key":7375,"city":"Tel Aviv-Yafo"}]