[{"name":"Shah Music Centre","lat":"28.65226600","long":"77.23494890","store_key":362,"city":"New Delhi"},{"name":"Pagal Records Store","lat":"28.55367620","long":"77.19465650","store_key":429,"city":"New Delhi"},{"name":"Voice Of Kerala","lat":"11.24940070","long":"75.78028290","store_key":636,"city":"Kozhikode"},{"name":"Music Circle","lat":"19.21290920","long":"72.86745930","store_key":640,"city":"Mumbai"},{"name":"Audiophile Goa","lat":"15.49021350","long":"73.82977390","store_key":1015,"city":"Panjim"},{"name":"Mahatobar Distribution","lat":"12.97436333","long":"77.60966492","store_key":1119,"city":"Bengaluru"},{"name":"New Gramophone House","lat":"28.65596610","long":"77.23518790","store_key":1996,"city":"New Delhi"},{"name":"Mohan Music","lat":"13.06338787","long":"80.26419067","store_key":2412,"city":"Chennai"},{"name":"Vibrations","lat":"22.55721510","long":"88.35458640","store_key":1652,"city":"Kolkata"},{"name":"The Revolver Club","lat":"19.03442700","long":"72.84248600","store_key":6683,"city":"Mumbai"}]