[{"name":"Frau Musika","lat":"45.06772614","long":"7.69056702","store_key":2,"city":"Torino"},{"name":"Not Perfect","lat":"41.90063260","long":"12.53627160","store_key":37,"city":"Roma"},{"name":"Vinylstrong Alba","lat":"44.70118300","long":"8.03767800","store_key":126,"city":"Alba"},{"name":"Dischi Fenice","lat":"43.77786636","long":"11.25572014","store_key":205,"city":"Firenze"},{"name":"Black Widow Records","lat":"44.41230920","long":"8.92902020","store_key":245,"city":"Genova"},{"name":"Indie.it","lat":"45.66669410","long":"12.24467930","store_key":248,"city":"Treviso"},{"name":"Matrix Music Store","lat":"45.18501080","long":"9.15359390","store_key":249,"city":"Pavia"},{"name":"Gap Record Store Pisa","lat":"43.71313670","long":"10.40494850","store_key":268,"city":"Pisa"},{"name":"Flexi Dischi Record Store","lat":"44.42301559","long":"11.91465855","store_key":299,"city":"Lugo"},{"name":"Lullabies","lat":"45.61338043","long":"9.37286568","store_key":302,"city":"Vimercate"},{"name":"Massive Music Store","lat":"45.48207474","long":"9.19787884","store_key":324,"city":"Milano"},{"name":"Radiation Records","lat":"41.89130900","long":"12.53201800","store_key":3,"city":"Roma"},{"name":"Tattoo Records","lat":"40.84851074","long":"14.25600338","store_key":377,"city":"Napoli"},{"name":"Transylvania Dischi","lat":"43.52257190","long":"13.24412500","store_key":390,"city":"Jesi"},{"name":"Centro Della Musica","lat":"45.65123840","long":"9.84795290","store_key":420,"city":"Chiuduno"},{"name":"Screen Studio S.r.l. - Apple Trento","lat":"46.05581284","long":"11.11602020","store_key":434,"city":"Trento"},{"name":"We Rock","lat":"44.43790600","long":"11.60865700","store_key":468,"city":"Castel Guelfo di Bologna"},{"name":"Musicomania","lat":"43.56567764","long":"11.52935410","store_key":492,"city":"San Giovanni Valdarno"},{"name":"Vinileria","lat":"41.47320010","long":"12.90811880","store_key":541,"city":"Latina"},{"name":"Discobolandia","lat":"44.50109482","long":"11.37047768","store_key":602,"city":"Bologna"},{"name":"Centro Musica","lat":"41.12588160","long":"16.86476490","store_key":665,"city":"Bari"},{"name":"Mariposa","lat":"45.46461420","long":"9.19191430","store_key":699,"city":"Milano"},{"name":"Wanted Record","lat":"41.11248180","long":"16.87190540","store_key":719,"city":"Bari"},{"name":"Musical Box","lat":"45.84416080","long":"8.66333660","store_key":720,"city":"Besozzo"},{"name":"Media World","lat":"44.99936140","long":"9.07413600","store_key":722,"city":"Montebello della Battaglia"},{"name":"Caru' - Libreria Dischi","lat":"45.66111550","long":"8.79144260","store_key":724,"city":"Gallarate"},{"name":"Tony's Records / Vergamini Moreno","lat":"44.10978699","long":"10.40895176","store_key":851,"city":"Castelnuovo di Garfagnana"},{"name":"Diet & Fitness","lat":"44.05163430","long":"10.05891530","store_key":880,"city":"Carrara"},{"name":"Joe Vinyle Store","lat":"44.80018970","long":"10.33107670","store_key":891,"city":"Parma"},{"name":"Metropolis 2","lat":"45.48373413","long":"9.17476463","store_key":919,"city":"Milano"},{"name":"Brescia Dischi","lat":"45.53894150","long":"10.21557450","store_key":989,"city":"Brescia"},{"name":"Time Of Music","lat":"41.32024580","long":"16.27063230","store_key":1003,"city":"Barletta"},{"name":"Gravity Records","lat":"45.07099890","long":"7.69530020","store_key":934,"city":"Torino"},{"name":"Ghost Record store","lat":"41.88913380","long":"12.53117550","store_key":1046,"city":"Roma"},{"name":"Berlin Vinile","lat":"44.35567450","long":"11.71506220","store_key":1051,"city":"Imola"},{"name":"Trend Music World Dj Land S.aS.","lat":"40.84584427","long":"14.23015785","store_key":1088,"city":"Napoli"},{"name":"La Colonna Sonora","lat":"45.06312780","long":"7.68004600","store_key":1089,"city":"Torino"},{"name":"Green Tunnel Records","lat":"45.45474510","long":"9.18029090","store_key":1153,"city":"Milano"},{"name":"Zeder - Negozio di Genere","lat":"42.86934370","long":"13.91726920","store_key":1229,"city":"Martinsicuro"},{"name":"Disco Più","lat":"44.03090000","long":"12.60732610","store_key":1257,"city":"Rimini"},{"name":"Gusto Vinile","lat":"40.63568878","long":"17.94099045","store_key":1287,"city":"Brindisi"},{"name":"De Santi","lat":"45.67070440","long":"11.92904370","store_key":1288,"city":"Castelfranco Veneto"},{"name":"Green Records","lat":"45.41395569","long":"11.87648773","store_key":1289,"city":"Padova"},{"name":"Doodah","lat":"40.66006088","long":"14.80006409","store_key":1292,"city":"Salerno"},{"name":"Record Runners","lat":"44.40303900","long":"8.94100100","store_key":1293,"city":"Genova"},{"name":"Disco Revival","lat":"45.05993652","long":"7.68135977","store_key":1378,"city":"Torino"},{"name":"Mondadori Bookstore","lat":"43.46671677","long":"11.15266609","store_key":1379,"city":"Poggibonsi"},{"name":"Dischiblu","lat":"40.46744537","long":"17.25033951","store_key":1386,"city":"Taranto"},{"name":"Dischi Alberti","lat":"43.77445602","long":"11.25485992","store_key":1409,"city":"Firenze"},{"name":"Rocker Pinerolo","lat":"44.88538670","long":"7.33058850","store_key":1433,"city":"Pinerolo"},{"name":"Sonic Belligeranza Records","lat":"44.49867220","long":"11.34931020","store_key":1450,"city":"Bologna"},{"name":"Libreria Libraccio","lat":"45.45768738","long":"9.21864700","store_key":1459,"city":"Milano"},{"name":"New San Francisco","lat":"45.47583170","long":"9.22089630","store_key":1460,"city":"Milano"},{"name":"Modwear - Clothing Shoes & Records","lat":"38.12109756","long":"13.36156368","store_key":1461,"city":"Palermo"},{"name":"Perfect Vinyl Music Store","lat":"40.81649400","long":"14.34386400","store_key":1462,"city":"Portici"},{"name":"180Grammi Records","lat":"44.49335480","long":"11.33281803","store_key":1489,"city":"Bologna"},{"name":"Discoshop Lecco","lat":"45.85252350","long":"9.39610740","store_key":1511,"city":"Lecco"},{"name":"Recycle Garage vintage shop e dischi in vinile","lat":"45.69043800","long":"9.66568600","store_key":1514,"city":"Bergamo"},{"name":"Metropolis Dischi","lat":"45.49501950","long":"9.22913310","store_key":1555,"city":"Milano"},{"name":"Felic8","lat":"37.85432020","long":"15.28880770","store_key":1605,"city":"Taormina"},{"name":"Fumetti e Dischi Cortelloni","lat":"43.76615240","long":"11.24062300","store_key":1642,"city":"Firenze"},{"name":"Kobo Shop Udine","lat":"46.06605148","long":"13.23329353","store_key":1643,"city":"Udine"},{"name":"Vinyl Zone Shop","lat":"40.47065630","long":"17.23988500","store_key":1644,"city":"Taranto"},{"name":"Ernyaldisko","lat":"44.40797424","long":"8.94331360","store_key":1647,"city":"Genova"},{"name":"Ritmi Urbani s.n.c.","lat":"41.08074951","long":"14.25656700","store_key":1653,"city":"Santa Maria Capua Vetere"},{"name":"Taragaruz","lat":"43.54718781","long":"10.31286335","store_key":1672,"city":"Livorno"},{"name":"Music Addict","lat":"45.40577370","long":"11.87585110","store_key":1704,"city":"Padova"},{"name":"D’s Paradise","lat":"44.49523470","long":"11.31861730","store_key":1733,"city":"Bologna"},{"name":"Rossetti Records & Books","lat":"45.45877457","long":"9.17133427","store_key":1755,"city":"Milano"},{"name":"Disclan","lat":"40.67731760","long":"14.76187590","store_key":1785,"city":"Salerno"},{"name":"Riva Musica","lat":"37.50773220","long":"15.08645600","store_key":1860,"city":"Catania"},{"name":"Lo Stanzone Salotto Della Musica","lat":"46.01747513","long":"11.90694809","store_key":1861,"city":"Feltre"},{"name":"Discorso","lat":"45.95396840","long":"12.49995700","store_key":1862,"city":"Sacile"},{"name":"Jumpin' Jack","lat":"45.53971000","long":"11.63125000","store_key":1863,"city":"Marola"},{"name":"Maistrello Musica","lat":"42.39944600","long":"12.85731900","store_key":1891,"city":"Rieti"},{"name":"Disco Story","lat":"45.88483310","long":"10.17996790","store_key":1904,"city":"Darfo"},{"name":"Music il negozio di dischi in vinile","lat":"45.53689510","long":"9.93107610","store_key":1954,"city":"Chiari"},{"name":"Dream.Music.Shop","lat":"43.29602890","long":"13.45645950","store_key":1993,"city":"Macerata"},{"name":"Les Yper Sound","lat":"45.06968689","long":"7.69136095","store_key":2141,"city":"Torino"},{"name":"Exit Music","lat":"44.64701080","long":"7.65826416","store_key":2217,"city":"Savigliano"},{"name":"Oblomova","lat":"40.84842300","long":"14.25267887","store_key":2223,"city":"Napoli"},{"name":"Varese dischi","lat":"45.81610960","long":"8.82825130","store_key":2264,"city":"Varese"},{"name":"Calavibes","lat":"41.61443660","long":"14.23810190","store_key":2280,"city":"Isernia"},{"name":"libraccio verona","lat":"45.43851330","long":"10.99018500","store_key":2324,"city":"Verona"},{"name":"Punk Funk Record Shop Music Bar","lat":"38.11786610","long":"13.36259090","store_key":2337,"city":"Palermo"},{"name":"The Concept Lecco","lat":"45.85587420","long":"9.39027110","store_key":2400,"city":"Lecco"},{"name":"Alphaville Piacenza","lat":"45.05156330","long":"9.68935840","store_key":2430,"city":"Piacenza"},{"name":"Inferno Record Store","lat":"41.91154710","long":"12.50433140","store_key":2446,"city":"Roma"},{"name":"Muzak Dischi","lat":"44.38565220","long":"7.54412650","store_key":2451,"city":"Cuneo"},{"name":"71 Music Shop Di Judica Paolo","lat":"44.41175980","long":"8.92943280","store_key":2474,"city":"Genova"},{"name":"Symphony","lat":"43.54678800","long":"10.31133400","store_key":2475,"city":"Livorno"},{"name":"Il Minotauro","lat":"45.44140660","long":"10.99885240","store_key":2513,"city":"Verona"},{"name":"Discopoli","lat":"41.59518200","long":"12.65562200","store_key":2532,"city":"Aprilia"},{"name":"Volume 33 Music Store","lat":"42.05214480","long":"12.61833880","store_key":2543,"city":"Monterotondo"},{"name":"Vinyl Magic 3","lat":"44.31252670","long":"8.47645283","store_key":2587,"city":"Savona"},{"name":"L'Allegretto Dischi","lat":"41.91889954","long":"12.46196556","store_key":2592,"city":"Roma"},{"name":"Twisted","lat":"43.76988010","long":"11.24321260","store_key":2600,"city":"Firenze"},{"name":"Pick UP Records","lat":"45.76707458","long":"11.73711205","store_key":2665,"city":"Bassano del Grappa"},{"name":"Cd Sound","lat":"44.39956310","long":"8.94796460","store_key":2669,"city":"Genova"},{"name":"Saturn","lat":"41.12052030","long":"16.87176410","store_key":2725,"city":"Bari"},{"name":"vinyLPlays","lat":"37.68534350","long":"12.56831510","store_key":2748,"city":"Mazara del Vallo"},{"name":"Buscemi Dischi","lat":"45.46566650","long":"9.17596500","store_key":2749,"city":"Milano"},{"name":"Pianeta Musica Mercatino","lat":"45.05260468","long":"7.67823505","store_key":2786,"city":"Torino"},{"name":"Vintage & Co","lat":"43.55097500","long":"10.31388980","store_key":2787,"city":"Livorno"},{"name":"Disc Jockey 70","lat":"44.86628430","long":"10.06248680","store_key":2813,"city":"Fidenza"},{"name":"Disc Jockey 70 Di Master Music Srl","lat":"45.13442120","long":"10.02307710","store_key":2814,"city":"Cremona"},{"name":"Militant Soul","lat":"45.05879860","long":"7.68323710","store_key":2832,"city":"Torino"},{"name":"Ultrasuoni","lat":"45.06578827","long":"7.65018892","store_key":2849,"city":"Torino"},{"name":"Transformer","lat":"44.49475870","long":"11.33873250","store_key":2861,"city":"Bologna"},{"name":"Diskaio","lat":"44.77546520","long":"10.88380360","store_key":2868,"city":"Carpi"},{"name":"Danex Records","lat":"43.78068720","long":"11.26972360","store_key":2911,"city":"Firenze"},{"name":"Casa Del Disco","lat":"44.28624725","long":"11.88193893","store_key":2951,"city":"Faenza"},{"name":"Discopiu","lat":"41.88131220","long":"12.56396530","store_key":2953,"city":"Roma"},{"name":"Discoteca Laziale","lat":"41.89701130","long":"12.50575960","store_key":2954,"city":"Roma"},{"name":"Alta Fedelta Como","lat":"45.81283220","long":"9.08539120","store_key":3010,"city":"Como"},{"name":"Spazio Libri Dischi di Castellana Pierfranco","lat":"40.84909680","long":"17.12290440","store_key":3011,"city":"Putignano"},{"name":"Messaggerie Sarde","lat":"40.72642870","long":"8.56229310","store_key":3015,"city":"Sassari"},{"name":"Flamingo Records","lat":"44.40960130","long":"8.93108740","store_key":3018,"city":"Genova"},{"name":"PM55 Sound Lab","lat":"41.07806880","long":"14.25521240","store_key":3041,"city":"Santa Maria Capua Vetere"},{"name":"Volume - Dischi e Libri","lat":"45.48906730","long":"9.18712530","store_key":3043,"city":"Milano"},{"name":"Joker","lat":"45.46272278","long":"9.13705063","store_key":3071,"city":"Milano"},{"name":"Dischinpiazza Modena","lat":"44.64551490","long":"10.92620230","store_key":3072,"city":"Modena"},{"name":"Pink Moon","lat":"41.87014670","long":"12.46573210","store_key":3116,"city":"Roma"},{"name":"Record Runners","lat":"45.81961580","long":"8.82688370","store_key":1293,"city":"Varese"},{"name":"SEMM Music Store & More","lat":"44.49693100","long":"11.34599020","store_key":3167,"city":"Bologna"},{"name":"Soul Food","lat":"41.88808060","long":"12.50069332","store_key":3173,"city":"Roma"},{"name":"Transmission","lat":"41.89760520","long":"12.51102800","store_key":3174,"city":"Roma"},{"name":"PAT RECORD","lat":"45.38292840","long":"7.71276080","store_key":3219,"city":"Castellamonte"},{"name":"Casa Musicale Ancona","lat":"43.61690000","long":"13.51420000","store_key":3220,"city":"Ancona"},{"name":"Sleeve Records","lat":"43.77340317","long":"11.25166607","store_key":3239,"city":"Firenze"},{"name":"Rewind","lat":"45.18518066","long":"9.15229511","store_key":3255,"city":"Pavia"},{"name":"Supersonic Record Store","lat":"42.95491780","long":"12.70340300","store_key":3311,"city":"Foligno"},{"name":"Mexico 70 Record Shop","lat":"40.47001690","long":"17.23964000","store_key":3330,"city":"Taranto"},{"name":"To Lose La Track","lat":"43.30860530","long":"12.32602180","store_key":3331,"city":"Umbertide"},{"name":"Hole Records","lat":"45.77772310","long":"12.05495120","store_key":3359,"city":"Montebelluna"},{"name":"Freak Music Snc","lat":"45.36274110","long":"9.68653940","store_key":3489,"city":"Crema"},{"name":"Hot Music","lat":"43.60118820","long":"13.32540600","store_key":3490,"city":"Chiaravalle"},{"name":"feelin' blue","lat":"44.31837360","long":"9.32229910","store_key":3491,"city":"Chiavari"},{"name":"B Side","lat":"44.22395280","long":"12.03959520","store_key":3492,"city":"Forlì"},{"name":"E Street Records Di Loi Silvio","lat":"44.95473050","long":"10.82331830","store_key":3520,"city":"Gonzaga"},{"name":"Psycho","lat":"45.44494629","long":"9.17960739","store_key":3557,"city":"Milano"},{"name":"Musica Musica Sas Di Fabbri Edoardo & C","lat":"43.10945640","long":"12.38964950","store_key":3558,"city":"Perugia"},{"name":"Rileggo - libri e dischi usati","lat":"46.07277298","long":"11.12528610","store_key":3561,"city":"Trento"},{"name":"Disconutshot","lat":"40.34718380","long":"18.16519630","store_key":3589,"city":"Lecce"},{"name":"Black Spring Bookshop","lat":"43.76842117","long":"11.24101162","store_key":3590,"city":"Firenze"},{"name":"Casa Musicale Niccoli dal 1925","lat":"43.88063900","long":"11.10011200","store_key":3620,"city":"Prato"},{"name":"Fred","lat":"45.48622010","long":"9.23182210","store_key":3651,"city":"Milano"},{"name":"Plastic Pordenone","lat":"45.95826350","long":"12.66220180","store_key":3655,"city":"Pordenone"},{"name":"Disco Club 65","lat":"44.40666670","long":"8.94444440","store_key":3734,"city":"Genova"},{"name":"L'Archivio","lat":"44.49327090","long":"11.33287610","store_key":3792,"city":"Bologna"},{"name":"Musicanova S.A.S.","lat":"45.62840670","long":"12.56701180","store_key":3795,"city":"San Donà di Piave"},{"name":"Double Side Di Prato L.","lat":"45.55617523","long":"8.93607807","store_key":3818,"city":"Parabiago"},{"name":"Cuordivinile Record Shop","lat":"44.67987970","long":"7.84631690","store_key":3827,"city":"Bra"},{"name":"Il Giradischi","lat":"43.66465090","long":"10.63626770","store_key":3830,"city":"Pontedera"},{"name":"B-Side","lat":"45.61365890","long":"9.37135510","store_key":3886,"city":"Vimercate"},{"name":"Dischi Volanti Verona","lat":"45.44337810","long":"10.99527180","store_key":3940,"city":"Verona"},{"name":"Jungle Records","lat":"45.88516800","long":"12.30734800","store_key":4061,"city":"Conegliano"},{"name":"Round Midnight Discs","lat":"41.91466904","long":"12.52444458","store_key":4063,"city":"Roma"},{"name":"Ponti Non Solo Musica","lat":"44.84118370","long":"10.72964930","store_key":4096,"city":"Novellara"},{"name":"Move On - Italian Pub & Record Store","lat":"43.77278137","long":"11.25495625","store_key":4100,"city":"Firenze"},{"name":"Slow Mood Dischi","lat":"45.04858310","long":"7.67669010","store_key":4103,"city":"Torino"},{"name":"Musicante","lat":"40.84959793","long":"14.25912285","store_key":4133,"city":"Napoli"},{"name":"Futuribile record club","lat":"40.84332030","long":"14.23278710","store_key":4134,"city":"Napoli"},{"name":"Juke-Box","lat":"41.07849480","long":"14.33994800","store_key":4162,"city":"Caserta"},{"name":"Oggetti riBelli","lat":"43.99209000","long":"12.65742500","store_key":4165,"city":"Riccione"},{"name":"Diskotic lab","lat":"44.38338140","long":"9.03079770","store_key":4188,"city":"Genova"},{"name":"Pinto S.r.l.","lat":"45.55270880","long":"10.21782480","store_key":4208,"city":"Brescia"},{"name":"Bar Brunori Caffè e Vinile","lat":"41.87575531","long":"12.48968983","store_key":4219,"city":"Roma"},{"name":"Haus","lat":"45.61352800","long":"9.37276200","store_key":4245,"city":"Vimercate"},{"name":"La Pianola","lat":"46.16850662","long":"9.87431431","store_key":4290,"city":"Sondrio"},{"name":"Gugumed","lat":"43.09596690","long":"12.39113250","store_key":4292,"city":"Perugia"},{"name":"Pagan Moon Store","lat":"45.06968689","long":"7.69189310","store_key":4293,"city":"Torino"},{"name":"Calavera’s Streetwear + Records","lat":"43.31981160","long":"11.33180530","store_key":4325,"city":"Siena"},{"name":"Metrodora","lat":"41.96432877","long":"12.79936790","store_key":4331,"city":"Tivoli"},{"name":"Le Disque Record Store","lat":"45.40701140","long":"10.98481360","store_key":4352,"city":"Verona"},{"name":"Dischivolanti","lat":"45.45119476","long":"9.17308331","store_key":4464,"city":"Milano"},{"name":"Materiale Resistente Torino","lat":"45.06865692","long":"7.68978310","store_key":4478,"city":"Torino"},{"name":"Calboli Dischi","lat":"44.22489350","long":"12.04425690","store_key":4535,"city":"Forlì"},{"name":"Cory Music Di Vieri Norina & C. S.N.C.","lat":"43.46378330","long":"11.88173580","store_key":4554,"city":"Arezzo"},{"name":"Wizard Di Goran Boncina Udine","lat":"46.06545750","long":"13.23451310","store_key":4555,"city":"Udine"},{"name":"Vinyl Store","lat":"44.69668579","long":"7.85592318","store_key":4556,"city":"Bra"},{"name":"Rock Paradise Dischi Nerviano","lat":"45.55706780","long":"8.97909620","store_key":4613,"city":"Nerviano"},{"name":"Diapason Music Point - Compact Disc Rovereto","lat":"45.88862670","long":"11.04332590","store_key":4632,"city":"Rovereto"},{"name":"Libraccio","lat":"45.47712326","long":"9.20037174","store_key":4639,"city":"Milano"},{"name":"Radiation Records","lat":"41.89587630","long":"12.49102350","store_key":3,"city":"Roma"},{"name":"Ebs Hi-Fi Video Service","lat":"45.61219788","long":"9.14480877","store_key":4670,"city":"Bovisio Masciago"},{"name":"Music Shop Gorizia","lat":"45.94200270","long":"13.62245560","store_key":4710,"city":"Gorizia"},{"name":"Doo-Bop Sounds & Visions","lat":"41.56341553","long":"14.66775703","store_key":4732,"city":"Campobasso"},{"name":"Bibliote' Libreria Caffetteria","lat":"41.72124700","long":"13.61571100","store_key":4762,"city":"Sora"},{"name":"Nerovinile","lat":"45.06612470","long":"7.69360590","store_key":4806,"city":"Torino"},{"name":"Libraccio","lat":"45.50376510","long":"9.16454320","store_key":4639,"city":"Milano"},{"name":"Red Moon Records Gorizia","lat":"45.82322520","long":"13.50059830","store_key":4830,"city":"Ronchi dei Legionari"},{"name":"La Galleria del Disco","lat":"43.71837234","long":"10.40241718","store_key":4833,"city":"Pisa"},{"name":"Jukebox all'Idrogeno Music Shop","lat":"43.29961020","long":"13.45231740","store_key":4949,"city":"Macerata"},{"name":"Metalbox Records","lat":"44.69639587","long":"10.63017559","store_key":4967,"city":"Reggio Emilia"},{"name":"Disco - New","lat":"46.49756241","long":"11.35059929","store_key":4985,"city":"Bolzano"},{"name":"Discoccasione","lat":"45.46699000","long":"7.87444000","store_key":4988,"city":"Ivrea"},{"name":"Libreria Del Novecento S.N.C.","lat":"45.44395150","long":"10.99931080","store_key":5030,"city":"Verona"},{"name":"Simpaty Record's","lat":"45.22084040","long":"10.40630190","store_key":5066,"city":"Asola"},{"name":"Libraccio Due","lat":"45.57909970","long":"9.26962850","store_key":5072,"city":"Monza"},{"name":"Musicatelli","lat":"45.95901871","long":"12.66027260","store_key":5073,"city":"Pordenone"},{"name":"Amadeus Di Mei Amedea","lat":"43.17920303","long":"13.79713631","store_key":5074,"city":"Porto San Giorgio"},{"name":"Zona Disco","lat":"44.05927470","long":"12.56666940","store_key":5099,"city":"Rimini"},{"name":"Ottodisco","lat":"43.55304090","long":"10.31545970","store_key":5108,"city":"Livorno"},{"name":"La Bottega Discantica","lat":"45.46539140","long":"9.17817090","store_key":5128,"city":"Milano"},{"name":"Contempo Records","lat":"43.76781082","long":"11.25896072","store_key":5152,"city":"Firenze"},{"name":"SanAntonio42 Pisa","lat":"43.71381760","long":"10.39712520","store_key":5160,"city":"Pisa"},{"name":"Flaik Sound Dischi","lat":"45.08394623","long":"7.66080189","store_key":5202,"city":"Torino"},{"name":"Background Music","lat":"44.49675200","long":"11.33927980","store_key":5243,"city":"Bologna"},{"name":"Mondo Musica","lat":"44.54954440","long":"10.76574000","store_key":5265,"city":"Veggia-Villalunga"},{"name":"Mint Sound","lat":"44.49607849","long":"11.36106300","store_key":5266,"city":"Bologna"},{"name":"Sonatine Dischi (Negozio di dischi on line)","lat":"39.30471610","long":"16.24584730","store_key":5267,"city":"Cosenza"},{"name":"HiFi Record","lat":"45.39873870","long":"11.87178710","store_key":5269,"city":"Padova"},{"name":"Tosi Dischi 2.0","lat":"44.69613790","long":"10.63765350","store_key":5345,"city":"Reggio Emilia"},{"name":"Planet Music (S. N. C.)","lat":"44.69890420","long":"10.61354720","store_key":5347,"city":"Reggio Emilia"},{"name":"Cari&Rari Vinyl Shop","lat":"37.50609900","long":"15.08748400","store_key":5379,"city":"Catania"},{"name":"NordOvest","lat":"41.62749863","long":"13.33073711","store_key":5380,"city":"Frosinone"},{"name":"Mingus","lat":"43.17903137","long":"13.79604244","store_key":5387,"city":"Porto San Giorgio"},{"name":"Dischi E Dintorni Di Benedetti Andrea","lat":"45.05559921","long":"7.68313885","store_key":5388,"city":"Torino"},{"name":"Casa Del Disco","lat":"40.47070090","long":"17.24595380","store_key":2951,"city":"Taranto"},{"name":"Living in the Past - Vinyl Records & Books","lat":"45.43390150","long":"12.32141390","store_key":5422,"city":"Venezia"},{"name":"Muzicplanet","lat":"45.66020400","long":"9.16106800","store_key":5436,"city":"Meda"},{"name":"Millerecords","lat":"41.89148000","long":"12.50240830","store_key":5520,"city":"Roma"},{"name":"Alta Fedelta Di Scano Caterina","lat":"39.21624756","long":"9.12378502","store_key":5533,"city":"Cagliari"},{"name":"Youm! Youm Music M.A.G. Srl","lat":"40.35372730","long":"18.17842700","store_key":5534,"city":"Lecce"},{"name":"micro.solchi | Record Store","lat":"45.63080000","long":"12.58781000","store_key":5541,"city":"San Donà di Piave"},{"name":"Blutopia","lat":"41.88763930","long":"12.53131290","store_key":5588,"city":"Roma"},{"name":"Saxophone","lat":"45.54482070","long":"11.54008450","store_key":5601,"city":"Vicenza"},{"name":"Polarville","lat":"42.35240160","long":"13.40278480","store_key":5642,"city":"L'Aquila"},{"name":"Sease","lat":"45.47204950","long":"9.18615400","store_key":5681,"city":"Milano"},{"name":"Filmusica Di Branco Stefano","lat":"45.64663000","long":"11.30179000","store_key":5690,"city":"Valdagno"},{"name":"Ace Records Roma","lat":"41.93894030","long":"12.52958090","store_key":5697,"city":"Roma"},{"name":"Sound Cave","lat":"45.45736250","long":"9.17437740","store_key":5721,"city":"Milano"},{"name":"Disco Club","lat":"44.79985428","long":"10.33014202","store_key":5723,"city":"Parma"},{"name":"Asbury Park records","lat":"44.60127050","long":"10.68597650","store_key":5724,"city":"Scandiano"},{"name":"Bergamo Musica Srl","lat":"45.68483353","long":"9.72994328","store_key":5725,"city":"Seriate"},{"name":"Vitolo Rosario","lat":"40.68235880","long":"14.76792410","store_key":5764,"city":"Salerno"},{"name":"Jammin Cafè","lat":"45.52307010","long":"9.59291270","store_key":5791,"city":"Treviglio"},{"name":"Spazio Astra","lat":"42.95487390","long":"12.70342800","store_key":5832,"city":"Foligno"},{"name":"Dany Music","lat":"39.81272310","long":"16.20632660","store_key":5862,"city":"Castrovillari"},{"name":"ROK negozio di musica e dischi","lat":"44.41842720","long":"12.19945270","store_key":5978,"city":"Ravenna"},{"name":"Jocks Team","lat":"44.30825043","long":"8.48335457","store_key":5987,"city":"Savona"},{"name":"Bongiovanni","lat":"44.49579790","long":"11.33732740","store_key":6026,"city":"Bologna"},{"name":"Xtcr","lat":"45.61343540","long":"8.84590210","store_key":6051,"city":"Busto Arsizio"},{"name":"Green Records","lat":"45.41479640","long":"11.87806890","store_key":1289,"city":"Padova"},{"name":"Il 23 Dischi","lat":"45.40583040","long":"11.87222860","store_key":6139,"city":"Padova"},{"name":"Musical Box Store","lat":"45.77570760","long":"12.83819350","store_key":6140,"city":"Portogruaro"},{"name":"Moving","lat":"45.74345779","long":"12.25019932","store_key":6146,"city":"Villorba"},{"name":"Dischi E Soda","lat":"43.90931410","long":"12.91187410","store_key":6147,"city":"Pesaro"},{"name":"Rubber Soul","lat":"45.08009338","long":"7.63205004","store_key":6148,"city":"Torino"},{"name":"Black Marmalade Records","lat":"43.90752100","long":"12.91084600","store_key":6182,"city":"Pesaro"},{"name":"Isoma di Lorenzo Fortino","lat":"43.72710010","long":"11.32225630","store_key":6207,"city":"Antella"},{"name":"Pace Music di Pace Gabriella","lat":"44.77402260","long":"8.35533380","store_key":6210,"city":"Nizza Monferrato"},{"name":"Il Mangiadischi Roma","lat":"41.89667900","long":"12.51294240","store_key":6222,"city":"Roma"},{"name":"Domeniconi Casa Della Musica","lat":"44.69669290","long":"10.62700640","store_key":6245,"city":"Reggio Emilia"},{"name":"Area 99 Vinile","lat":"44.11457062","long":"9.84087753","store_key":6285,"city":"LaSpezia"},{"name":"Superdisco Di Paolo Del Monte","lat":"43.88506810","long":"10.76674730","store_key":6304,"city":"Montecatini Terme"},{"name":"Folks","lat":"45.44573975","long":"10.99491692","store_key":6405,"city":"Verona"},{"name":"Recordstore.it","lat":"42.46667480","long":"14.21290970","store_key":6426,"city":"Pescara"},{"name":"Vicious Di Vito Maffei","lat":"40.75388180","long":"17.32752020","store_key":6430,"city":"Locorotondo"},{"name":"Indominata Frequenza","lat":"45.04940210","long":"7.67648370","store_key":6478,"city":"Torino"},{"name":"Plastic Music Dispenser","lat":"43.90814972","long":"12.90899754","store_key":6506,"city":"Pesaro"},{"name":"Freequenze Records","lat":"40.84849150","long":"14.25270500","store_key":6534,"city":"Napoli"},{"name":"Palio Di Morino Elio E Minola Stefano S.N.C.","lat":"45.56465560","long":"8.05667780","store_key":6553,"city":"Biella"},{"name":"Sky Stone & Songs","lat":"43.84137726","long":"10.50294113","store_key":6574,"city":"Lucca"},{"name":"Dischiponte","lat":"45.76746000","long":"11.73046180","store_key":6575,"city":"Bassano del Grappa"},{"name":"Slow Record Shop","lat":"43.31130333","long":"10.51525795","store_key":6576,"city":"Cecina"},{"name":"Reverend's Shop","lat":"45.44560623","long":"9.18834782","store_key":6578,"city":"Milano"},{"name":"Pace Music","lat":"44.67407960","long":"8.47000030","store_key":6610,"city":"Acqui Terme"},{"name":"Vesuvius Soul Records","lat":"40.84461760","long":"14.25418130","store_key":6623,"city":"Napoli"},{"name":"Feltrinelli Books and Music","lat":"45.44154659","long":"10.99607885","store_key":6624,"city":"Verona"},{"name":"Disco Head Shop La Maddalena","lat":"41.21693400","long":"9.41379520","store_key":6631,"city":"La Maddalena"},{"name":"Musik Import (S.A.S. - K.G.)","lat":"46.49622726","long":"11.34059811","store_key":6653,"city":"Bolzano"},{"name":"Da Marte di Ganzer Francesco","lat":"45.49535751","long":"12.25068378","store_key":6654,"city":"Venezia"},{"name":"Perditempo","lat":"40.84966100","long":"14.25261330","store_key":6658,"city":"Napoli"},{"name":"Cd club entertainment","lat":"38.11495400","long":"15.65160500","store_key":6659,"city":"Reggio Calabria"},{"name":"Elastic Rock Roma","lat":"41.87471771","long":"12.45789528","store_key":6660,"city":"Roma"},{"name":"Sound Garden","lat":"42.35119470","long":"13.40012780","store_key":6730,"city":"L'Aquila"},{"name":"Rock Bottom","lat":"43.77133179","long":"11.25883961","store_key":6757,"city":"Firenze"},{"name":"The Sound & Mecca Shop","lat":"43.29953384","long":"13.45210838","store_key":6842,"city":"Macerata"},{"name":"Discorama","lat":"44.49707620","long":"11.34303950","store_key":6843,"city":"Bologna"},{"name":"Pistelli & Bartolucci","lat":"44.83770752","long":"11.62049961","store_key":6844,"city":"Ferrara"},{"name":"Discomane","lat":"45.45147170","long":"9.17255200","store_key":6853,"city":"Milano"},{"name":"Rev Up Record Store","lat":"44.13805389","long":"12.24646187","store_key":6954,"city":"Cesena"},{"name":"BONISTALLI MUSICA di Claudio Bonistalli","lat":"43.72028810","long":"10.95010610","store_key":6956,"city":"Empoli"},{"name":"Gabbia - Musica CD TV Hi-Fi DVD","lat":"45.40821150","long":"11.87306310","store_key":6958,"city":"Padova"},{"name":"Disco d'oro","lat":"44.49856680","long":"11.34233250","store_key":6972,"city":"Bologna"},{"name":"Casa del Disco","lat":"45.49422836","long":"12.24074173","store_key":6983,"city":"Venezia"},{"name":"Centro Musicale Ialenti","lat":"42.56391350","long":"12.64685060","store_key":7024,"city":"Terni"},{"name":"Darkside Vinyl Shop","lat":"43.52319200","long":"13.24440800","store_key":7063,"city":"Jesi"},{"name":"Casa Del Disco Vasto","lat":"42.11165700","long":"14.70854060","store_key":7093,"city":"Vasto"},{"name":"Giro Di Do","lat":"44.70027200","long":"8.03349100","store_key":7099,"city":"Alba"},{"name":"Anomasia Vintage & Vinyl","lat":"42.00128630","long":"14.98841810","store_key":7108,"city":"Termoli"},{"name":"Compact","lat":"45.77477090","long":"12.04498310","store_key":7127,"city":"Montebelluna"},{"name":"Dischiland","lat":"45.13473370","long":"8.45054090","store_key":7131,"city":"Casale Monferrato"},{"name":"Rock & Folk Torino","lat":"45.06891632","long":"7.68769312","store_key":7224,"city":"Torino"},{"name":"Superdisco Due Seregno","lat":"45.65002420","long":"9.20375350","store_key":7251,"city":"Seregno"},{"name":"Zeder.it","lat":"42.86932000","long":"13.91222920","store_key":7286,"city":"Martinsicuro"},{"name":"Vinylbrokers - Groovin Snc","lat":"45.51125750","long":"9.21854440","store_key":7302,"city":"Milano"},{"name":"Goody Music","lat":"41.91307170","long":"12.47518380","store_key":7346,"city":"Roma"},{"name":"Penny Lane","lat":"45.44273280","long":"8.61070580","store_key":4609,"city":"Novara"},{"name":"Metal Factory Bologna","lat":"44.50011000","long":"11.34823600","store_key":7404,"city":"Bologna"},{"name":"Back Door","lat":"45.08181690","long":"7.66383840","store_key":7419,"city":"Torino"},{"name":"Serendeepity","lat":"45.45350120","long":"9.18023280","store_key":7425,"city":"Milano"},{"name":"MUSIC BOX RECORD STORE","lat":"43.10076141","long":"12.37788677","store_key":7450,"city":"Perugia"},{"name":"New Records","lat":"41.12185287","long":"16.87359810","store_key":7514,"city":"Bari"},{"name":"Disco Stores","lat":"45.59492730","long":"8.91829410","store_key":7517,"city":"Legnano"},{"name":"Mix Market Records","lat":"41.12242640","long":"16.86640610","store_key":7519,"city":"Bari"},{"name":"Garibaldi Books & Records","lat":"38.11628820","long":"13.36635500","store_key":7520,"city":"Palermo"},{"name":"BACKFLIP Records","lat":"45.45045800","long":"9.19485000","store_key":7551,"city":"Milano"},{"name":"Clinic","lat":"41.19999390","long":"16.59811920","store_key":7606,"city":"Molfetta"},{"name":"T-Trane","lat":"43.10380173","long":"12.39367199","store_key":7607,"city":"Perugia"},{"name":"Discomania","lat":"45.70553589","long":"11.48049355","store_key":4957,"city":"Thiene"},{"name":"EXP Records","lat":"41.12094770","long":"16.87427900","store_key":7670,"city":"Bari"}]