[{"name":"Estacio Records","lat":"36.55578613","long":"136.65745544","store_key":38,"city":"Kanazawa"},{"name":"General Record Store","lat":"35.66205540","long":"139.66941390","store_key":39,"city":"Tokyo"},{"name":"Neds","lat":"35.69451500","long":"139.69909400","store_key":40,"city":"Tokyo"},{"name":"Universounds","lat":"35.70356020","long":"139.64858650","store_key":41,"city":"Tokyo"},{"name":"Root Down","lat":"34.67002270","long":"135.49781430","store_key":101,"city":"Osaka"},{"name":"Beat Records - ビートレコーズ","lat":"43.05779820","long":"141.35166080","store_key":110,"city":"Sapporo"},{"name":"K House - ケー・ハウス","lat":"35.16051000","long":"136.90480700","store_key":121,"city":"Nagoya"},{"name":"Fan Fan - ファンファン","lat":"33.87299960","long":"130.71930610","store_key":129,"city":"Kitakyushu"},{"name":"Tachibana - 中古レコードのタチバナ","lat":"35.56038900","long":"139.50587000","store_key":134,"city":"Kamoshidacho"},{"name":"Tact","lat":"35.69707900","long":"139.75737500","store_key":135,"city":"Tokyo"},{"name":"slow room","lat":"35.41219500","long":"136.76182450","store_key":140,"city":"Gifu-shi"},{"name":"楽音舎","lat":"43.08249040","long":"141.34356500","store_key":147,"city":"Sapporo"},{"name":"ビッグガレージ","lat":"39.61107870","long":"141.17105010","store_key":148,"city":"Yahaba"},{"name":"Lights Out Records","lat":"36.37511610","long":"140.47182330","store_key":149,"city":"Mito"},{"name":"Beach Party Records - レコード・ビーチ・パーティ","lat":"36.56088210","long":"136.65540410","store_key":150,"city":"Kanazawa"},{"name":"WILD HONEY","lat":"35.16901420","long":"136.93516460","store_key":151,"city":"Nagoya"},{"name":"Django","lat":"34.68091000","long":"135.82887000","store_key":152,"city":"Nara"},{"name":"CHILL OUT COFFEE &...RECORDS","lat":"35.69488670","long":"139.80073860","store_key":154,"city":"Tokyo"},{"name":"level 9 bootleg CDs and DVDs","lat":"35.69429590","long":"139.69873980","store_key":160,"city":"Tokyo"},{"name":"Juke Records","lat":"33.59263992","long":"130.39572144","store_key":288,"city":"Fukuoka"},{"name":"Ticro Market - チクロマーケット","lat":"33.58713900","long":"130.39585320","store_key":289,"city":"Fukuoka"},{"name":"bonjour records","lat":"33.59097780","long":"130.39859750","store_key":291,"city":"Fukuoka"},{"name":"Root Down Records","lat":"34.67418430","long":"135.49847700","store_key":354,"city":"Osaka"},{"name":"Banana Records - （有）バナナレコード 名駅店","lat":"35.16988100","long":"136.88599200","store_key":405,"city":"Nagoya"},{"name":"Banana Records","lat":"35.41114050","long":"136.76053600","store_key":406,"city":"Gifu-shi"},{"name":"Gapon Records","lat":"34.68948990","long":"135.18898300","store_key":408,"city":"Kobe"},{"name":"Nordic Sound Hiroshima - ノルディックサウンド広島","lat":"34.39366300","long":"132.46724100","store_key":409,"city":"Hiroshima"},{"name":"Bonjour","lat":"35.67216492","long":"139.76312256","store_key":410,"city":"Tokyo"},{"name":"CD Zaurus - 中古CD・DVD ざうるす","lat":"35.43958470","long":"136.73877000","store_key":425,"city":"Gifu-shi"},{"name":"Waxpend","lat":"34.67343140","long":"135.49554443","store_key":437,"city":"Osaka"},{"name":"Groovin' - グルーヴィン 福岡店","lat":"33.58596000","long":"130.39100500","store_key":451,"city":"Fukuoka"},{"name":"ROOTS RECORDS","lat":"43.05886950","long":"141.34796260","store_key":456,"city":"Sapporo"},{"name":"70sRECORDS GARAGELAND","lat":"33.58602950","long":"130.39568540","store_key":463,"city":"Fukuoka"},{"name":"Cultural Hall - 文化堂","lat":"35.70862620","long":"139.66625190","store_key":466,"city":"Tokyo"},{"name":"ディスクユニオン新宿ラテン・ブラジル館","lat":"35.69064100","long":"139.70385500","store_key":474,"city":"Tokyo"},{"name":"Roman Shouten","lat":"35.01381140","long":"135.77538740","store_key":475,"city":"Kyoto"},{"name":"Hanky Panky Records - ハンキーパンキーレコード","lat":"34.67458460","long":"135.50203040","store_key":476,"city":"Osaka"},{"name":"Hot Vinyl","lat":"35.41044700","long":"139.59632100","store_key":479,"city":"Yokohama"},{"name":"Sawaddee Shop","lat":"35.69427000","long":"139.69618100","store_key":480,"city":"Tokyo"},{"name":"ヨーロピアンパパ","lat":"35.70803200","long":"139.65160800","store_key":481,"city":"Tokyo"},{"name":"TRANSIT RECORDS KYOTO","lat":"35.01951400","long":"135.76918700","store_key":536,"city":"Kyoto"},{"name":"Panda Panda","lat":"34.66978760","long":"135.49814120","store_key":543,"city":"Osaka"},{"name":"レコファン秋葉原SEEKBASE期間限定バザール","lat":"35.70071570","long":"139.77330310","store_key":581,"city":"Tokyo"},{"name":"Dumb Records","lat":"34.38998040","long":"132.46130030","store_key":661,"city":"Hiroshima"},{"name":"Stereo Records","lat":"34.39015920","long":"132.46074010","store_key":662,"city":"Hiroshima"},{"name":"disk union Osaka Store","lat":"34.70452050","long":"135.50324550","store_key":706,"city":"Osaka"},{"name":"Disk Union","lat":"35.61056200","long":"140.11800600","store_key":707,"city":"Chiba"},{"name":"Border Line Records - ボーダーライン小倉店","lat":"33.88820890","long":"130.88213500","store_key":758,"city":"Kitakyushu"},{"name":"ELLA RECORDS 下北沢店","lat":"35.66230670","long":"139.66714830","store_key":759,"city":"Tokyo"},{"name":"Ballroom Records","lat":"35.70150600","long":"139.58297600","store_key":765,"city":"Tokyo"},{"name":"月光社","lat":"35.70473200","long":"139.62228100","store_key":766,"city":"Tokyo"},{"name":"Nishiogi Unknown Record","lat":"35.70615700","long":"139.59616300","store_key":767,"city":"Tokyo"},{"name":"高田書房 常盤台店","lat":"35.75939400","long":"139.68796340","store_key":768,"city":"Tokyo"},{"name":"Penny Lane - ペニーレイン−犬山キャスタ店","lat":"35.38114640","long":"136.94698730","store_key":769,"city":"Inuyama"},{"name":"Ongaku Soko - 音楽創庫タナカ","lat":"43.03087850","long":"141.34809940","store_key":775,"city":"Sapporo"},{"name":"Maru Ka Batsu - マルかバツ堀江店","lat":"34.67388200","long":"135.49646300","store_key":781,"city":"Osaka"},{"name":"ディスクユニオン新宿パンクマーケット","lat":"35.69064010","long":"139.70384180","store_key":787,"city":"Tokyo"},{"name":"ディスクユニオン新宿プログレッシヴロック館","lat":"35.69063170","long":"139.70382760","store_key":788,"city":"Tokyo"},{"name":"ビヴァリー・レコード・ＪＡＺＺ中古レコード店","lat":"43.05960400","long":"141.35669900","store_key":789,"city":"Sapporo"},{"name":"ディスクビート","lat":"36.68609800","long":"137.22091200","store_key":790,"city":"Toyama"},{"name":"Silk Records","lat":"35.01479440","long":"135.76769320","store_key":791,"city":"Kyoto"},{"name":"K2 Record","lat":"34.66268840","long":"135.50566010","store_key":792,"city":"Osaka"},{"name":"Novel Attraction - ノーベルアトラクションレコード","lat":"35.33744090","long":"139.49172540","store_key":801,"city":"Fujisawa"},{"name":"Rubbergard Record","lat":"35.69781630","long":"139.75876420","store_key":839,"city":"Tokyo"},{"name":"Plus1 A.D.","lat":"41.77684784","long":"140.74227905","store_key":840,"city":"Hakodate"},{"name":"ART ROCK NO.1","lat":"35.00790700","long":"135.76559900","store_key":841,"city":"Kyoto"},{"name":"Second Market Place","lat":"35.88796997","long":"139.79991150","store_key":842,"city":"Koshigaya"},{"name":"Strada Records","lat":"34.69193810","long":"135.18760220","store_key":930,"city":"Kobe"},{"name":"Greatest Hits グレイテスト・ヒッツ","lat":"35.15807210","long":"136.89973950","store_key":994,"city":"Nagoya"},{"name":"Disk Union - Rock","lat":"35.69059810","long":"139.70296790","store_key":996,"city":"Tokyo"},{"name":"Carnival Record","lat":"34.69865036","long":"135.49980164","store_key":1009,"city":"Osaka"},{"name":"Fastcut Records - ファストカットレコード","lat":"34.67129600","long":"135.49408900","store_key":1042,"city":"Osaka"},{"name":"Dynamic Records - ダイナミックレコード","lat":"35.02867300","long":"135.94991700","store_key":1043,"city":"Kusatsu"},{"name":"Ella Records","lat":"35.67481270","long":"139.67944360","store_key":1050,"city":"Tokyo"},{"name":"ササキレコード社","lat":"40.81555630","long":"140.75164280","store_key":1058,"city":"Aomori"},{"name":"Disk Union Takadanobaba","lat":"35.71200230","long":"139.70420080","store_key":1066,"city":"Tokyo"},{"name":"diskunion大宮店","lat":"35.90890580","long":"139.62436460","store_key":1067,"city":"Saitama"},{"name":"Disk Union - ディスクユニオン北浦和店","lat":"35.87103600","long":"139.64121800","store_key":1069,"city":"Saitama"},{"name":"Shinjuku Record","lat":"35.66165740","long":"139.66841470","store_key":1070,"city":"Tokyo"},{"name":"Disc JJ ディスク・Ｊ・Ｊ梅田新館","lat":"34.69914970","long":"135.49679110","store_key":1072,"city":"Osaka"},{"name":"NEAT RECORDS","lat":"39.70237500","long":"141.15063970","store_key":1075,"city":"Morioka"},{"name":"CD&Record 珍屋北口店","lat":"35.70147290","long":"139.47903770","store_key":1077,"city":"Kokubunji"},{"name":"Enban","lat":"35.70506570","long":"139.64794910","store_key":1078,"city":"Tokyo"},{"name":"Waltz","lat":"35.63784060","long":"139.70225860","store_key":1120,"city":"Tokyo"},{"name":"Toradra - トラドラレコード","lat":"35.00757840","long":"135.76809610","store_key":1121,"city":"Kyoto"},{"name":"RECORD SHOP rare groove","lat":"34.67339706","long":"135.49879456","store_key":1124,"city":"Osaka"},{"name":"DISC SHOP ZERO","lat":"35.66006090","long":"139.66694990","store_key":1182,"city":"Tokyo"},{"name":"Store 15 Nov","lat":"38.26380260","long":"140.87702440","store_key":1240,"city":"Sendai"},{"name":"Mandarake Shibuya","lat":"35.66149139","long":"139.69779968","store_key":1275,"city":"Tokyo"},{"name":"Best Sound Records","lat":"35.66195620","long":"139.66580050","store_key":1276,"city":"Tokyo"},{"name":"中古ＣＤ・レコード店’６９","lat":"26.33770900","long":"127.80105800","store_key":1295,"city":"Okinawa"},{"name":"HMV record shop 新宿ALTA","lat":"35.69272232","long":"139.70130920","store_key":1305,"city":"Tokyo"},{"name":"Rhythmbox - りずむぼっくす神戸元町店","lat":"34.68960800","long":"135.18873700","store_key":1327,"city":"Kobe"},{"name":"Jungle Exotica - ジャングル・エキゾチカ","lat":"33.59182100","long":"130.39409100","store_key":1330,"city":"Fukuoka"},{"name":"Saadia Records | 中古レコード 通販 愛媛県松山市","lat":"33.83636900","long":"132.76945600","store_key":1337,"city":"Matsuyama"},{"name":"Record Sha","lat":"35.69786610","long":"139.75698120","store_key":1338,"city":"Tokyo"},{"name":"ディスクユニオン新宿中古ロックCD館","lat":"35.69064010","long":"139.70384180","store_key":1357,"city":"Tokyo"},{"name":"September Records - セプテンバーレコード","lat":"36.40757790","long":"138.96885720","store_key":1358,"city":"Takasaki"},{"name":"Red House","lat":"34.96694350","long":"136.62369530","store_key":1359,"city":"Yokkaichi"},{"name":"King Biscuit Records - キングビスケットレコード","lat":"34.66471320","long":"133.92600780","store_key":1361,"city":"Okayama"},{"name":"ざりがに堂","lat":"35.60848000","long":"139.51777300","store_key":1362,"city":"Tokyo"},{"name":"GARAGEVILLE - ガレージビル","lat":"35.65873010","long":"139.57359520","store_key":1363,"city":"Tokyo"},{"name":"DUB STORE","lat":"35.69467950","long":"139.69665220","store_key":1400,"city":"Tokyo"},{"name":"NAT RECORDS (ナット・レコーズ)","lat":"35.69657898","long":"139.69787598","store_key":1401,"city":"Tokyo"},{"name":"Especial Records","lat":"34.67774200","long":"135.49888611","store_key":1406,"city":"Osaka"},{"name":"Marginal","lat":"34.67773819","long":"135.49740601","store_key":1407,"city":"Osaka"},{"name":"Straight Records - ストレイト・レコーズ","lat":"34.70257300","long":"135.50528900","store_key":1408,"city":"Osaka"},{"name":"Disk Union Ikebukuro","lat":"35.72991200","long":"139.71352700","store_key":1490,"city":"Tokyo"},{"name":"Redbone Records","lat":"34.67657570","long":"135.50292110","store_key":1492,"city":"Osaka"},{"name":"福田商店 NASTY STREET RECORDS 1号店","lat":"32.79792300","long":"130.70654200","store_key":1505,"city":"Kumamoto"},{"name":"Thirty-Three","lat":"33.58698273","long":"130.39491272","store_key":1601,"city":"Fukuoka"},{"name":"Janiland - ジャニランド大阪本店","lat":"34.67433929","long":"135.49839783","store_key":1626,"city":"Osaka"},{"name":"Groovin 岡山表町店","lat":"34.66408700","long":"133.92949200","store_key":1682,"city":"Okayama"},{"name":"Black Ark - ブラック・アーク","lat":"35.00150100","long":"135.76909000","store_key":1688,"city":"Kyoto"},{"name":"富士レコード社","lat":"35.69559100","long":"139.75731600","store_key":1706,"city":"Tokyo"},{"name":"中古RECORD＆CDショップ サテライト","lat":"35.62886730","long":"139.68870580","store_key":1707,"city":"Tokyo"},{"name":"ディスクユニオン新宿インディ・オルタナティヴロック館","lat":"35.69069200","long":"139.70388170","store_key":1720,"city":"Tokyo"},{"name":"Exile Records","lat":"36.55825430","long":"136.65519180","store_key":1721,"city":"Kanazawa"},{"name":"セカンドビート","lat":"36.68844780","long":"137.21145620","store_key":1722,"city":"Toyama"},{"name":"enjoy the underground","lat":"35.41016100","long":"136.79320400","store_key":1723,"city":"Gifu-shi"},{"name":"Llamalabo Record","lat":"35.03712100","long":"135.78131400","store_key":1724,"city":"Kyoto"},{"name":"Sakura Records","lat":"34.67316860","long":"135.49770380","store_key":1725,"city":"Osaka"},{"name":"Harry","lat":"35.71289410","long":"139.70323450","store_key":1726,"city":"Tokyo"},{"name":"Daikanyama T-Site","lat":"35.64907330","long":"139.69958780","store_key":1732,"city":"Tokyo"},{"name":"Face Records","lat":"35.66268100","long":"139.69714370","store_key":1818,"city":"Tokyo"},{"name":"poco a poco","lat":"35.00794580","long":"135.76684290","store_key":1851,"city":"Kyoto"},{"name":"Super Milk","lat":"35.00643680","long":"135.76728830","store_key":1852,"city":"Kyoto"},{"name":"TOWER RECORDS","lat":"33.59052820","long":"130.39874640","store_key":1853,"city":"Fukuoka"},{"name":"City - Country - City","lat":"35.66094440","long":"139.66829460","store_key":1854,"city":"Tokyo"},{"name":"Music Punch RECORDS ( ミュージック パンチ レコード )","lat":"26.21903180","long":"127.68327780","store_key":1866,"city":"Naha"},{"name":"Kalavinka Music - カラビンカミュージック","lat":"33.59146830","long":"130.39286340","store_key":1907,"city":"Fukuoka"},{"name":"ストラッド・レコーズ","lat":"35.66953410","long":"139.59180390","store_key":1919,"city":"Tokyo"},{"name":"Shibuya BEAM","lat":"35.66131890","long":"139.69754840","store_key":1920,"city":"Tokyo"},{"name":"Asahikawa Reco Fan - 旭川レコファン","lat":"43.77162140","long":"142.36275160","store_key":1921,"city":"Asahikawa"},{"name":"Buggin’ Out (中古レコード・CD販売)","lat":"35.66457580","long":"138.70207470","store_key":1931,"city":"Yamanashi-shi"},{"name":"ディスクユニオン新宿CDレコードアクセサリー館","lat":"35.69064100","long":"139.70385500","store_key":1934,"city":"Tokyo"},{"name":"J&Bジェーアンドビー泉店","lat":"38.32282600","long":"140.88700890","store_key":1935,"city":"Sendai"},{"name":"Sky Children - スカイチルドレン・レコーズ","lat":"34.70479300","long":"137.72690100","store_key":1936,"city":"Hamamatsu"},{"name":"Bamboo Music","lat":"34.70501150","long":"135.50459970","store_key":1937,"city":"Osaka"},{"name":"Nasty Street Records - たらまよレコード","lat":"32.82764230","long":"130.75337010","store_key":1938,"city":"Kumamoto"},{"name":"LocoSoul Records Warehouse&Office(ロコソウルレコード ）","lat":"35.57787080","long":"139.66226950","store_key":1939,"city":"Tokyo"},{"name":"国分寺超山田堂","lat":"35.70396190","long":"139.48133640","store_key":1940,"city":"Kokubunji"},{"name":"ＯＬＤＩＥＳＢＵＴＧＯＯＤＩＥＳ−ＲＥＣＯＲＤＳ","lat":"35.72665060","long":"139.79112170","store_key":1941,"city":"Tokyo"},{"name":"Tower Records Umeda Osaka Marubiru shop","lat":"34.70004272","long":"135.49687195","store_key":2027,"city":"Osaka"},{"name":"Melody Green - メロディーグリーン","lat":"36.40061210","long":"138.25375800","store_key":2041,"city":"Ueda"},{"name":"Music Showa - ミュージック昭和楽器","lat":"38.24175200","long":"140.35055900","store_key":2054,"city":"Yamagata"},{"name":"Record Shop Zoo - レコードショップズー","lat":"35.15839990","long":"136.90109130","store_key":2059,"city":"Nagoya"},{"name":"East Record","lat":"35.69632330","long":"139.75823780","store_key":2062,"city":"Tokyo"},{"name":"Record Jungle｜中古盤･輸入盤","lat":"36.57232080","long":"136.65775870","store_key":2078,"city":"Kanazawa"},{"name":"Record Shop Gris Gris - レコード屋グリグリ","lat":"35.90767600","long":"139.62986500","store_key":2089,"city":"Saitama"},{"name":"Yoshida - ヨシダレコード","lat":"35.65880200","long":"139.66771800","store_key":2090,"city":"Tokyo"},{"name":"SHELLMAN & CO.","lat":"35.67024780","long":"139.76949220","store_key":2091,"city":"Tokyo"},{"name":"Music inn(ミュージック・イン)","lat":"34.70433400","long":"135.50111800","store_key":2099,"city":"Osaka"},{"name":"サイクルレコード","lat":"43.04472850","long":"141.40950170","store_key":2101,"city":"Sapporo"},{"name":"Nakashima Records","lat":"35.13783060","long":"136.98079500","store_key":2102,"city":"Nagoya"},{"name":"Out Record","lat":"35.16585670","long":"136.90344580","store_key":2103,"city":"Nagoya"},{"name":"Sweet Nuthin Records","lat":"32.80574190","long":"130.71058530","store_key":2107,"city":"Kumamoto"},{"name":"宇座商店","lat":"26.21289040","long":"127.68960050","store_key":2108,"city":"Naha"},{"name":"Jamaican Taste - ジャマイカン・テイスト","lat":"34.66465580","long":"133.92599810","store_key":2112,"city":"Okayama"},{"name":"Technique Tokyo","lat":"35.66092710","long":"139.69701060","store_key":2169,"city":"Tokyo"},{"name":"Freak Out Records","lat":"34.68825530","long":"135.18651992","store_key":2210,"city":"Kobe"},{"name":"A-1 Music","lat":"35.98155000","long":"139.75604500","store_key":2211,"city":"Kasukabe"},{"name":"Jet Set","lat":"35.66309700","long":"139.66923200","store_key":2244,"city":"Tokyo"},{"name":"GADGET","lat":"31.59235500","long":"130.55256780","store_key":2260,"city":"Kagoshima"},{"name":"Sasaki Records - ササキレコード社","lat":"35.69523470","long":"139.75762820","store_key":2299,"city":"Tokyo"},{"name":"Monosu Vinyl - リサイクル&リメイク モノス岡山","lat":"34.65554860","long":"133.82154150","store_key":2312,"city":"Kurashiki"},{"name":"Disk Union - ディスクユニオン 中野店","lat":"35.70850580","long":"139.66482510","store_key":2326,"city":"Tokyo"},{"name":"Paddy Field RECORDS","lat":"36.41630400","long":"140.46123200","store_key":2332,"city":"Ibaraki"},{"name":"King Kong Records - キングコング札幌店","lat":"43.05747000","long":"141.35524700","store_key":2343,"city":"Sapporo"},{"name":"Paradise Records - パラダイスレコード","lat":"38.31174920","long":"140.65218460","store_key":2344,"city":"Sendai"},{"name":"ディスクノート","lat":"38.26552400","long":"140.87378900","store_key":2345,"city":"Sendai"},{"name":"B-SELS","lat":"34.68453860","long":"135.82791780","store_key":2346,"city":"Nara"},{"name":"Crossroad Records","lat":"34.23388900","long":"135.17726650","store_key":2347,"city":"Wakayama"},{"name":"ポップインミュージック","lat":"33.56213700","long":"133.54672400","store_key":2349,"city":"Kochi"},{"name":"Tech Records","lat":"31.91412300","long":"131.42305400","store_key":2350,"city":"Miyazaki"},{"name":"キャンパスレコード山里本店","lat":"26.32383800","long":"127.79337100","store_key":2351,"city":"Okinawa"},{"name":"Bayside Jazz Records","lat":"35.45031450","long":"139.62981920","store_key":2352,"city":"Yokohama"},{"name":"珍屋立川１号店","lat":"35.69677200","long":"139.41741800","store_key":2353,"city":"Tachikawa"},{"name":"Jammers Record - ジャマーズレコード","lat":"35.66204390","long":"139.69723530","store_key":2354,"city":"Tokyo"},{"name":"五十歩百歩","lat":"35.70724100","long":"139.64994630","store_key":2355,"city":"Tokyo"},{"name":"(有)大洋レコード","lat":"35.70468700","long":"139.73275700","store_key":2356,"city":"Tokyo"},{"name":"ROOT","lat":"35.70129070","long":"139.75317830","store_key":2357,"city":"Tokyo"},{"name":"Hashodo koshoten","lat":"35.73178864","long":"139.70608521","store_key":2399,"city":"Tokyo"},{"name":"Big Love","lat":"35.67329300","long":"139.70923400","store_key":2461,"city":"Tokyo"},{"name":"Afro Juice Records","lat":"34.67418880","long":"135.49846780","store_key":2462,"city":"Osaka"},{"name":"Tower Records","lat":"26.21380090","long":"127.67930090","store_key":1621,"city":"Naha"},{"name":"Vasistas - かんけ書房","lat":"35.69726300","long":"139.75847960","store_key":2520,"city":"Tokyo"},{"name":"Banana Records","lat":"35.16902760","long":"136.90502560","store_key":406,"city":"Nagoya"},{"name":"Roots Lounge","lat":"35.02149660","long":"135.76951240","store_key":2656,"city":"Kyoto"},{"name":"Cat Fish Records","lat":"33.58691600","long":"130.39396300","store_key":2657,"city":"Fukuoka"},{"name":"King Kong","lat":"34.67204930","long":"135.49911280","store_key":2693,"city":"Osaka"},{"name":"Grind Records","lat":"34.67002480","long":"135.49781430","store_key":2697,"city":"Osaka"},{"name":"ハード・バップ（Ｈａｒｄ・Ｂｏｐ）","lat":"35.01186400","long":"135.76694000","store_key":2702,"city":"Kyoto"},{"name":"Happy Jack - ハッピージャック","lat":"35.00844500","long":"135.76684900","store_key":2703,"city":"Kyoto"},{"name":"RA'S DEN RECORDS","lat":"33.23821950","long":"131.60973870","store_key":2710,"city":"Oita"},{"name":"Orient Records","lat":"35.69425050","long":"139.76505630","store_key":2716,"city":"Tokyo"},{"name":"Etcetera Records - えとせとらレコード蒲田店","lat":"35.56041300","long":"139.71620700","store_key":2717,"city":"Tokyo"},{"name":"HMV","lat":"34.70502520","long":"135.49428830","store_key":2724,"city":"Osaka"},{"name":"ファイブ・レコーズ","lat":"43.05794080","long":"141.35854290","store_key":2726,"city":"Sapporo"},{"name":"アクション・タイム・ヴィジョン","lat":"39.70231100","long":"141.14930900","store_key":2727,"city":"Morioka"},{"name":"Everyday Records - エブリデイレコード","lat":"36.53870100","long":"136.63671010","store_key":2728,"city":"Kanazawa"},{"name":"AgriTribeMusic","lat":"34.97100560","long":"136.61796350","store_key":2729,"city":"Yokkaichi"},{"name":"サムズ・レコード・ショップ堺店","lat":"34.57602300","long":"135.49545800","store_key":2730,"city":"Sakai"},{"name":"レモンバイヤーズクラブ","lat":"31.90992890","long":"131.42171030","store_key":2731,"city":"Miyazaki"},{"name":"Sunrise Record Store","lat":"31.59089600","long":"130.55755500","store_key":2732,"city":"Kagoshima"},{"name":"Kisuisha - 古書汽水社","lat":"32.80683320","long":"130.71162870","store_key":2733,"city":"Kumamoto"},{"name":"Lot Record","lat":"35.65877740","long":"139.69610700","store_key":2734,"city":"Tokyo"},{"name":"CD&Record 珍屋南口店","lat":"35.69990600","long":"139.48341260","store_key":2735,"city":"Kokubunji"},{"name":"レコードショップゆうらしあ","lat":"35.69579270","long":"139.69754950","store_key":2736,"city":"Tokyo"},{"name":"Beams","lat":"35.67162220","long":"139.70817940","store_key":2771,"city":"Tokyo"},{"name":"HOT LINE","lat":"35.01139870","long":"135.76696390","store_key":2772,"city":"Kyoto"},{"name":"PROTOTYPE RECORDS","lat":"35.00991440","long":"135.76651001","store_key":2773,"city":"Kyoto"},{"name":"UPRISE MARKET","lat":"34.68000100","long":"135.49866900","store_key":2778,"city":"Osaka"},{"name":"Compufunk Records","lat":"34.69037700","long":"135.51217000","store_key":2781,"city":"Osaka"},{"name":"NERDS RECORD STORE","lat":"35.66257030","long":"139.69719600","store_key":2789,"city":"Tokyo"},{"name":"Lucky Lucky Record - ラッキーラッキーレコード","lat":"33.28875780","long":"130.10171810","store_key":2827,"city":"Taku"},{"name":"Coconuts Disk Kichijoji ココナッツディスク吉祥寺店","lat":"35.70329450","long":"139.57497390","store_key":2840,"city":"Tokyo"},{"name":"Perfect Pitch","lat":"34.67293930","long":"135.49949646","store_key":2850,"city":"Osaka"},{"name":"HARD BOP & FUNKY JAZZ","lat":"33.94572400","long":"130.96537830","store_key":2863,"city":"Kitakyushu"},{"name":"Disk Union","lat":"35.70054400","long":"139.41532600","store_key":707,"city":"Tachikawa"},{"name":"EBBTIDE RECORDS","lat":"34.67333160","long":"135.49873820","store_key":2882,"city":"Osaka"},{"name":"raf-rec","lat":"38.25009470","long":"140.32294770","store_key":2886,"city":"Yamagata"},{"name":"ディスクユニオン昭和歌謡館","lat":"35.69082380","long":"139.70269400","store_key":2888,"city":"Tokyo"},{"name":"ディスクユニオン 新宿中古館・ブックユニオン新宿","lat":"35.69031000","long":"139.70303290","store_key":2889,"city":"Tokyo"},{"name":"DX RECORDS","lat":"36.55619700","long":"139.88004900","store_key":2890,"city":"Utsonomiya"},{"name":"ソーン（ＳＯＮＥ）・ＲＥＣＯＲＤＳ","lat":"34.70793700","long":"137.72903100","store_key":2891,"city":"Hamamatsu"},{"name":"File Under レコードショップ・ファイルアンダー","lat":"35.15823820","long":"136.90056670","store_key":2892,"city":"Nagoya"},{"name":"ラ・ヴォーチェ京都","lat":"35.00244300","long":"135.76156600","store_key":2893,"city":"Kyoto"},{"name":"Hachi Record Shop and Bar","lat":"34.99501570","long":"135.76631580","store_key":2894,"city":"Kyoto"},{"name":"ロックンロールミュージックガーデン","lat":"35.66148300","long":"139.69699000","store_key":2895,"city":"Tokyo"},{"name":"More Music - モア・ミュー ジック","lat":"33.83994000","long":"132.75707300","store_key":2970,"city":"Matsuyama"},{"name":"Organic Music","lat":"35.72405305","long":"139.62107458","store_key":3021,"city":"Tokyo"},{"name":"J & B","lat":"40.64492420","long":"140.59623460","store_key":3035,"city":"Kuroishi"},{"name":"Union Record Shibuya Parco Record Store","lat":"35.66207780","long":"139.69924100","store_key":3049,"city":"Tokyo"},{"name":"Wild Honey Pie - ワイルドハニーパイ","lat":"34.68648130","long":"135.18390670","store_key":3057,"city":"Kobe"},{"name":"RECORD STATION","lat":"35.66427900","long":"139.66759300","store_key":3090,"city":"Tokyo"},{"name":"RECOfan Shibuya Beam - 二手唱片","lat":"35.66131890","long":"139.69754840","store_key":3151,"city":"Tokyo"},{"name":"Darumaya","lat":"35.73293100","long":"139.71483500","store_key":3152,"city":"Tokyo"},{"name":"Sonny Boy（有）サニーボーイ","lat":"32.74390680","long":"129.87984170","store_key":3240,"city":"Nagasaki"},{"name":"Disk Union - Classical","lat":"35.69196220","long":"139.70281770","store_key":3250,"city":"Tokyo"},{"name":"中古CDリバプール","lat":"35.71225739","long":"139.70738220","store_key":3261,"city":"Tokyo"},{"name":"Coconuts Disk","lat":"35.73622600","long":"139.67195900","store_key":3271,"city":"Tokyo"},{"name":"Huckleberry","lat":"34.68901640","long":"135.18898320","store_key":3282,"city":"Kobe"},{"name":"Smile Records - スマイルレコード","lat":"34.70311400","long":"135.50533300","store_key":3288,"city":"Osaka"},{"name":"Hawaii Records - ハワイレコード","lat":"34.71132610","long":"135.49311070","store_key":3289,"city":"Osaka"},{"name":"Sound Pak Analog - サウンド・パックアナログ店","lat":"34.65863820","long":"135.50632980","store_key":3290,"city":"Osaka"},{"name":"Taguchi Shoten - 田口商店","lat":"33.88619200","long":"130.87667400","store_key":3295,"city":"Kitakyushu"},{"name":"Page-One - ページ・ワン","lat":"43.03224890","long":"141.36329010","store_key":3301,"city":"Sapporo"},{"name":"Home Error - ホームエラー・レコード","lat":"35.70368500","long":"139.64985300","store_key":3302,"city":"Tokyo"},{"name":"Vinyl Junkie","lat":"35.66257600","long":"139.66590700","store_key":3303,"city":"Tokyo"},{"name":"仙台レコードライブラリー","lat":"38.27125900","long":"140.86543700","store_key":3317,"city":"Sendai"},{"name":"Abbey Road - アビーロード 浜松店","lat":"34.71402900","long":"137.76124900","store_key":3318,"city":"Hamamatsu"},{"name":"My Record","lat":"34.71389040","long":"135.49473990","store_key":3319,"city":"Osaka"},{"name":"The Melody","lat":"34.67303400","long":"135.50345400","store_key":3320,"city":"Osaka"},{"name":"Punk And Destroy","lat":"34.67057360","long":"135.49926880","store_key":3321,"city":"Osaka"},{"name":"レコードワン","lat":"34.65955800","long":"135.50560580","store_key":3322,"city":"Osaka"},{"name":"Mangasouko Douraku - マンガ倉庫にっぽんばし道楽店","lat":"34.65930190","long":"135.50607270","store_key":3323,"city":"Osaka"},{"name":"Record House Woodstock - レコードハウスウッドストック","lat":"32.80384680","long":"130.71338540","store_key":3325,"city":"Kumamoto"},{"name":"No-Z","lat":"35.67820090","long":"139.47801560","store_key":3326,"city":"Fuchu"},{"name":"Drops Records - ドロップス・レコード","lat":"35.60152800","long":"140.11604400","store_key":3355,"city":"Chiba"},{"name":"HMV","lat":"35.70466140","long":"139.57944660","store_key":2724,"city":"Tokyo"},{"name":"TOWER RECORDS","lat":"33.59076720","long":"130.42007530","store_key":1853,"city":"Fukuoka"},{"name":"Roots Records - ルーツレコード","lat":"34.34060200","long":"134.04973800","store_key":3517,"city":"Takamatsu"},{"name":"Eterna Trading - エテルナトレーディング","lat":"35.69798680","long":"139.75983710","store_key":3523,"city":"Tokyo"},{"name":"ブランドエックス","lat":"35.73049800","long":"139.71794100","store_key":3528,"city":"Tokyo"},{"name":"Fresh Air - フレッシュ・エアー","lat":"43.05669100","long":"141.34788300","store_key":3537,"city":"Sapporo"},{"name":"P-Can Fudge","lat":"35.16963800","long":"136.93672900","store_key":3538,"city":"Nagoya"},{"name":"Wheels Of Steel Records","lat":"34.68051830","long":"135.82914540","store_key":3539,"city":"Nara"},{"name":"ミュージックマン","lat":"34.70285560","long":"135.50597480","store_key":3540,"city":"Osaka"},{"name":"Teenage Dream - ティーンエイジ・ドリーム・レコード","lat":"33.59157690","long":"130.39190190","store_key":3542,"city":"Fukuoka"},{"name":"Workshop Records ワークショップレコード","lat":"35.01133830","long":"135.76707620","store_key":3591,"city":"Kyoto"},{"name":"Sound Pak","lat":"34.66255750","long":"135.50483830","store_key":3596,"city":"Osaka"},{"name":"Disc JJ ディスクJJ 日本橋本店","lat":"34.65979767","long":"135.50607300","store_key":3597,"city":"Osaka"},{"name":"Atelier Sawano - 澤野工房","lat":"34.65367300","long":"135.50566900","store_key":3598,"city":"Osaka"},{"name":"GINZA RECORDS & AUDIO","lat":"35.67361810","long":"139.76273090","store_key":3617,"city":"Tokyo"},{"name":"Dessinee Shop","lat":"35.64208790","long":"139.67206640","store_key":3680,"city":"Tokyo"},{"name":"Shop Mecano","lat":"35.70917100","long":"139.66609100","store_key":3696,"city":"Tokyo"},{"name":"tanz music records","lat":"34.39086180","long":"132.46554980","store_key":3768,"city":"Hiroshima"},{"name":"Manhattan Records","lat":"35.66253260","long":"139.69699010","store_key":3776,"city":"Tokyo"},{"name":"Koichiro Imai","lat":"35.62203979","long":"140.12442017","store_key":3785,"city":"Chiba"},{"name":"Honyarado - ほんやらどお","lat":"36.23129730","long":"137.97011520","store_key":3800,"city":"Matsumoto"},{"name":"Alffo Records","lat":"34.67776670","long":"135.49765570","store_key":3835,"city":"Osaka"},{"name":"HMV Lumine Est Shinjuku","lat":"35.69132370","long":"139.70114420","store_key":3851,"city":"Tokyo"},{"name":"Tower Records - タワーレコード 新潟店","lat":"37.87611530","long":"139.08088500","store_key":3858,"city":"Niigata"},{"name":"ヘリテージ・レコード","lat":"40.82265750","long":"140.73724730","store_key":3859,"city":"Aomori"},{"name":"Knowledge Records (ノーレッジ・レコーズ)","lat":"39.70302860","long":"141.14157070","store_key":3860,"city":"Morioka"},{"name":"サウス・ストリート","lat":"36.67135880","long":"137.22097570","store_key":3861,"city":"Toyama"},{"name":"ヴィンテージ","lat":"36.33390700","long":"139.45272300","store_key":3862,"city":"Ashikaga"},{"name":"MEGA-MIX RECORDS","lat":"35.16219600","long":"136.91428100","store_key":3863,"city":"Nagoya"},{"name":"Soundpak Honten","lat":"34.66251900","long":"135.50484350","store_key":3864,"city":"Osaka"},{"name":"Tops - トップス","lat":"35.53094890","long":"139.70100100","store_key":3866,"city":"Tokyo"},{"name":"akaru records アカル・レコーズ","lat":"35.68995730","long":"139.80815210","store_key":3876,"city":"Tokyo"},{"name":"Vinyl - 2nd Hand Records","lat":"35.69544610","long":"139.69798600","store_key":3904,"city":"Tokyo"},{"name":"pleased to meet me／プリトミ","lat":"34.69197140","long":"135.82614510","store_key":3934,"city":"Nara"},{"name":"Chicotan Records","lat":"34.61701330","long":"135.51856260","store_key":3937,"city":"Osaka"},{"name":"Rook Records - ルークレコーズ","lat":"34.96729210","long":"136.62153750","store_key":3941,"city":"Yokkaichi"},{"name":"Laidback - レイドバック（中古レコード買取・販売)","lat":"35.65911810","long":"138.57486960","store_key":3945,"city":"Kōfu"},{"name":"Disk Union","lat":"35.69082570","long":"139.70267650","store_key":707,"city":"Tokyo"},{"name":"ユニオンレコード新宿","lat":"35.69031000","long":"139.70303290","store_key":3962,"city":"Tokyo"},{"name":"Hobundo Book Store","lat":"35.73459120","long":"139.43463460","store_key":3963,"city":"Higashiyamato"},{"name":"Roots Lounge","lat":"35.17067340","long":"136.92356330","store_key":2656,"city":"Nagoya"},{"name":"Books Channel - ブックスチャンネル","lat":"34.62675200","long":"135.61916630","store_key":3964,"city":"Yao"},{"name":"Work Records - ワークス","lat":"35.72172000","long":"139.92625200","store_key":3967,"city":"Tokyo"},{"name":"Underground Gallery","lat":"34.69191320","long":"135.18712300","store_key":4004,"city":"Kobe"},{"name":"next records","lat":"35.66256200","long":"139.69722000","store_key":4039,"city":"Tokyo"},{"name":"Tower Records","lat":"35.68992700","long":"139.70154700","store_key":1621,"city":"Tokyo"},{"name":"Peanuts Records - ピーナッツレコード","lat":"32.80733300","long":"130.71392100","store_key":4158,"city":"Kumamoto"},{"name":"Pianola Records","lat":"35.65912101","long":"139.66423709","store_key":4171,"city":"Tokyo"},{"name":"Old Hat Gear","lat":"34.67334787","long":"135.49873753","store_key":4175,"city":"Osaka"},{"name":"Faerie Music Store","lat":"43.77385870","long":"142.35078680","store_key":4207,"city":"Asahikawa"},{"name":"Marking Records","lat":"36.23369320","long":"137.97466740","store_key":4217,"city":"Matsumoto"},{"name":"Groovin Record - グルーヴィンレコードステーション","lat":"34.39560770","long":"132.47192140","store_key":4232,"city":"Hiroshima"},{"name":"Soul Sauce Records","lat":"34.70759460","long":"135.50515340","store_key":4249,"city":"Osaka"},{"name":"Gecco - ゲッコーレコード","lat":"35.63108180","long":"139.70353180","store_key":4261,"city":"Tokyo"},{"name":"HMV","lat":"35.72978650","long":"139.70960820","store_key":2724,"city":"Tokyo"},{"name":"Tower Records Yokohama Vivre shop","lat":"35.46466540","long":"139.61822490","store_key":4268,"city":"Yokohama"},{"name":"Disc Evans","lat":"43.03796260","long":"141.35278060","store_key":4271,"city":"Sapporo"},{"name":"ヴィンテージレコード 全国買取受付センター","lat":"33.62479040","long":"130.43390660","store_key":4272,"city":"Fukuoka"},{"name":"Hodge Podge ホッヂ・ポッヂ","lat":"34.76214300","long":"137.41355300","store_key":4273,"city":"Toyohashi"},{"name":"Cremona","lat":"35.02971440","long":"135.75771830","store_key":4274,"city":"Kyoto"},{"name":"Lighthouse","lat":"34.65952770","long":"135.50639630","store_key":4275,"city":"Osaka"},{"name":"Ｅ・Ａ・Ｄ ２号店","lat":"35.45879000","long":"133.05842160","store_key":4276,"city":"Matsue"},{"name":"BluebeatRecordshop","lat":"26.32110500","long":"127.74967900","store_key":4277,"city":"Chatan"},{"name":"珍屋立川２号店","lat":"35.69638300","long":"139.41613200","store_key":4278,"city":"Tachikawa"},{"name":"AMS record shop","lat":"35.70120940","long":"139.75320910","store_key":4279,"city":"Tokyo"},{"name":"Cocobeat Records","lat":"37.39914650","long":"140.38198520","store_key":4285,"city":"Koriyama"},{"name":"Thrill and Pinch","lat":"36.21972190","long":"139.23236650","store_key":4289,"city":"Fukaya"},{"name":"LocoSoul - Records + Café","lat":"35.44240570","long":"139.65481567","store_key":4326,"city":"Yokohama"},{"name":"Base","lat":"35.70368500","long":"139.64985300","store_key":4327,"city":"Tokyo"},{"name":"Jazz Records Seeed","lat":"34.70416700","long":"135.50461800","store_key":4330,"city":"Osaka"},{"name":"TOWER RECORDS","lat":"34.69447770","long":"135.19614140","store_key":1853,"city":"Kobe"},{"name":"forever records","lat":"34.66247730","long":"135.50455190","store_key":4529,"city":"Osaka"},{"name":"田口商店 KEYAKI","lat":"33.58504950","long":"130.39028030","store_key":4601,"city":"Fukuoka"},{"name":"Penny Lane","lat":"35.29422980","long":"136.92589170","store_key":4609,"city":"Komaki"},{"name":"After All","lat":"36.68907510","long":"137.22035770","store_key":4614,"city":"Toyama"},{"name":"Record Shop Answer","lat":"35.16163580","long":"136.90459980","store_key":4615,"city":"Nagoya"},{"name":"Drella Records","lat":"34.67664520","long":"135.49486410","store_key":4616,"city":"Osaka"},{"name":"Borzoirecord","lat":"35.49943050","long":"134.23176100","store_key":4617,"city":"Tottori"},{"name":"円盤屋RECORDS","lat":"26.28546500","long":"127.75628100","store_key":4618,"city":"Ginowan"},{"name":"ハリウッドレコード新所沢店","lat":"35.80667300","long":"139.45517500","store_key":4619,"city":"Tokorozawa"},{"name":"Rerere No Record - レレレノレコード","lat":"35.91944030","long":"139.48286030","store_key":4620,"city":"Kawagoe"},{"name":"パレード","lat":"35.70000300","long":"139.56046700","store_key":4621,"city":"Tokyo"},{"name":"Mother Records - マザーズ、レコード","lat":"35.66255200","long":"139.69721200","store_key":4622,"city":"Tokyo"},{"name":"BACK TRIP Records","lat":"35.69548460","long":"139.69805770","store_key":4630,"city":"Tokyo"},{"name":"Disk Union Shinjuku Heavy Metal CD Record Store","lat":"35.69082570","long":"139.70267650","store_key":4638,"city":"Tokyo"},{"name":"Los Apson? ロスアプソン","lat":"35.70236260","long":"139.65225580","store_key":4666,"city":"Tokyo"},{"name":"Naminohana Records","lat":"34.67424980","long":"135.50417030","store_key":4672,"city":"Osaka"},{"name":"Sound Kitchen サウンド・キッチン","lat":"34.97519120","long":"138.38148760","store_key":4675,"city":"Shizuoka"},{"name":"Record Café - レコードカフェ","lat":"35.42980390","long":"136.32180490","store_key":4696,"city":"Nagahama"},{"name":"Isandla Records","lat":"34.67148880","long":"135.49628040","store_key":4707,"city":"Osaka"},{"name":"Greenhouse Records レコード屋・グリーンハウス","lat":"34.61794400","long":"133.77993300","store_key":4748,"city":"Kurashiki"},{"name":"Sound pak Nipponbashi-4chome","lat":"34.65983600","long":"135.50465500","store_key":4749,"city":"Osaka"},{"name":"Troop Records - トゥループ・レコーズ","lat":"33.58638370","long":"130.39489890","store_key":4755,"city":"Fukuoka"},{"name":"Vinyl Machine - ヴァイニル、マシーン","lat":"36.37912600","long":"140.46206900","store_key":4761,"city":"Mito"},{"name":"Time Shimokitazawa / Vinyl Bar","lat":"35.66735940","long":"139.66582350","store_key":4766,"city":"Tokyo"},{"name":"ロックボトム","lat":"36.19092000","long":"140.29003600","store_key":4773,"city":"Ishioka"},{"name":"Smile Records","lat":"34.66473850","long":"135.53296870","store_key":4774,"city":"Osaka"},{"name":"Panpot Records","lat":"34.67663800","long":"135.49958170","store_key":4775,"city":"Osaka"},{"name":"メリー・ナイス","lat":"34.65962500","long":"135.50490200","store_key":4776,"city":"Osaka"},{"name":"Disc Pier","lat":"34.65844730","long":"135.50636850","store_key":4777,"city":"Osaka"},{"name":"Underground Gallery KOBE Store","lat":"34.68312800","long":"135.16858300","store_key":4778,"city":"Kobe"},{"name":"グリーンハウス倉敷店","lat":"34.60167000","long":"133.76978400","store_key":4779,"city":"Kurashiki"},{"name":"ＢＩＧ・ＢＥＡＴ","lat":"33.57352600","long":"130.40930130","store_key":4780,"city":"Fukuoka"},{"name":"高良レコード店 本店楽器部","lat":"26.21684990","long":"127.69034090","store_key":4781,"city":"Naha"},{"name":"ADULT ORIENTED RECORDS","lat":"35.67022020","long":"139.68431600","store_key":4782,"city":"Tokyo"},{"name":"SORC 60-70's Used Records","lat":"35.16607200","long":"136.95123100","store_key":4862,"city":"Nagoya"},{"name":"Bomdiscos","lat":"36.69082430","long":"137.21687200","store_key":4863,"city":"Toyama"},{"name":"Mole Music","lat":"34.66220810","long":"135.84200940","store_key":4867,"city":"Nara"},{"name":"Banana Records - Jazz Syndicate","lat":"35.16904449","long":"136.90528870","store_key":4977,"city":"Nagoya"},{"name":"Bonjour","lat":"35.64862330","long":"139.70159010","store_key":410,"city":"Tokyo"},{"name":"Bonjour","lat":"35.68975449","long":"139.70051575","store_key":410,"city":"Tokyo"},{"name":"File Under","lat":"35.16117790","long":"136.90613300","store_key":5019,"city":"Nagoya"},{"name":"Kinkys - キンキーズ","lat":"34.76711500","long":"135.62385290","store_key":5023,"city":"Neyagawa"},{"name":"Anchor Records - アンカーレコード","lat":"35.69477840","long":"139.69828770","store_key":5036,"city":"Tokyo"},{"name":"PRANK Weird Store","lat":"35.66165120","long":"139.66943050","store_key":5041,"city":"Tokyo"},{"name":"Decibel - デシベル","lat":"35.16520400","long":"136.91295900","store_key":5050,"city":"Nagoya"},{"name":"Take-J","lat":"35.00388030","long":"135.76713360","store_key":5051,"city":"Kyoto"},{"name":"S.A.Music","lat":"34.66067360","long":"135.50409930","store_key":5052,"city":"Osaka"},{"name":"Rhythm Box - りずむぼっくす芦屋店","lat":"34.73336290","long":"135.31042550","store_key":5053,"city":"Ashiya"},{"name":"音楽基地 円盤堂","lat":"33.79108510","long":"132.88095650","store_key":5054,"city":"Toon"},{"name":"Mocking Bird - モッキンバード","lat":"31.59265060","long":"130.55384850","store_key":5055,"city":"Kagoshima"},{"name":"Takarajima","lat":"31.59235700","long":"130.55412400","store_key":5056,"city":"Kagoshima"},{"name":"Bootsy's","lat":"35.00880600","long":"135.77091300","store_key":5100,"city":"Kyoto"},{"name":"Hi-Fi Record Store ハイファイ・レコード・ストア","lat":"35.66375500","long":"139.70239500","store_key":5101,"city":"Tokyo"},{"name":"Drum&Bass Records / NIGHT WAX Records","lat":"34.66778800","long":"135.49295420","store_key":5105,"city":"Osaka"},{"name":"Trude Records (トゥルーデ レコード)","lat":"34.81974110","long":"134.69290110","store_key":5117,"city":"Himeji-shi"},{"name":"Coconuts Disk Ikebukuro","lat":"35.73043060","long":"139.70625305","store_key":5181,"city":"Tokyo"},{"name":"汎芽舎（hangesha record）","lat":"34.68930000","long":"135.18853100","store_key":5254,"city":"Kobe"},{"name":"Thee Rock'n'Roll Aids Production","lat":"34.68960953","long":"135.18890381","store_key":5255,"city":"Kobe"},{"name":"Lighthouse Records","lat":"35.65876100","long":"139.69828600","store_key":5305,"city":"Tokyo"},{"name":"Banana Records","lat":"34.95931700","long":"137.16302660","store_key":406,"city":"Okazaki"},{"name":"Vinyl Kobe Collection Market","lat":"34.68826054","long":"135.18650181","store_key":5367,"city":"Kobe"},{"name":"Groovenut Records 中古レコード屋","lat":"34.67042600","long":"135.49730800","store_key":5416,"city":"Osaka"},{"name":"spital","lat":"33.88671800","long":"130.87591800","store_key":5435,"city":"Kitakyushu"},{"name":"CD-Brain Records","lat":"38.72029310","long":"139.82140630","store_key":5441,"city":"Tsuruoka"},{"name":"Fun - ファンレコード","lat":"35.70356480","long":"139.60169420","store_key":5448,"city":"Tokyo"},{"name":"FUNTIME","lat":"35.69974670","long":"139.76264160","store_key":5449,"city":"Tokyo"},{"name":"Disk World Yutenji Shop","lat":"35.63560210","long":"139.69145400","store_key":5450,"city":"Tokyo"},{"name":"LOOSE RECORDS","lat":"38.25624170","long":"140.87188260","store_key":5458,"city":"Sendai"},{"name":"中古レコード専門店 BEATBOOM！本店","lat":"36.55264420","long":"139.90564670","store_key":5459,"city":"Utsonomiya"},{"name":"サードビート","lat":"36.75107700","long":"137.03139700","store_key":5460,"city":"Takaoka"},{"name":"アオイ・レコード","lat":"35.37152660","long":"136.03228550","store_key":5461,"city":"Takashima"},{"name":"コング八戸ノ里店（CD&Game 買取専門）","lat":"34.66365400","long":"135.58845300","store_key":5462,"city":"Osaka"},{"name":"Caspal Records","lat":"34.67211560","long":"135.49822850","store_key":5463,"city":"Osaka"},{"name":"Disc Garden - ディスクガーデン","lat":"34.68830200","long":"135.18854000","store_key":5464,"city":"Kobe"},{"name":"Power Plant Records - パワープラントレコード","lat":"34.66628350","long":"133.92513430","store_key":5465,"city":"Okayama"},{"name":"サージェントペパーズ","lat":"35.46067400","long":"133.33673500","store_key":5466,"city":"Yonago"},{"name":"Tracks Japan - トラックスジャパン","lat":"35.44237700","long":"139.63217000","store_key":5467,"city":"Yokohama"},{"name":"レコードハウス・パム","lat":"35.54693410","long":"139.44648320","store_key":5468,"city":"Machida"},{"name":"ディスクユニオン吉祥寺ジャズ＆クラシック館","lat":"35.70410300","long":"139.57946800","store_key":5469,"city":"Tokyo"},{"name":"Flower Records - フラワーレコード","lat":"35.70767600","long":"139.66649600","store_key":5470,"city":"Tokyo"},{"name":"Grindrecords Warehouse","lat":"34.67111220","long":"135.48809470","store_key":5508,"city":"Osaka"},{"name":"Disk union","lat":"34.70466020","long":"135.50303720","store_key":5537,"city":"Osaka"},{"name":"Mint Records #2","lat":"34.65853340","long":"135.50597690","store_key":5635,"city":"Osaka"},{"name":"Be-In Records - ビー・インレコード","lat":"35.70391200","long":"139.64870600","store_key":5663,"city":"Tokyo"},{"name":"RHYTHMBOX","lat":"34.69176080","long":"135.19247040","store_key":5684,"city":"Kobe"},{"name":"Joe's Garage - ジョーズ・ガレージ","lat":"35.00469540","long":"135.76285010","store_key":5686,"city":"Kyoto"},{"name":"Promenade Records","lat":"35.72088670","long":"139.57191780","store_key":5693,"city":"Tokyo"},{"name":"Disk Union Machida","lat":"35.54178030","long":"139.44988700","store_key":5694,"city":"Machida"},{"name":"HMVららぽーと豊洲","lat":"35.65617020","long":"139.79261380","store_key":5696,"city":"Tokyo"},{"name":"Disk Union","lat":"35.70431700","long":"139.57950700","store_key":707,"city":"Tokyo"},{"name":"Be 倶楽部","lat":"43.08307360","long":"141.34502030","store_key":5702,"city":"Sapporo"},{"name":"Bullet Records","lat":"37.91844790","long":"139.04475640","store_key":5703,"city":"Niigata"},{"name":"名曲堂阪急東通店","lat":"34.70327300","long":"135.50532600","store_key":5704,"city":"Osaka"},{"name":"Carib Records","lat":"34.66019100","long":"135.50041300","store_key":5705,"city":"Osaka"},{"name":"ジスボーイ","lat":"34.32005170","long":"132.81504450","store_key":5706,"city":"Higashihiroshima"},{"name":"discland JARO","lat":"35.66003300","long":"139.69871290","store_key":5748,"city":"Tokyo"},{"name":"Tower Records Namba","lat":"34.66455780","long":"135.50265630","store_key":5751,"city":"Osaka"},{"name":"Record shop Naka second shop","lat":"34.66236300","long":"135.50388200","store_key":5753,"city":"Osaka"},{"name":"Rockers Island","lat":"34.67205940","long":"135.49899500","store_key":5754,"city":"Osaka"},{"name":"Voxmusic","lat":"34.67291000","long":"135.49948200","store_key":5755,"city":"Osaka"},{"name":"Under Pass Tracks","lat":"36.37437100","long":"140.47325700","store_key":5790,"city":"Mito"},{"name":"C-Station シーステーション","lat":"34.79199700","long":"135.54913100","store_key":5796,"city":"Osaka"},{"name":"LIVING STEREO","lat":"33.58747710","long":"130.40391870","store_key":5828,"city":"Fukuoka"},{"name":"Otokichi - 音吉プレミアム浜松宮竹店","lat":"34.72210400","long":"137.76540400","store_key":5840,"city":"Hamamatsu"},{"name":"Son Of Three Sounds - サン・オブ・スリーサウンズ","lat":"35.16745600","long":"136.90448300","store_key":5853,"city":"Nagoya"},{"name":"Birdland","lat":"34.76619800","long":"136.12958800","store_key":5854,"city":"Iga"},{"name":"Hitozoku Record","lat":"35.00711520","long":"135.77021140","store_key":5855,"city":"Kyoto"},{"name":"大潮レコード OOSHIO RECORDS HIROSHIMA","lat":"34.51637700","long":"132.51373600","store_key":5856,"city":"Hiroshima"},{"name":"中古レコード店サウンズ","lat":"34.05596200","long":"131.56968700","store_key":5857,"city":"Hofu"},{"name":"Beginners Records(ビギナーズ･レコード)","lat":"32.79670670","long":"130.71533780","store_key":5858,"city":"Kumamoto"},{"name":"ＲＡＲＥ国立店","lat":"35.69790800","long":"139.44637100","store_key":5859,"city":"Kunitachi"},{"name":"Disk Union","lat":"35.69960500","long":"139.76412500","store_key":707,"city":"Tokyo"},{"name":"Perfect Circle Beatles Store","lat":"35.69462900","long":"139.69854700","store_key":5865,"city":"Tokyo"},{"name":"Flash Disc Ranch","lat":"35.66068470","long":"139.66835380","store_key":5925,"city":"Tokyo"},{"name":"Store 15 Nov - ストア・ジューゴノヴ","lat":"38.26379620","long":"140.87688850","store_key":5956,"city":"Sendai"},{"name":"Banana Records","lat":"35.14380646","long":"136.90049744","store_key":406,"city":"Nagoya"},{"name":"Music First","lat":"35.17237473","long":"136.91191101","store_key":5966,"city":"Nagoya"},{"name":"Sound Bay Republic","lat":"35.14575195","long":"136.90095520","store_key":5967,"city":"Nagoya"},{"name":"Mint Records - 中古 レコード 買い取り 出張","lat":"34.66325780","long":"135.50392690","store_key":5968,"city":"Osaka"},{"name":"Jazz Blues Soul Bar","lat":"35.65702780","long":"139.69668610","store_key":5969,"city":"Tokyo"},{"name":"Jet Set","lat":"35.00978120","long":"135.76874140","store_key":2244,"city":"Kyoto"},{"name":"El Sur Records","lat":"35.66432690","long":"139.70073690","store_key":6007,"city":"Tokyo"},{"name":"Wave","lat":"35.66201660","long":"139.69887780","store_key":168,"city":"Tokyo"},{"name":"Border Line Records - ボーダーライン福岡店","lat":"33.58724700","long":"130.39550800","store_key":6213,"city":"Fukuoka"},{"name":"Yozorasha - ヨゾラ舎","lat":"35.01581100","long":"135.76809870","store_key":6215,"city":"Kyoto"},{"name":"Pooh Yokocho - プー横丁","lat":"35.01112250","long":"135.76623790","store_key":6216,"city":"Kyoto"},{"name":"Hifi Do","lat":"33.58957180","long":"130.39365430","store_key":6219,"city":"Fukuoka"},{"name":"Eto Nankaido - エトウ南海堂","lat":"33.23736180","long":"131.60642470","store_key":6220,"city":"Oita"},{"name":"RECORD SHOP ANDY","lat":"35.15837110","long":"136.89877300","store_key":6221,"city":"Nagoya"},{"name":"Mother Goo - マザーグース・レコード","lat":"34.71741280","long":"136.50378860","store_key":6233,"city":"Tsu"},{"name":"Bird Nest - バードネスト","lat":"35.69954960","long":"139.76346100","store_key":6234,"city":"Tokyo"},{"name":"蓄晃堂","lat":"35.71069760","long":"139.77493930","store_key":6235,"city":"Tokyo"},{"name":"Sakaechō","lat":"35.73978790","long":"139.66942470","store_key":6236,"city":"Tokyo"},{"name":"Nat Records (Reggae)","lat":"35.69476900","long":"139.69789900","store_key":6238,"city":"Tokyo"},{"name":"ディスクユニオン新宿ロック新品ストア","lat":"35.69064010","long":"139.70384180","store_key":6253,"city":"Tokyo"},{"name":"豊文堂書店北大通店","lat":"42.98605990","long":"144.38422960","store_key":6254,"city":"Kushiro"},{"name":"レコードマーケット","lat":"36.68948900","long":"137.20833900","store_key":6255,"city":"Toyama"},{"name":"CORNERSHOP","lat":"34.97318750","long":"138.38315710","store_key":6256,"city":"Shizuoka"},{"name":"Soulclap - ソウルクラップ","lat":"34.70568500","long":"137.72864300","store_key":6257,"city":"Hamamatsu"},{"name":"Gaku-Ya","lat":"35.13214590","long":"136.98208550","store_key":6258,"city":"Nagoya"},{"name":"Soundpak Sakaisuji","lat":"34.65827590","long":"135.50557000","store_key":6259,"city":"Osaka"},{"name":"ＣＤ屋","lat":"26.23795210","long":"127.77544060","store_key":6260,"city":"Nakagusuku"},{"name":"Good Music Records","lat":"26.21489010","long":"127.68748110","store_key":6261,"city":"Naha"},{"name":"Toh Chisei Yoyogi","lat":"35.68336910","long":"139.70302760","store_key":6262,"city":"Tokyo"},{"name":"Record BOY","lat":"35.70350080","long":"139.64874600","store_key":6263,"city":"Tokyo"},{"name":"EAD RECORD","lat":"35.70449070","long":"139.65086570","store_key":6286,"city":"Tokyo"},{"name":"rare record","lat":"35.70288467","long":"139.57795715","store_key":6287,"city":"Tokyo"},{"name":"Jazzy Sport Shimokitazawa","lat":"35.66029900","long":"139.66719900","store_key":6292,"city":"Tokyo"},{"name":"Morpho Records - モルフォレコード","lat":"34.67331500","long":"135.49881000","store_key":6294,"city":"Osaka"},{"name":"Record Polis - レコードポリス レコード","lat":"33.57757100","long":"130.41062660","store_key":6328,"city":"Fukuoka"},{"name":"Tsutaya Books Daikanyama","lat":"35.64887040","long":"139.69975970","store_key":6329,"city":"Tokyo"},{"name":"Bugler - ビュグラーまでのご案内","lat":"35.72293580","long":"139.45887440","store_key":6371,"city":"Kodaira"},{"name":"Takechas Records - タケチャス・レコーズ","lat":"43.05697640","long":"141.33436170","store_key":6372,"city":"Sapporo"},{"name":"Revenge Records","lat":"34.67197920","long":"135.49632670","store_key":6381,"city":"Osaka"},{"name":"King Kong - キングコング新潟店","lat":"37.92085260","long":"139.04336770","store_key":6385,"city":"Niigata"},{"name":"SoundChannel","lat":"39.70068850","long":"141.14556010","store_key":6387,"city":"Morioka"},{"name":"アールストック","lat":"37.88351950","long":"138.97729220","store_key":6388,"city":"Niigata"},{"name":"NOW","lat":"36.72458320","long":"139.69185280","store_key":6389,"city":"Nikko"},{"name":"太陽中古レコード専門店","lat":"35.01437810","long":"135.77819570","store_key":6390,"city":"Kyoto"},{"name":"Vinyl7 records","lat":"35.00967820","long":"135.76803220","store_key":6391,"city":"Kyoto"},{"name":"Green House Records - グリーンハウス 岡山店","lat":"34.64512240","long":"133.88728360","store_key":6392,"city":"Okayama"},{"name":"Light On - ライトオン","lat":"35.40666510","long":"139.59473100","store_key":6393,"city":"Yokohama"},{"name":"バック・トゥ・ザ・ロック・レコード・サービス","lat":"35.46055300","long":"139.61946300","store_key":6394,"city":"Yokohama"},{"name":"Disk Union - Jazz","lat":"35.69054950","long":"139.70424070","store_key":6427,"city":"Tokyo"},{"name":"Meditations","lat":"35.01951900","long":"135.76918200","store_key":6428,"city":"Kyoto"},{"name":"Tower Records Cafe Omotesando","lat":"35.66801320","long":"139.70597210","store_key":6463,"city":"Tokyo"},{"name":"Time Bomb Records","lat":"34.67222060","long":"135.49618130","store_key":6464,"city":"Osaka"},{"name":"Books And So On - 本とかの店","lat":"35.01674420","long":"135.77863990","store_key":6467,"city":"Kyoto"},{"name":"Tower Records Shibuya","lat":"35.66191900","long":"139.70099490","store_key":6498,"city":"Tokyo"},{"name":"Disk Union Shibuya","lat":"35.66085470","long":"139.69805770","store_key":6502,"city":"Tokyo"},{"name":"Beavers Books - ビーバーズブックス","lat":"43.03757190","long":"141.34808700","store_key":6530,"city":"Sapporo"},{"name":"stiff slack","lat":"35.16861700","long":"136.91194600","store_key":6563,"city":"Nagoya"},{"name":"Banana Records - Shop Eroica","lat":"35.16899109","long":"136.90492249","store_key":6564,"city":"Nagoya"},{"name":"Pigeon Records","lat":"35.16309050","long":"136.90383470","store_key":6565,"city":"Nagoya"},{"name":"Dynamite - ダイナマイト","lat":"34.68843590","long":"135.18422220","store_key":6566,"city":"Kobe"},{"name":"Vinyl Chamber","lat":"34.67333221","long":"135.49873352","store_key":6567,"city":"Osaka"},{"name":"DISK UNION 横浜関内店","lat":"35.44678180","long":"139.63569520","store_key":6605,"city":"Yokohama"},{"name":"Open Heart Records","lat":"35.64200400","long":"139.67295100","store_key":6626,"city":"Tokyo"},{"name":"Soul Junction Records - ソウル・ジャンクション・レコード","lat":"35.66349270","long":"139.66940090","store_key":6627,"city":"Tokyo"},{"name":"Disk Union Shinjuku Used Center","lat":"35.69220670","long":"139.70296840","store_key":6634,"city":"Tokyo"},{"name":"アナログレコード専門 洋盤屋","lat":"34.97639900","long":"138.41576200","store_key":6635,"city":"Shiozuoka"},{"name":"Music First","lat":"35.16294270","long":"136.90812440","store_key":5966,"city":"Nagoya"},{"name":"Blue Soul Records","lat":"34.67750890","long":"135.49836310","store_key":6636,"city":"Osaka"},{"name":"Zipangu record","lat":"34.63427930","long":"135.08283040","store_key":6639,"city":"Kobe"},{"name":"MUSHROOM RECORDS","lat":"34.33584170","long":"134.05352270","store_key":6640,"city":"Takamatsu"},{"name":"Too Nice","lat":"34.33986220","long":"134.04808240","store_key":6684,"city":"Takamatsu"},{"name":"RUBIC RECORDS","lat":"34.66056500","long":"135.50353700","store_key":6692,"city":"Osaka"},{"name":"Disques Blue-Very","lat":"35.70643620","long":"139.65094610","store_key":6726,"city":"Tokyo"},{"name":"Disk Union Jazz Tokyo CD Record Store","lat":"35.69894409","long":"139.76260376","store_key":6760,"city":"Tokyo"},{"name":"Tower Records","lat":"34.39210820","long":"132.46267860","store_key":1621,"city":"Hiroshima"},{"name":"FLAKE RECORDS","lat":"34.67186700","long":"135.49610100","store_key":6827,"city":"Osaka"},{"name":"Banana Record","lat":"35.15980150","long":"136.90365990","store_key":6829,"city":"Nagoya"},{"name":"Ongaku Dokoro","lat":"43.05862190","long":"141.35212280","store_key":6832,"city":"Sapporo"},{"name":"Little Soul Cafe","lat":"35.66319700","long":"139.66938300","store_key":6834,"city":"Tokyo"},{"name":"Jazzy Sport Music Shop Tokyo","lat":"35.63202810","long":"139.68608950","store_key":6864,"city":"Tokyo"},{"name":"Coco-Isle Music Market","lat":"35.66489410","long":"139.70126343","store_key":6871,"city":"Tokyo"},{"name":"Disk Shop Misery","lat":"34.39224243","long":"132.45941162","store_key":6948,"city":"Hiroshima"},{"name":"Disk Union Jinbocho CD Record shop","lat":"35.69620180","long":"139.75979090","store_key":6986,"city":"Tokyo"},{"name":"Warehouse ウエアハウス","lat":"35.69657000","long":"139.69783600","store_key":7015,"city":"Tokyo"},{"name":"THROAT RECORDS","lat":"34.68001400","long":"135.82587000","store_key":7016,"city":"Nara"},{"name":"Revelation Time - リベレーション･タイム","lat":"34.67770200","long":"135.49867800","store_key":7027,"city":"Osaka"},{"name":"SUNNY DAYS COFFEE","lat":"31.58103920","long":"130.55514050","store_key":7040,"city":"Kagoshima"},{"name":"Araya Records - 新屋レコーズ","lat":"39.68215900","long":"140.08314810","store_key":7045,"city":"Akita"},{"name":"Record City Shop","lat":"35.69560360","long":"139.69775830","store_key":7052,"city":"Tokyo"},{"name":"Beatniks - ビートニクス","lat":"36.23390240","long":"137.96945680","store_key":7068,"city":"Matsumoto"},{"name":"Assemblage - 買取はいつでも9～20時受付！アッサンブラージュ","lat":"33.54938650","long":"130.31356610","store_key":7102,"city":"Fukuoka"},{"name":"J&B - ジェーアンドビー北目町店","lat":"38.25540300","long":"140.87506700","store_key":7110,"city":"Sendai"},{"name":"Cactus Records - サボテンレコード","lat":"35.66227650","long":"139.66878570","store_key":7113,"city":"Tokyo"},{"name":"Inception Records","lat":"36.41146370","long":"139.33832090","store_key":7128,"city":"Kiryū"},{"name":"名古屋・愛知県内のレコード【無料出張】買取・販売 ラジオデイズ・レコード","lat":"35.16916800","long":"136.91901400","store_key":7129,"city":"Nagoya"},{"name":"Honto Record - ほんとレコード","lat":"35.01760390","long":"135.76843130","store_key":7130,"city":"Kyoto"},{"name":"ゴクラクレコード","lat":"35.48989810","long":"139.62756860","store_key":7133,"city":"Yokohama"},{"name":"アンドー楽器店","lat":"35.67527400","long":"139.64330000","store_key":7134,"city":"Tokyo"},{"name":"ディスクユニオン お茶の水クラシック館","lat":"35.69983130","long":"139.76279980","store_key":7135,"city":"Tokyo"},{"name":"Disk Union Yokahama-Nishiguchi","lat":"35.46366900","long":"139.61800700","store_key":7169,"city":"Yokohama"},{"name":"Hi-Fi-Do - ハイファイ堂 レコード店","lat":"35.16046450","long":"136.90473320","store_key":7178,"city":"Nagoya"},{"name":"Red Ring Records","lat":"35.69563600","long":"139.69801700","store_key":7203,"city":"Tokyo"},{"name":"ディスクユニオン新宿 ソウル・ダンスミュージックショップ","lat":"35.69029040","long":"139.70302760","store_key":7206,"city":"Tokyo"},{"name":"Good Timin' Records - グッド・タイミン・レコード","lat":"34.97550400","long":"138.38841700","store_key":7207,"city":"Shizuoka"},{"name":"OUTSIDE RECORDS","lat":"34.93518640","long":"137.16096970","store_key":7208,"city":"Okazaki"},{"name":"ReNTReC.","lat":"33.28193020","long":"131.50145660","store_key":7209,"city":"Beppu"},{"name":"Down town Record","lat":"35.67003240","long":"139.81505130","store_key":7210,"city":"Tokyo"},{"name":"Disk Union","lat":"35.85952400","long":"139.97239200","store_key":707,"city":"Kashiwa"},{"name":"Disk Union Shinjuku Club Music Shop","lat":"35.69025530","long":"139.70309490","store_key":7248,"city":"Tokyo"},{"name":"HOT STEP","lat":"35.00597620","long":"135.76843800","store_key":7249,"city":"Kyoto"},{"name":"Noah Lewis Record ノアルイズ・レコード","lat":"35.66137600","long":"139.66642600","store_key":7254,"city":"Tokyo"},{"name":"HMV record shop Shibuya","lat":"35.66202430","long":"139.69721230","store_key":7372,"city":"Tokyo"},{"name":"Disk Union Shimokitazawa ディスクユニオン 下北沢店","lat":"35.66194540","long":"139.67004270","store_key":7392,"city":"Tokyo"},{"name":"Atico (アティコ)","lat":"42.81940700","long":"141.64981230","store_key":7393,"city":"Chitose"},{"name":"Parallax Records - パララックスレコード","lat":"35.00800040","long":"135.76731570","store_key":7421,"city":"Kyoto"},{"name":"Rare Records 中野店","lat":"35.70776000","long":"139.66537700","store_key":7494,"city":"Tokyo"},{"name":"Newtone Records","lat":"34.67418500","long":"135.49845000","store_key":7499,"city":"Osaka"},{"name":"Night Beat Records - ナイトビートレコード","lat":"34.67327340","long":"135.49876430","store_key":7504,"city":"Osaka"},{"name":"GOODTIMES","lat":"36.64702450","long":"138.18855220","store_key":7532,"city":"Nagano"},{"name":"L-Committee Records","lat":"35.01308900","long":"135.76807930","store_key":7567,"city":"Kyoto"},{"name":"Upstairs Records & Bar","lat":"35.66409300","long":"139.66797600","store_key":7569,"city":"Tokyo"},{"name":"Disk Union Ochanomizu Station shop","lat":"35.69875740","long":"139.76516330","store_key":7574,"city":"Tokyo"},{"name":"Wild One (ワイルドワン)","lat":"34.66255360","long":"135.50484460","store_key":7582,"city":"Osaka"},{"name":"Rock Stakk Records","lat":"34.70237000","long":"135.50240100","store_key":7583,"city":"Osaka"},{"name":"ルーシーズポケット","lat":"43.05814460","long":"141.35624320","store_key":7589,"city":"Sapporo"},{"name":"DISKNOTE 盛岡店","lat":"39.70256650","long":"141.14476800","store_key":7590,"city":"Morioka"},{"name":"Mahoujin - 魔法陣","lat":"36.55351080","long":"136.68781190","store_key":7591,"city":"Kanazawa"},{"name":"Devine Records - ディヴァインレコード","lat":"35.17005200","long":"136.92192720","store_key":7592,"city":"Nagoya"},{"name":"DISK HEAVEN","lat":"35.16184690","long":"136.89946480","store_key":7593,"city":"Nagoya"},{"name":"りずむぼっくす三宮店","lat":"34.69133000","long":"135.19391400","store_key":7594,"city":"Kobe"},{"name":"BAYSONIC KOBE","lat":"34.68312800","long":"135.16858300","store_key":7595,"city":"Kobe"},{"name":"iNaDAY records","lat":"32.80702580","long":"130.71206520","store_key":7596,"city":"Kumamoto"},{"name":"HALs (Records)","lat":"35.69462600","long":"139.69854710","store_key":7600,"city":"Tokyo"},{"name":"SUBstore Tokyo","lat":"35.70540200","long":"139.64850210","store_key":7635,"city":"Tokyo"},{"name":"Yellow Pop - Kawaguchi","lat":"35.80181800","long":"139.72033400","store_key":7636,"city":"Tokyo"},{"name":"100000tアローントコ","lat":"35.01133200","long":"135.76712100","store_key":7637,"city":"Kyoto"}]