[{"name":"Hyundai Card Music Library","lat":"37.53662400","long":"127.00068900","store_key":51,"city":"Seoul"},{"name":"우주만물 宇宙萬物 CosmosWholesale","lat":"37.56766740","long":"126.99071990","store_key":74,"city":"Seoul"},{"name":"Ggumnamu (\"Dreamtree\")","lat":"35.22964859","long":"128.68066406","store_key":357,"city":"Changwon"},{"name":"MioRecords Korea","lat":"37.56967360","long":"126.99518360","store_key":1159,"city":"Seoul"},{"name":"Dope Records","lat":"37.53942190","long":"126.94871330","store_key":1351,"city":"Seoul"},{"name":"33RPM LP SHOP","lat":"37.52163840","long":"127.02794500","store_key":1414,"city":"Seoul"},{"name":"Pil","lat":"37.51935090","long":"127.03028690","store_key":1415,"city":"Seoul"},{"name":"Aisle Records","lat":"36.35082750","long":"127.37669710","store_key":1447,"city":"Daejeon"},{"name":"Welcome Records","lat":"37.52448980","long":"127.03637140","store_key":1451,"city":"Seoul"},{"name":"The DISK","lat":"37.56047000","long":"126.98223820","store_key":1455,"city":"Seoul"},{"name":"Clique Records","lat":"37.56612778","long":"126.99168396","store_key":1463,"city":"Seoul"},{"name":"Novvave Records","lat":"37.52115230","long":"127.02364570","store_key":1513,"city":"Seoul"},{"name":"rm.360","lat":"37.48118591","long":"126.99991608","store_key":1997,"city":"Seoul"},{"name":"인천여관X루비살롱 Incheon Motel X Ruby Salon","lat":"37.47232050","long":"126.62465580","store_key":2267,"city":"Incheon"},{"name":"Buruttrak","lat":"37.56112970","long":"126.98287370","store_key":2699,"city":"Seoul"},{"name":"seterecords","lat":"37.55491740","long":"126.91666680","store_key":3097,"city":"Seoul"},{"name":"Vinyl & Plastic By Hyundai Card","lat":"37.53677410","long":"127.00085490","store_key":3546,"city":"Seoul"},{"name":"Alouette","lat":"37.55480540","long":"126.91329800","store_key":3692,"city":"Seoul"},{"name":"Papageno","lat":"37.56124080","long":"126.98353400","store_key":4148,"city":"Seoul"},{"name":"Peter Pan LP","lat":"37.55693197","long":"126.92612844","store_key":4154,"city":"Seoul"},{"name":"CODA","lat":"37.56055570","long":"126.98181860","store_key":4178,"city":"Seoul"},{"name":"MOSAIC","lat":"37.56294540","long":"127.01141020","store_key":4215,"city":"Seoul"},{"name":"Metavox - 메타복스","lat":"37.55095490","long":"126.92398300","store_key":4282,"city":"Seoul"},{"name":"Hyang Records","lat":"37.55829670","long":"126.93673380","store_key":4494,"city":"Seoul"},{"name":"Itspop Music","lat":"37.54208860","long":"126.94070950","store_key":4702,"city":"Seoul"},{"name":"Hot Tracks","lat":"37.57097500","long":"126.97775920","store_key":4868,"city":"Seoul"},{"name":"Power Station (Synnara Records Busan)","lat":"35.15503950","long":"129.06252900","store_key":5124,"city":"Busan"},{"name":"Sounds Good!","lat":"37.56505560","long":"126.92136350","store_key":5452,"city":"Seoul"},{"name":"Living Inc","lat":"37.56031460","long":"126.98063312","store_key":5474,"city":"Seoul"},{"name":"Hyang Music","lat":"37.55831980","long":"126.93663340","store_key":5762,"city":"Seoul"},{"name":"Gimbab Records","lat":"37.55834710","long":"126.92478100","store_key":6014,"city":"Seoul"},{"name":"SEOUL VINYL","lat":"37.54100900","long":"126.98721060","store_key":6312,"city":"Seoul"},{"name":"Mmm Records","lat":"37.53056410","long":"127.00275770","store_key":6452,"city":"Seoul"},{"name":"Bang's Records - 방레코드","lat":"37.54550320","long":"126.93585740","store_key":7054,"city":"Seoul"},{"name":"Westbridge Records","lat":"37.55419049","long":"126.92640524","store_key":7141,"city":"Seoul"},{"name":"LPLOVE","lat":"37.55736970","long":"126.92115290","store_key":7683,"city":"Seoul"}]