[{"name":"Voice of Stars","lat":"33.89259170","long":"35.53810770","store_key":146,"city":"Beirut"},{"name":"The Groovy Owl","lat":"33.89574080","long":"35.47724410","store_key":739,"city":"Beirut"},{"name":"Voice of Stars Record","lat":"33.89596960","long":"35.51130460","store_key":1068,"city":"Beirut"},{"name":"Chico Records","lat":"33.89793000","long":"35.47776700","store_key":1604,"city":"Beirut"},{"name":"Hamra Vintage","lat":"33.89703800","long":"35.47784800","store_key":2098,"city":"Beirut"},{"name":"Darsko","lat":"33.89263408","long":"35.53807818","store_key":3828,"city":"Beirut"},{"name":"Orient Express","lat":"33.87585830","long":"35.51700440","store_key":4612,"city":"Beirut"},{"name":"Tosca","lat":"33.89690190","long":"35.48126380","store_key":5455,"city":"Beirut"},{"name":"Drunken Records","lat":"33.87355280","long":"35.51638990","store_key":5715,"city":"Bayrut"},{"name":"TIAMO MUSIC SHOP","lat":"33.89127340","long":"35.52416930","store_key":5813,"city":"Beirut"},{"name":"The Lick Records","lat":"33.90646210","long":"35.50662500","store_key":7121,"city":"Beirut"},{"name":"Super Out","lat":"33.89588650","long":"35.52181170","store_key":7122,"city":"Beirut"},{"name":"Maher Music Shop","lat":"33.89682720","long":"35.47717400","store_key":7581,"city":"Beirut"}]