[{"name":"Vinylomania","lat":"54.67805890","long":"25.27991960","store_key":59,"city":"Vilnius"},{"name":"iMuzika SHOP","lat":"54.69083750","long":"25.27630360","store_key":1571,"city":"Vilnius"},{"name":"Rūdninkų Bookstore","lat":"54.67569733","long":"25.28372955","store_key":2398,"city":"Vilnius"},{"name":"Vinilo Paštas","lat":"54.56360626","long":"23.35462570","store_key":2744,"city":"Marijampolė"},{"name":"VŠĮ Vinyl Studio","lat":"54.67579870","long":"25.28192130","store_key":3162,"city":"Vilnius"},{"name":"Ragainė - Baltik shop","lat":"54.68376990","long":"25.28772700","store_key":3242,"city":"Vilnius"},{"name":"Discotag","lat":"54.68930150","long":"25.27585790","store_key":3932,"city":"Vilnius"},{"name":"Punto Jazz","lat":"54.89548790","long":"23.92351980","store_key":4398,"city":"Kaunas"},{"name":"Thelonious","lat":"54.68031030","long":"25.28602760","store_key":5234,"city":"Vilnius"},{"name":"Vinilo Oazė","lat":"54.91647790","long":"23.98154790","store_key":5446,"city":"Kaunas"},{"name":"Plokštelių parduotuvė","lat":"54.89529200","long":"23.92380500","store_key":5609,"city":"Kaunas"},{"name":"Dideli Kompaktai","lat":"54.89568329","long":"23.88939095","store_key":5646,"city":"Kaunas"},{"name":"Muzikumas","lat":"54.67569733","long":"25.28879166","store_key":6119,"city":"Vilnius"}]