[{"name":"CD Buttek Beim Palais Sarl","lat":"49.61108780","long":"6.13231897","store_key":359,"city":"Luxembourg"},{"name":"Vinyl Harvest","lat":"49.49706320","long":"5.97831080","store_key":1122,"city":"Esch-sur-Alzette"},{"name":"Le Reservoir","lat":"49.61209106","long":"6.13059092","store_key":5962,"city":"Luxembourg"},{"name":"Saturn","lat":"49.60224100","long":"6.13327960","store_key":2725,"city":"Luxembourg"},{"name":"Saturn Esch","lat":"49.50026870","long":"5.94644270","store_key":7138,"city":"Esch-sur-Alzette"}]