[{"name":"era Hi-Fi","lat":"56.96174580","long":"24.10886810","store_key":1981,"city":"Rīga"},{"name":"Vinilkoks","lat":"56.50747490","long":"21.00928650","store_key":2858,"city":"Liepāja"},{"name":"Elkor Plaza","lat":"56.97431550","long":"24.16221660","store_key":3193,"city":"Rīga"},{"name":"Randoms Music Store","lat":"56.94966990","long":"24.11180360","store_key":3508,"city":"Rīga"},{"name":"Biit.Riga","lat":"56.95906430","long":"24.12001920","store_key":4687,"city":"Rīga"},{"name":"Preces no Vācijas","lat":"56.95908700","long":"24.14323100","store_key":4807,"city":"Rīga"},{"name":"LP","lat":"56.95454570","long":"24.12759400","store_key":5306,"city":"Rīga"},{"name":"Mūzikas veikals VINYLLA / Plates.lv","lat":"56.96173000","long":"24.13455000","store_key":5434,"city":"Rīga"},{"name":"UPE Record Store","lat":"56.94829559","long":"24.11322975","store_key":6877,"city":"Rīga"},{"name":"Antikvariats","lat":"56.95843887","long":"24.13611221","store_key":7472,"city":"Riga"}]