[{"name":"Delco Records","lat":"19.40330830","long":"-99.16968270","store_key":63,"city":"Ciudad de México"},{"name":"La Perla Records & Books","lat":"20.67564850","long":"-103.36911910","store_key":102,"city":"Guadalajara"},{"name":"Obeah Vinyl Cafe","lat":"20.91605600","long":"-100.76680600","store_key":779,"city":"San Miguel de Allende"},{"name":"Perro Negro Records","lat":"21.01076350","long":"-89.63180770","store_key":807,"city":"Mérida"},{"name":"Discodromo","lat":"19.41825800","long":"-99.15702060","store_key":884,"city":"Ciudad de México"},{"name":"Retroactivo Records","lat":"19.41700935","long":"-99.16094208","store_key":940,"city":"Ciudad de México"},{"name":"Dedos Sucios","lat":"19.37454160","long":"-99.16392710","store_key":981,"city":"Ciudad de México"},{"name":"Mecanica","lat":"19.42964172","long":"-99.16036224","store_key":982,"city":"Ciudad de México"},{"name":"El Club del Rock & Roll","lat":"19.43630740","long":"-99.14626390","store_key":1091,"city":"Ciudad de México"},{"name":"Vida Subterranea (Discos y Cintas)","lat":"19.42975426","long":"-99.13899994","store_key":1123,"city":"Ciudad de México"},{"name":"Submarino Amarillo","lat":"20.67664700","long":"-103.35101800","store_key":1369,"city":"Guadalajara"},{"name":"Joselino Records","lat":"20.68172380","long":"-103.35556980","store_key":1403,"city":"Guadalajara"},{"name":"Noisy","lat":"20.91705950","long":"-100.74415330","store_key":1424,"city":"San Miguel de Allende"},{"name":"Roxy and roll","lat":"20.67860550","long":"-103.35318460","store_key":1512,"city":"Guadalajara"},{"name":"LA ROLA RECORDS","lat":"32.52962560","long":"-117.03705240","store_key":1655,"city":"Tijuana"},{"name":"Casa Retro","lat":"32.53362250","long":"-117.03808830","store_key":1656,"city":"Tijuana"},{"name":"Acid Trip Coffee Records","lat":"21.88370140","long":"-102.28699490","store_key":1734,"city":"Aguascalientes"},{"name":"Discos Patito","lat":"25.66836950","long":"-100.32756870","store_key":1972,"city":"Monterrey"},{"name":"Ruco Manía","lat":"20.97646141","long":"-89.59371948","store_key":1995,"city":"Mérida"},{"name":"Vinil Sound","lat":"19.40953940","long":"-99.16752250","store_key":2366,"city":"Ciudad de México"},{"name":"La Roma Records","lat":"19.41720000","long":"-99.16418800","store_key":2401,"city":"Ciudad de México"},{"name":"Discodromo Tienda De Discos","lat":"19.43543410","long":"-99.13330580","store_key":2542,"city":"Ciudad de México"},{"name":"Redicom Tienda de Música","lat":"21.03040730","long":"-89.62420660","store_key":2747,"city":"Mérida"},{"name":"Plastic Passion Records","lat":"19.25057490","long":"-99.60446030","store_key":2751,"city":"Metepec"},{"name":"Expendio Records","lat":"19.43552100","long":"-99.16486000","store_key":2777,"city":"Ciudad de México"},{"name":"Venas Rotas Discos","lat":"19.42971500","long":"-99.13895450","store_key":2809,"city":"Ciudad de México"},{"name":"Vinil Azul","lat":"20.59341480","long":"-100.38678180","store_key":2998,"city":"Santiago de Querétaro"},{"name":"DECKOUT","lat":"20.68281400","long":"-103.36271110","store_key":3026,"city":"Guadalajara"},{"name":"Salvaje Music Store","lat":"19.40863520","long":"-99.16167810","store_key":3052,"city":"Ciudad de México"},{"name":"Mixup Plaza Jardin Neza","lat":"19.42469770","long":"-99.02442940","store_key":3208,"city":"Ciudad de México"},{"name":"Música en Vinyl","lat":"19.41529274","long":"-99.16030884","store_key":3436,"city":"Ciudad de México"},{"name":"La Ciruela Electrica","lat":"32.53076490","long":"-117.03734200","store_key":3592,"city":"Tijuana"},{"name":"Discos Mecanica","lat":"19.41611610","long":"-99.16534950","store_key":3593,"city":"Ciudad de México"},{"name":"Déjalo Ser Records","lat":"19.43332480","long":"-99.15168590","store_key":3837,"city":"Ciudad de México"},{"name":"Vinilos Retrovisor","lat":"19.39253807","long":"-99.17796326","store_key":3891,"city":"Ciudad de México"},{"name":"Mr. CD","lat":"20.67416600","long":"-103.34757300","store_key":4035,"city":"Guadalajara"},{"name":"Bazar de Libros Discos Recikla","lat":"18.92152320","long":"-99.23647210","store_key":4246,"city":"Cuernavaca"},{"name":"Discópolis","lat":"19.43616280","long":"-99.15707820","store_key":4257,"city":"Ciudad de México"},{"name":"Mixup Santa Fe","lat":"19.36136310","long":"-99.27303940","store_key":4534,"city":"Ciudad de México"},{"name":"La Disqueria","lat":"25.67436130","long":"-100.31374800","store_key":4640,"city":"Monterrey"},{"name":"Dark Vission","lat":"25.66775260","long":"-100.31272560","store_key":4699,"city":"Monterrey"},{"name":"Yu Yu","lat":"19.42721400","long":"-99.15573300","store_key":4768,"city":"Ciudad de México"},{"name":"Dr Disco","lat":"19.41999790","long":"-99.15331210","store_key":4797,"city":"Ciudad de México"},{"name":"La Roma Records II","lat":"19.42013530","long":"-99.16529640","store_key":4800,"city":"Ciudad de México"},{"name":"Tea Recs","lat":"20.67937570","long":"-103.37140180","store_key":4864,"city":"Guadalajara"},{"name":"Sonido Rana","lat":"20.60447100","long":"-105.23463110","store_key":5059,"city":"Puerto Vallarta"},{"name":"Dub Room México","lat":"20.67738240","long":"-103.38009450","store_key":5078,"city":"Guadalajara"},{"name":"Faramalla. Expendio de Música","lat":"25.54139709","long":"-103.44699097","store_key":5103,"city":"Torreón"},{"name":"Capital Records Mexicali","lat":"32.63835380","long":"-115.44461170","store_key":5138,"city":"Mexicali"},{"name":"Cafebrería El Péndulo Roma","lat":"19.41820560","long":"-99.15873970","store_key":5146,"city":"Ciudad de México"},{"name":"Mixup","lat":"19.29813200","long":"-99.18139390","store_key":5351,"city":"Ciudad de México"},{"name":"La Tienda Del Disco De Vinyl","lat":"19.41602830","long":"-99.15486110","store_key":5384,"city":"Ciudad de México"},{"name":"Moby Disc","lat":"20.94636330","long":"-89.62771430","store_key":4465,"city":"Mérida"},{"name":"Musiclab","lat":"25.65964220","long":"-100.36475220","store_key":5390,"city":"San Pedro Garza García"},{"name":"The Music Box","lat":"19.35450350","long":"-99.18972910","store_key":1037,"city":"Ciudad de México"},{"name":"Bodega cultural","lat":"18.92668480","long":"-99.23834700","store_key":5493,"city":"Cuernavaca"},{"name":"Recikla tu música","lat":"19.39484370","long":"-99.14130910","store_key":5683,"city":"Ciudad de México"},{"name":"Rock Solid","lat":"20.99392319","long":"-89.65283966","store_key":5749,"city":"Mérida"},{"name":"Corner Palé","lat":"25.65029450","long":"-100.38345700","store_key":5750,"city":"San Pedro Garza García"},{"name":"HolaWave.store","lat":"19.43513680","long":"-99.13297750","store_key":5792,"city":"Ciudad de México"},{"name":"Discos En Vynil","lat":"19.41598520","long":"-99.15485410","store_key":5811,"city":"Ciudad de México"},{"name":"Discos Chowell","lat":"19.42894440","long":"-99.13944310","store_key":5950,"city":"Ciudad de México"},{"name":"Lado B","lat":"20.58933210","long":"-100.40049800","store_key":6045,"city":"Santiago de Querétaro"},{"name":"Revancha","lat":"19.42035800","long":"-99.15760770","store_key":6123,"city":"Ciudad de México"},{"name":"Georgetown Records CDMX","lat":"19.42215710","long":"-99.15409270","store_key":6249,"city":"Ciudad de México"},{"name":"ROCK 70's","lat":"31.73780170","long":"-106.48198400","store_key":6290,"city":"Ciudad Juárez"},{"name":"Vinilos","lat":"19.41717990","long":"-99.16426250","store_key":1033,"city":"Ciudad de México"},{"name":"Intravenosa Rock Shop","lat":"18.90527580","long":"-99.22039720","store_key":6347,"city":"Cuernavaca"},{"name":"Upper Palé","lat":"25.66736700","long":"-100.30636480","store_key":6429,"city":"Monterrey"},{"name":"Ztylo n vinylo","lat":"19.42889040","long":"-99.13495730","store_key":6646,"city":"Ciudad de México"},{"name":"Retro Disco","lat":"20.95590110","long":"-89.62536780","store_key":6657,"city":"Mérida"},{"name":"DAGGA Tattoo Studio + Record Store","lat":"19.41291800","long":"-99.15860990","store_key":6702,"city":"Ciudad de México"},{"name":"Nuclear Waste","lat":"32.53401430","long":"-117.03640280","store_key":6826,"city":"Tijuana"},{"name":"Mixup","lat":"19.43337790","long":"-99.13618890","store_key":5351,"city":"Ciudad de México"},{"name":"Discos Viniles LPs","lat":"25.66222996","long":"-100.29617799","store_key":7022,"city":"Monterrey"},{"name":"Sun Metal Shop","lat":"19.28803710","long":"-99.65974910","store_key":7055,"city":"Toluca de Lerdo"},{"name":"nawal.","lat":"19.95095550","long":"-99.53223010","store_key":7059,"city":"Jilotepec de Molina Enríquez"},{"name":"Bovverland Music Store","lat":"25.67337500","long":"-100.31806700","store_key":7060,"city":"Monterrey"},{"name":"Taxicab Records","lat":"19.42987180","long":"-99.15660450","store_key":7171,"city":"Ciudad de México"},{"name":"Rompe Records","lat":"19.06068740","long":"-98.30214390","store_key":7194,"city":"San Andrés Cholula"},{"name":"Soul Limbo Records","lat":"21.11943880","long":"-101.67877470","store_key":7659,"city":"León"},{"name":"Colectivo Records","lat":"19.05231240","long":"-98.22161500","store_key":7663,"city":"Heroica Puebla de Zaragoza"}]