[{"name":"Crossroads Records Kota Damansara","lat":"3.15248895","long":"101.60046387","store_key":539,"city":"Kuala Lumpur"},{"name":"PENGEDAR SHAKLEE","lat":"3.09898237","long":"101.62510099","store_key":854,"city":"Kuala Lumpur"},{"name":"Teenage Head Records","lat":"3.07265400","long":"101.58810200","store_key":1592,"city":"Kuala Lumpur"},{"name":"Cool Record Shop","lat":"3.10903630","long":"101.62184800","store_key":2962,"city":"Kuala Lumpur"},{"name":"SPYDER 45","lat":"3.15654150","long":"101.69681350","store_key":3333,"city":"Kuala Lumpur"},{"name":"Sputnik Rekordz","lat":"3.13858550","long":"101.62899010","store_key":3848,"city":"Kuala Lumpur"},{"name":"Basement Record Store","lat":"3.14768700","long":"101.71009530","store_key":3978,"city":"Kuala Lumpur"},{"name":"Musix Hub","lat":"3.15667391","long":"101.69678497","store_key":4564,"city":"Kuala Lumpur"},{"name":"Campbell Music","lat":"3.15649400","long":"101.69672700","store_key":4586,"city":"Kuala Lumpur"},{"name":"Hard Graft Records","lat":"3.09939289","long":"101.64550018","store_key":5591,"city":"Kuala Lumpur"},{"name":"Tandang Record Store","lat":"3.13779040","long":"101.69702830","store_key":7020,"city":"Kuala Lumpur"},{"name":"JP Records","lat":"2.92639840","long":"101.65701350","store_key":7264,"city":"Cyberjaya"}]