[{"name":"De Platenslager","lat":"52.38010788","long":"4.64454889","store_key":56,"city":"Haarlem"},{"name":"Gooisch Vinyl","lat":"52.27088000","long":"5.16623400","store_key":93,"city":"Bussum"},{"name":"BARTOVSKY","lat":"51.96491623","long":"5.66471720","store_key":108,"city":"Wageningen"},{"name":"Diggers Record Store","lat":"51.55331421","long":"5.07871580","store_key":250,"city":"Tilburg"},{"name":"Plato Zwolle","lat":"52.51414490","long":"6.09627104","store_key":312,"city":"Zwolle"},{"name":"Vinylarchief","lat":"51.84825897","long":"5.85887289","store_key":317,"city":"Nijmegen"},{"name":"Sounds Venlo","lat":"51.36828232","long":"6.17055321","store_key":340,"city":"Venlo"},{"name":"Vinylspot","lat":"51.91620850","long":"4.46682540","store_key":345,"city":"Rotterdam"},{"name":"Bennies Fifties Store","lat":"52.11243300","long":"4.29483300","store_key":392,"city":"Den Haag"},{"name":"Bigbadwolfrecords","lat":"53.20280075","long":"5.80871201","store_key":393,"city":"Leeuwarden"},{"name":"De Muziek Freak","lat":"52.46231842","long":"4.81072187","store_key":401,"city":"Koog aan de Zaan"},{"name":"De Platenbaas","lat":"51.44276047","long":"3.57355499","store_key":402,"city":"Vlissingen"},{"name":"JensDoRecords","lat":"51.93316650","long":"4.48608390","store_key":450,"city":"Rotterdam"},{"name":"De Vinyl Garage","lat":"51.82411720","long":"4.40907380","store_key":477,"city":"Oud-Beijerland"},{"name":"Cd-afdeling Warenhuis Vanderveen Assen","lat":"52.99441910","long":"6.56080103","store_key":542,"city":"Assen"},{"name":"Record Palace Weteringschans","lat":"52.36209106","long":"4.88497496","store_key":593,"city":"Amsterdam"},{"name":"PopEye","lat":"52.26477432","long":"6.79596710","store_key":614,"city":"Hengelo"},{"name":"Independent Outlet Skateboards Amsterdam","lat":"52.36444100","long":"4.89273010","store_key":668,"city":"Amsterdam"},{"name":"Didi Muziek- en Striphal","lat":"50.89482880","long":"5.95604706","store_key":682,"city":"Heerlen"},{"name":"De Oorzaak","lat":"51.93007250","long":"4.47496370","store_key":704,"city":"Rotterdam"},{"name":"Doogan Records","lat":"51.68948330","long":"5.30144020","store_key":874,"city":"'s-Hertogenbosch"},{"name":"VelvetMusic","lat":"52.15740204","long":"5.38743687","store_key":903,"city":"Amersfoort"},{"name":"King Kong Records","lat":"53.20249557","long":"5.79921293","store_key":978,"city":"Leeuwarden"},{"name":"Free Music","lat":"52.01279449","long":"4.70935583","store_key":980,"city":"Gouda"},{"name":"Groovy Tosti","lat":"52.96044540","long":"5.92398596","store_key":1025,"city":"Heerenveen"},{"name":"Rocking Shelby","lat":"51.74879780","long":"4.10339480","store_key":1047,"city":"Dirksland"},{"name":"PopKultur","lat":"51.69095260","long":"5.06437920","store_key":1163,"city":"Waalwijk"},{"name":"Velvet Vinyl Outlet","lat":"52.16085815","long":"4.50727081","store_key":1175,"city":"Leiden"},{"name":"Plexus / 't Platenmanneke","lat":"52.01205444","long":"4.35860014","store_key":1207,"city":"Delft"},{"name":"De Plaatboef","lat":"52.08626938","long":"5.12250996","store_key":1223,"city":"Utrecht"},{"name":"Off The Record","lat":"52.55538559","long":"5.92043209","store_key":513,"city":"Kampen"},{"name":"VelvetMusic Eindhoven","lat":"51.44748400","long":"5.45583200","store_key":1268,"city":"Eindhoven"},{"name":"Kinsum Records","lat":"50.85020670","long":"5.69873960","store_key":1298,"city":"Maastricht"},{"name":"Cadans","lat":"51.55727386","long":"5.68309307","store_key":1314,"city":"Gemert"},{"name":"High Definition Records Scheveningen","lat":"52.10561790","long":"4.27422640","store_key":1405,"city":"Den Haag"},{"name":"Rainbow's End Records & Cd's","lat":"52.37904350","long":"4.63552990","store_key":1436,"city":"Haarlem"},{"name":"Sounds Haarlem","lat":"52.37675100","long":"4.63153600","store_key":1630,"city":"Haarlem"},{"name":"Homesick records","lat":"52.37223053","long":"4.87869310","store_key":1631,"city":"Amsterdam"},{"name":"Music Machine","lat":"50.99809320","long":"5.87193320","store_key":1632,"city":"Sittard"},{"name":"Uptown records","lat":"52.64063610","long":"5.05787790","store_key":1679,"city":"Hoorn"},{"name":"Het Wapen van Haarlem","lat":"52.37854210","long":"4.63211330","store_key":1693,"city":"Haarlem"},{"name":"Velvet Music Amsterdam","lat":"52.37370682","long":"4.88128996","store_key":1742,"city":"Amsterdam"},{"name":"Velvet Music Dordrecht","lat":"51.81646400","long":"4.66944400","store_key":1743,"city":"Dordrecht"},{"name":"Vinyl Grove","lat":"52.07482950","long":"4.30896310","store_key":1747,"city":"Den Haag"},{"name":"Freaky Records","lat":"51.43933260","long":"5.39257590","store_key":1761,"city":"Eindhoven"},{"name":"Mary Go Wild","lat":"52.37509980","long":"4.90089210","store_key":1814,"city":"Amsterdam"},{"name":"Satisfaction Recordshop","lat":"50.88927078","long":"5.97853184","store_key":1817,"city":"Heerlen"},{"name":"Flatlife Records","lat":"51.44432449","long":"5.44365788","store_key":1824,"city":"Eindhoven"},{"name":"Swingmaster","lat":"53.21651459","long":"6.56682920","store_key":1832,"city":"Groningen"},{"name":"Hompy","lat":"53.17463010","long":"5.41620760","store_key":1843,"city":"Harlingen"},{"name":"Charles Muziek","lat":"52.35963058","long":"4.89351702","store_key":1856,"city":"Amsterdam"},{"name":"FAME Megastore","lat":"52.37614500","long":"4.90695870","store_key":1898,"city":"Amsterdam"},{"name":"Verkoopfabriek Assen","lat":"52.99596460","long":"6.56144260","store_key":1951,"city":"Assen"},{"name":"Vinta Verzamelwinkel / Platenwinkel","lat":"51.88670250","long":"5.43799970","store_key":2040,"city":"Tiel"},{"name":"Nowa’s","lat":"52.16046730","long":"4.49581150","store_key":2055,"city":"Leiden"},{"name":"Just In Vinyl","lat":"52.51001000","long":"5.47510500","store_key":2067,"city":"Lelystad"},{"name":"Dig It! Recordstore","lat":"52.09421510","long":"5.11831850","store_key":2081,"city":"Utrecht"},{"name":"Chez Elpee: vintage & nieuw vinyl","lat":"52.21622440","long":"5.17192260","store_key":2105,"city":"Hilversum"},{"name":"Plato","lat":"53.22042084","long":"6.56652117","store_key":2118,"city":"Groningen"},{"name":"Red Light Records","lat":"52.37475390","long":"4.89803010","store_key":2133,"city":"Amsterdam"},{"name":"Songs For Sale","lat":"51.92359924","long":"4.48567104","store_key":2139,"city":"Rotterdam"},{"name":"Blue Music","lat":"52.55399910","long":"5.92028910","store_key":2207,"city":"Kampen"},{"name":"Kroese","lat":"51.84387970","long":"5.86145401","store_key":2208,"city":"Nijmegen"},{"name":"Velvet Music Breda","lat":"51.58622640","long":"4.77775270","store_key":2277,"city":"Breda"},{"name":"The Irrational Library","lat":"52.37776770","long":"4.63080030","store_key":2292,"city":"Haarlem"},{"name":"Urban Modern","lat":"50.94088260","long":"5.92169990","store_key":2305,"city":"Amstenrade"},{"name":"JPD RECORDS","lat":"52.47716730","long":"4.67157130","store_key":2330,"city":"Beverwijk"},{"name":"Sounds Delft","lat":"52.01057434","long":"4.36018610","store_key":2373,"city":"Delft"},{"name":"The Lonely Hunter","lat":"52.15826416","long":"4.49287510","store_key":2382,"city":"Leiden"},{"name":"Black Gold Amsterdam","lat":"52.37178800","long":"4.90304320","store_key":2429,"city":"Amsterdam"},{"name":"Sarton Records & Vintage","lat":"52.34005290","long":"4.94286210","store_key":2514,"city":"Amsterdam"},{"name":"De Knopenwinkel","lat":"52.36843930","long":"4.88707110","store_key":2522,"city":"Amsterdam"},{"name":"VelvetMusic Delft","lat":"52.01185226","long":"4.35792303","store_key":2548,"city":"Delft"},{"name":"North End Haarlem","lat":"52.41700260","long":"4.64805510","store_key":2581,"city":"Haarlem"},{"name":"City Records","lat":"52.37375650","long":"4.90062010","store_key":2622,"city":"Amsterdam"},{"name":"Variaworld","lat":"52.25253290","long":"6.15702190","store_key":2623,"city":"Deventer"},{"name":"CD Kiosk","lat":"51.76861110","long":"5.52527790","store_key":2647,"city":"Oss"},{"name":"Killa Cutz Records","lat":"52.37525177","long":"4.89328098","store_key":2648,"city":"Amsterdam"},{"name":"De Platenlounge / MARMUR art","lat":"51.64961580","long":"3.92044010","store_key":2649,"city":"Zierikzee"},{"name":"Señor Hernandez","lat":"51.84374237","long":"5.86018896","store_key":2650,"city":"Nijmegen"},{"name":"VIP Records","lat":"53.03114700","long":"5.66066122","store_key":2651,"city":"Sneek"},{"name":"Bordello A Parigi","lat":"52.37586660","long":"4.90083600","store_key":2668,"city":"Amsterdam"},{"name":"Another Record","lat":"51.82916260","long":"4.97592115","store_key":2684,"city":"Gorinchem"},{"name":"Re-Turn Records","lat":"51.96621840","long":"5.66467420","store_key":2817,"city":"Wageningen"},{"name":"Seawolf Records","lat":"52.34482880","long":"4.84258250","store_key":2830,"city":"Amsterdam"},{"name":"Mono's Muziekhandel","lat":"52.51006317","long":"4.66897202","store_key":2838,"city":"Heemskerk"},{"name":"Walk-In Zutphen","lat":"52.14166730","long":"6.19619690","store_key":2843,"city":"Zutphen"},{"name":"Special CD Shop","lat":"51.59351900","long":"4.80007100","store_key":2860,"city":"Breda"},{"name":"Minstrel Music","lat":"52.50561523","long":"6.10241604","store_key":2910,"city":"Zwolle"},{"name":"Game Over?","lat":"52.37750000","long":"4.89722220","store_key":2926,"city":"Amsterdam"},{"name":"Zwart Goud","lat":"52.37417970","long":"4.90178440","store_key":2980,"city":"Amsterdam"},{"name":"Planet Of Sound","lat":"52.22088700","long":"6.89796200","store_key":2995,"city":"Enschede"},{"name":"Plato","lat":"52.25286865","long":"6.15692520","store_key":2118,"city":"Deventer"},{"name":"Waaghals","lat":"51.98179245","long":"5.91236687","store_key":3120,"city":"Arnhem"},{"name":"Ray Elpee","lat":"51.43646200","long":"5.48611090","store_key":3191,"city":"Eindhoven"},{"name":"Pinkman Records","lat":"51.92575230","long":"4.47630880","store_key":3291,"city":"Rotterdam"},{"name":"Bep. Dylan","lat":"52.25208860","long":"6.15948620","store_key":3308,"city":"Deventer"},{"name":"De Zwarte Schijf","lat":"51.89210670","long":"5.43647820","store_key":3340,"city":"Tiel"},{"name":"Grey","lat":"51.59707210","long":"4.79819110","store_key":3357,"city":"Breda"},{"name":"Concerto","lat":"52.36334229","long":"4.89838696","store_key":3373,"city":"Amsterdam"},{"name":"Second Life Music","lat":"52.36771630","long":"4.88213610","store_key":3374,"city":"Amsterdam"},{"name":"De Waterput","lat":"51.49275589","long":"4.28714323","store_key":3477,"city":"Bergen op Zoom"},{"name":"Mr. van Ulden","lat":"51.98597530","long":"4.37648110","store_key":3478,"city":"Delft"},{"name":"Wim Music Cellar Doetinchem","lat":"51.96568680","long":"6.28959608","store_key":3479,"city":"Doetinchem"},{"name":"Rhythm Import","lat":"52.07761090","long":"4.30561780","store_key":3543,"city":"Den Haag"},{"name":"Vintage Deluxe by Hubert Kalkman","lat":"50.84771220","long":"5.69123140","store_key":3612,"city":"Maastricht"},{"name":"De Platenzaak Vinyl & More","lat":"51.43304710","long":"5.48951800","store_key":3660,"city":"Eindhoven"},{"name":"VelvetMusic Leiden","lat":"52.15760610","long":"4.49286400","store_key":3703,"city":"Leiden"},{"name":"Waxwell Records","lat":"52.37228200","long":"4.88778800","store_key":3704,"city":"Amsterdam"},{"name":"Waaghals","lat":"51.84802420","long":"5.86352950","store_key":3120,"city":"Nijmegen"},{"name":"Stijlloods","lat":"52.38343048","long":"4.63296318","store_key":3816,"city":"Haarlem"},{"name":"Ray's Boutique","lat":"51.44358540","long":"3.57531720","store_key":3900,"city":"Vlissingen"},{"name":"Platenreus","lat":"51.90885700","long":"4.34265200","store_key":3909,"city":"Vlaardingen"},{"name":"Vinyl Outlet","lat":"51.50453949","long":"4.86383390","store_key":3929,"city":"Chaam"},{"name":"CD Teek","lat":"51.43629456","long":"5.47438717","store_key":4010,"city":"Eindhoven"},{"name":"Hans Tweedehands","lat":"51.92665863","long":"4.46893883","store_key":4038,"city":"Rotterdam"},{"name":"VinylVinyl","lat":"52.08220770","long":"4.30032680","store_key":4043,"city":"Den Haag"},{"name":"Green-vinyl.com","lat":"51.59888077","long":"4.76699495","store_key":4067,"city":"Breda"},{"name":"De Grammophoonwinkel","lat":"52.09561340","long":"5.11673050","store_key":4072,"city":"Utrecht"},{"name":"Blue Moon","lat":"51.53642654","long":"4.46440983","store_key":4073,"city":"Roosendaal"},{"name":"Drukkerij De","lat":"51.49789770","long":"3.61172060","store_key":4074,"city":"Middelburg"},{"name":"Pandora's Box","lat":"52.17172050","long":"5.30956740","store_key":4075,"city":"Soest"},{"name":"ROTIBABI","lat":"51.44667053","long":"5.47216702","store_key":4076,"city":"Eindhoven"},{"name":"Vinylparadijs","lat":"52.42233640","long":"6.73461020","store_key":4077,"city":"Geesteren"},{"name":"Bier&Vinyl","lat":"51.91500200","long":"4.39878320","store_key":4168,"city":"Schiedam"},{"name":"CLC Books and Music","lat":"52.21352970","long":"5.95707960","store_key":4198,"city":"Apeldoorn"},{"name":"muziekhoekje.nl","lat":"52.65040970","long":"6.61719799","store_key":4236,"city":"De Krim"},{"name":"Zap Records","lat":"52.37216949","long":"4.88972282","store_key":2183,"city":"Amsterdam"},{"name":"Bruno Klassiek, klassieke CD en LP winkel","lat":"52.37833023","long":"4.63127899","store_key":4338,"city":"Haarlem"},{"name":"Elpee-Groningen","lat":"53.21686554","long":"6.56968594","store_key":4363,"city":"Groningen"},{"name":"Mansion24","lat":"52.21400070","long":"5.95974588","store_key":4429,"city":"Apeldoorn"},{"name":"Rush Hour Records","lat":"52.37465286","long":"4.89032507","store_key":4430,"city":"Amsterdam"},{"name":"Clone.nl","lat":"51.92714050","long":"4.47877180","store_key":4432,"city":"Rotterdam"},{"name":"Maestro's Records","lat":"51.68870163","long":"5.30976009","store_key":4439,"city":"'s-Hertogenbosch"},{"name":"Plato Leiden","lat":"52.16056280","long":"4.48911480","store_key":4451,"city":"Leiden"},{"name":"RecordFriend Elpees","lat":"52.37108231","long":"4.90043497","store_key":4452,"city":"Amsterdam"},{"name":"Distortion Records","lat":"52.37805557","long":"4.88043690","store_key":4453,"city":"Amsterdam"},{"name":"Antenne","lat":"51.55806732","long":"5.08091879","store_key":4457,"city":"Tilburg"},{"name":"Play It Again","lat":"51.98157883","long":"5.91204691","store_key":232,"city":"Arnhem"},{"name":"cd/dvd-speciaalzaak Evelyn Novacek","lat":"53.16344452","long":"6.75482702","store_key":4533,"city":"Hoogezand"},{"name":"Memory Music","lat":"51.43020248","long":"5.47136402","store_key":4540,"city":"Eindhoven"},{"name":"Roots Mail Music","lat":"51.58197784","long":"4.77834415","store_key":4680,"city":"Breda"},{"name":"T-Rex Records","lat":"53.20313660","long":"5.80392750","store_key":4711,"city":"Leeuwarden"},{"name":"CD Hal Ruinen","lat":"52.76185120","long":"6.35886430","store_key":4733,"city":"Ruinen"},{"name":"Wil-M CD en Platenwinkel","lat":"51.61631800","long":"5.54439400","store_key":4734,"city":"Veghel"},{"name":"Hekman Muziek B.V.","lat":"53.14139938","long":"7.03913498","store_key":4735,"city":"Winschoten"},{"name":"Oudegracht 314","lat":"52.08600070","long":"5.12261370","store_key":4764,"city":"Utrecht"},{"name":"Platenbar Denekamp","lat":"52.38694210","long":"7.01120160","store_key":4814,"city":"Denekamp"},{"name":"Deeptrax","lat":"53.20331573","long":"5.79916000","store_key":4885,"city":"Leeuwarden"},{"name":"Magic Buzz","lat":"53.21618652","long":"6.57158613","store_key":4918,"city":"Groningen"},{"name":"Platypus Records by Mooie Jongens","lat":"52.37526600","long":"4.90119100","store_key":5024,"city":"Amsterdam"},{"name":"Soulstore Hand-Picked","lat":"52.63060400","long":"4.75183000","store_key":5143,"city":"Alkmaar"},{"name":"Legends Of Music","lat":"52.54652210","long":"4.65983570","store_key":5247,"city":"Castricum"},{"name":"Amstel Antiques Records","lat":"52.36698151","long":"4.89714909","store_key":5276,"city":"Amsterdam"},{"name":"Labmusic","lat":"52.45887375","long":"5.03521395","store_key":5303,"city":"Monnickendam"},{"name":"Flesch Records","lat":"52.37988410","long":"4.88588460","store_key":5327,"city":"Amsterdam"},{"name":"The Record Hustler","lat":"51.68971252","long":"5.31584597","store_key":5339,"city":"'s-Hertogenbosch"},{"name":"Rock Maniac Records","lat":"52.01141380","long":"4.71103630","store_key":5350,"city":"Gouda"},{"name":"Hanze Hifi","lat":"52.50500540","long":"6.09362020","store_key":5359,"city":"Zwolle"},{"name":"Decades Vinyl & Vintage","lat":"52.01197430","long":"4.70468330","store_key":5433,"city":"Gouda"},{"name":"Record Mania","lat":"52.35651980","long":"4.89047500","store_key":5549,"city":"Amsterdam"},{"name":"De Langspeelplaat","lat":"51.69049835","long":"5.31637001","store_key":5573,"city":"'s-Hertogenbosch"},{"name":"Blackmarket / Discus","lat":"53.20230484","long":"5.79960203","store_key":5623,"city":"Leeuwarden"},{"name":"Vinyl & Kado Sjop","lat":"52.83391170","long":"6.36110280","store_key":5713,"city":"Dwingeloo"},{"name":"De Vinylloods Drechtsteden","lat":"51.77636220","long":"4.63572510","store_key":5772,"city":"Dordrecht"},{"name":"No Dust Records","lat":"52.46385020","long":"6.00184780","store_key":5785,"city":"Wezep"},{"name":"Jan Cas Sombroek","lat":"52.49314880","long":"5.07382822","store_key":5795,"city":"Volendam"},{"name":"Koffie Leute Record Store","lat":"52.07947520","long":"5.12255020","store_key":5819,"city":"Utrecht"},{"name":"Plato Utrecht","lat":"52.09465027","long":"5.12004709","store_key":5873,"city":"Utrecht"},{"name":"Demonfuzz Records","lat":"51.91579437","long":"4.46804094","store_key":5879,"city":"Rotterdam"},{"name":"Housevinyl","lat":"51.79741669","long":"4.65957022","store_key":5895,"city":"Dordrecht"},{"name":"Get Back Music","lat":"51.81649540","long":"4.66907910","store_key":5939,"city":"Dordrecht"},{"name":"Video library Midway V.O.F.","lat":"53.11825320","long":"6.87480910","store_key":5941,"city":"Veendam"},{"name":"Bullit Klassiek","lat":"51.43841150","long":"5.48149530","store_key":5959,"city":"Eindhoven"},{"name":"Discostars Recordstore","lat":"52.38284550","long":"4.88703850","store_key":5960,"city":"Amsterdam"},{"name":"Triple J. Records","lat":"51.89595795","long":"5.42295694","store_key":5961,"city":"Tiel"},{"name":"Sounds Tilburg","lat":"51.55624390","long":"5.08197784","store_key":5981,"city":"Tilburg"},{"name":"Pop-Eye / VelvetMusic","lat":"52.63044170","long":"4.74884210","store_key":6062,"city":"Alkmaar"},{"name":"Jazz Center","lat":"52.07477188","long":"4.31443977","store_key":6075,"city":"Den Haag"},{"name":"Bert's Records","lat":"52.07364655","long":"4.31716585","store_key":6106,"city":"Den Haag"},{"name":"Tobivinyl","lat":"52.38131700","long":"4.63148080","store_key":6132,"city":"Haarlem"},{"name":"Elvis Corner","lat":"52.10247480","long":"5.09728260","store_key":6237,"city":"Utrecht"},{"name":"Bob's Vinyl","lat":"51.50972000","long":"5.63821790","store_key":6365,"city":"Aarle-Rixtel"},{"name":"VelvetMusic Rotterdam","lat":"51.91736221","long":"4.47389412","store_key":6481,"city":"Rotterdam"},{"name":"Paagman (FAME)","lat":"52.09096527","long":"4.27424717","store_key":6504,"city":"Den Haag"},{"name":"Kay’s Odyssey - Gebruikte Boeken & Elpees","lat":"51.66043854","long":"4.73922586","store_key":6582,"city":"Wagenberg"},{"name":"Let the Record Play","lat":"50.87331772","long":"6.06685114","store_key":6583,"city":"Kerkrade"},{"name":"Christie-N Music","lat":"51.49903488","long":"3.60796809","store_key":6601,"city":"Middelburg"},{"name":"RETRO Vinyl & Vintage","lat":"51.49444920","long":"4.28980840","store_key":6691,"city":"Bergen op Zoom"},{"name":"Oor Platenhuis 't","lat":"52.22592926","long":"5.17883396","store_key":6738,"city":"Hilversum"},{"name":"Muziekhandel Van Buytene","lat":"52.00976181","long":"4.35613823","store_key":6794,"city":"Delft"},{"name":"Klinkhamer Antiek","lat":"53.21529050","long":"6.56513270","store_key":6798,"city":"Groningen"},{"name":"Reset Records","lat":"52.08657455","long":"5.14357615","store_key":6813,"city":"Utrecht"},{"name":"Mediamarkt","lat":"52.07580280","long":"4.31078870","store_key":6815,"city":"Den Haag"},{"name":"Paagman","lat":"52.07904350","long":"4.31546120","store_key":6816,"city":"Den Haag"},{"name":"Diskid","lat":"52.51059723","long":"6.09484386","store_key":6819,"city":"Zwolle"},{"name":"HOE","lat":"52.55833120","long":"5.91711990","store_key":6824,"city":"Kampen"},{"name":"De Jongens van Hemmes","lat":"53.21622086","long":"6.57165194","store_key":6854,"city":"Groningen"},{"name":"De Plaatboef","lat":"51.91625400","long":"4.46892700","store_key":1223,"city":"Rotterdam"},{"name":"Kroese Arnhem","lat":"51.98158980","long":"5.90585170","store_key":6874,"city":"Arnhem"},{"name":"Suburban Records","lat":"52.38134210","long":"4.64387260","store_key":6903,"city":"Haarlem"},{"name":"Unit Shop","lat":"51.59848700","long":"4.76649700","store_key":6941,"city":"Breda"},{"name":"Mollema Music World","lat":"53.18651581","long":"5.54328012","store_key":6942,"city":"Franeker"},{"name":"Obscuur it's a vinyl revolution","lat":"51.84570313","long":"5.86862803","store_key":6943,"city":"Nijmegen"},{"name":"W & W Audio","lat":"52.19239044","long":"6.88823414","store_key":6945,"city":"Enschede"},{"name":"VelvetMusic","lat":"52.04276276","long":"5.66904306","store_key":903,"city":"Ede"},{"name":"Music Store","lat":"52.66252518","long":"6.73830223","store_key":4557,"city":"Coevorden"},{"name":"Juicy Records","lat":"52.89610670","long":"4.75340280","store_key":7137,"city":"Julianadorp"},{"name":"Music for Miles","lat":"51.87800217","long":"5.45791197","store_key":7145,"city":"Wamel"},{"name":"InDeep'n'Dance Records","lat":"52.37355350","long":"4.88069240","store_key":7349,"city":"Amsterdam"},{"name":"Empire Records","lat":"52.07923720","long":"4.31710530","store_key":942,"city":"Den Haag"},{"name":"Headline Grammofoonplaten En Cd's","lat":"53.21627045","long":"6.57242584","store_key":7388,"city":"Groningen"},{"name":"Good Times","lat":"52.63133621","long":"4.75407410","store_key":72,"city":"Alkmaar"},{"name":"Yesterday And Today","lat":"52.48615265","long":"4.80297709","store_key":7431,"city":"Wormerveer"},{"name":"Records & Books","lat":"52.36954540","long":"4.88958910","store_key":7475,"city":"Amsterdam"},{"name":"Coco Records","lat":"52.43790817","long":"4.83021593","store_key":7490,"city":"Zaandam"},{"name":"De Ruimte","lat":"52.39229440","long":"4.90570560","store_key":7505,"city":"Amsterdam"}]