[{"name":"Playcom","lat":"60.46550920","long":"5.32214590","store_key":660,"city":"Bergen"},{"name":"Oves brukt & Vinylsjappe","lat":"59.57238400","long":"10.61254510","store_key":1048,"city":"Filtvet"},{"name":"Arbeidernes Antikvariat","lat":"59.91554080","long":"10.76589520","store_key":1085,"city":"Oslo"},{"name":"Vintage&Vinyl","lat":"59.91844130","long":"10.74803560","store_key":1087,"city":"Oslo"},{"name":"Lucky Eddie","lat":"59.92267450","long":"10.77155800","store_key":1188,"city":"Oslo"},{"name":"Jukebox","lat":"62.47174610","long":"6.15879630","store_key":1237,"city":"Ålesund"},{"name":"No9 CC café","lat":"58.45766740","long":"8.76696610","store_key":1238,"city":"Arendal"},{"name":"Tiger","lat":"59.91560745","long":"10.75012207","store_key":1548,"city":"Oslo"},{"name":"Puskas Musikk & Platebar","lat":"69.96615580","long":"23.27144510","store_key":1582,"city":"Alta"},{"name":"Trankokeriet Antikk","lat":"62.47353440","long":"6.14753960","store_key":1686,"city":"Ålesund"},{"name":"Moonrise Record Shop","lat":"59.21217950","long":"10.93713450","store_key":1691,"city":"Fredrikstad"},{"name":"Consulatet","lat":"58.94653180","long":"5.75181230","store_key":1889,"city":"Stavanger"},{"name":"Baklengs","lat":"59.91837130","long":"10.74798360","store_key":1982,"city":"Oslo"},{"name":"Record World","lat":"58.85042953","long":"5.73102903","store_key":2163,"city":"Sandnes"},{"name":"HiFi-Guiden","lat":"60.79134940","long":"11.15054370","store_key":2612,"city":"Ridabu"},{"name":"Drammen Hvitevarer","lat":"59.73512268","long":"10.21316242","store_key":2851,"city":"Drammen"},{"name":"Platevogna","lat":"59.76199430","long":"9.89552840","store_key":2897,"city":"Hokksund"},{"name":"Vinyl & Kaffe Hamar AS","lat":"60.79335403","long":"11.07394600","store_key":3074,"city":"Hamar"},{"name":"Råkk and Rålls second-hand shop","lat":"59.91312220","long":"10.73764340","store_key":3233,"city":"Oslo"},{"name":"Bokmannen","lat":"62.14566422","long":"6.06571579","store_key":3563,"city":"Volda"},{"name":"Todal Musikk & Hermetikk","lat":"63.43723540","long":"10.42034270","store_key":3879,"city":"Trondheim"},{"name":"Crispin Glover Record Shop","lat":"63.43354210","long":"10.40314750","store_key":3919,"city":"Trondheim"},{"name":"Rocade Musikk & Records","lat":"60.39234100","long":"5.33035380","store_key":4040,"city":"Bergen"},{"name":"Wangsmo Antikvariat AS","lat":"63.42969710","long":"10.39787580","store_key":4041,"city":"Trondheim"},{"name":"Bare Jazz AS","lat":"59.91355720","long":"10.74362710","store_key":4042,"city":"Oslo"},{"name":"Retro Vinyl","lat":"59.28375380","long":"11.11057090","store_key":4080,"city":"Sarpsborg"},{"name":"Apollon","lat":"60.38959122","long":"5.32314301","store_key":4360,"city":"Bergen"},{"name":"Platekompaniet","lat":"59.91251755","long":"10.75227833","store_key":4834,"city":"Oslo"},{"name":"Serieantikvariatet","lat":"62.47454834","long":"6.15719414","store_key":4835,"city":"Ålesund"},{"name":"Shabby Records","lat":"59.41172480","long":"5.26959760","store_key":4938,"city":"Haugesund"},{"name":"Samleren","lat":"60.38758190","long":"5.32843090","store_key":4939,"city":"Bergen"},{"name":"Schous Bøker","lat":"59.92051315","long":"10.76167488","store_key":4991,"city":"Oslo"},{"name":"Majorstuen Antikvariat AS","lat":"59.92688220","long":"10.72469140","store_key":5021,"city":"Oslo"},{"name":"Aftermath Music","lat":"63.43102580","long":"10.39049440","store_key":5214,"city":"Trondheim"},{"name":"Tore's Platebar & Antikkvariat","lat":"60.35923386","long":"10.57201290","store_key":5215,"city":"Gran"},{"name":"Hendrix Ibsen","lat":"59.92204620","long":"10.75137910","store_key":5225,"city":"Oslo"},{"name":"All Good Clean Records","lat":"63.43054581","long":"10.41583157","store_key":5336,"city":"Trondheim"},{"name":"Platelageret","lat":"59.91384290","long":"10.75535830","store_key":5363,"city":"Oslo"},{"name":"Musikkverket Hamar","lat":"60.79870224","long":"11.04671383","store_key":5394,"city":"Hamar"},{"name":"ØYA","lat":"58.13864130","long":"8.00086260","store_key":5456,"city":"Kristiansand"},{"name":"PM Audio AS","lat":"58.15004200","long":"7.83346930","store_key":5836,"city":"Nodeland"},{"name":"Big Dipper Records","lat":"59.91370010","long":"10.74540520","store_key":5906,"city":"Oslo"},{"name":"Neseblod","lat":"59.90847110","long":"10.76967990","store_key":6503,"city":"Oslo"},{"name":"Skatte Boden","lat":"59.41640070","long":"10.48255370","store_key":6731,"city":"Horten"},{"name":"The Garden - Oslo","lat":"59.91279050","long":"10.74927500","store_key":6765,"city":"Oslo"},{"name":"Backbeat - Kaffe & Vinyl","lat":"69.64852142","long":"18.95145226","store_key":6789,"city":"Tromsø"},{"name":"Katakomben","lat":"59.91500092","long":"10.74855900","store_key":6988,"city":"Oslo"},{"name":"Platekompaniet - Torgallmenningen","lat":"60.39318850","long":"5.32383250","store_key":7228,"city":"Bergen"},{"name":"Filter Musikk","lat":"59.91274110","long":"10.74933170","store_key":7305,"city":"Oslo"},{"name":"Cruisin Records","lat":"59.90924072","long":"10.74114990","store_key":1097,"city":"Oslo"},{"name":"Vinylpalass","lat":"58.96837810","long":"5.73539720","store_key":7464,"city":"Stavanger"},{"name":"Platesjappa","lat":"59.95511230","long":"11.04939220","store_key":7550,"city":"Lillestrøm"},{"name":"Fuzzy Platebar","lat":"62.73590670","long":"7.15625120","store_key":7658,"city":"Molde"}]