[{"name":"Needle In The Hay","lat":"-37.78473360","long":"175.27966130","store_key":117,"city":"Hamilton"},{"name":"My Music","lat":"-38.68678060","long":"176.06982650","store_key":305,"city":"Taupo"},{"name":"Taste Merchants","lat":"-45.87498960","long":"170.50729710","store_key":470,"city":"Dunedin"},{"name":"Holiday Records","lat":"-36.84902320","long":"174.75858590","store_key":486,"city":"Auckland"},{"name":"Flying Out","lat":"-36.85740830","long":"174.75920360","store_key":1126,"city":"Auckland"},{"name":"Relics Music Store","lat":"-45.87180200","long":"170.50621300","store_key":1127,"city":"Dunedin"},{"name":"Just For The Record","lat":"-39.49150570","long":"176.91490030","store_key":1128,"city":"Napier"},{"name":"Rock'n Rolla Records","lat":"-46.40956116","long":"168.34667969","store_key":1491,"city":"Invercargill"},{"name":"Alien Records & CDs","lat":"-36.90192270","long":"174.68808220","store_key":2301,"city":"Auckland"},{"name":"JB Hi-Fi","lat":"-36.85043920","long":"174.76490110","store_key":2535,"city":"Auckland"},{"name":"Vinyl Destination","lat":"-37.68529360","long":"176.16980120","store_key":92,"city":"Tauranga"},{"name":"Musiquarium","lat":"-36.88001900","long":"174.74971670","store_key":2968,"city":"Auckland"},{"name":"Zinc Records","lat":"-39.53484050","long":"176.84849830","store_key":3094,"city":"Napier"},{"name":"Slow Boat Records","lat":"-41.29446020","long":"174.77525720","store_key":3104,"city":"Wellington"},{"name":"Lo Cost Records","lat":"-41.22476130","long":"174.87702240","store_key":3124,"city":"Lower Hutt"},{"name":"Ride On Super Sound","lat":"-43.53456440","long":"172.64086780","store_key":3363,"city":"Christchurch"},{"name":"Conch Records","lat":"-36.85579550","long":"174.74670020","store_key":3382,"city":"Auckland"},{"name":"Electric City Music & Video Services","lat":"-39.49120690","long":"176.91633540","store_key":3914,"city":"Napier"},{"name":"Penny Lane Records","lat":"-43.54369900","long":"172.63685970","store_key":3975,"city":"Christchurch"},{"name":"Mint Music","lat":"-41.12416340","long":"175.07055670","store_key":4524,"city":"Lower Hutt"},{"name":"Penny Lane Records","lat":"-43.53286740","long":"172.67502900","store_key":3975,"city":"Christchurch"},{"name":"Zodiac Records, Movies & Books","lat":"-45.89519410","long":"170.49968260","store_key":4911,"city":"Dunedin"},{"name":"Wonderland Records","lat":"-41.27245420","long":"174.95418350","store_key":5885,"city":"Wainui"},{"name":"Marbecks","lat":"-36.84513260","long":"174.76673230","store_key":6011,"city":"Auckland"},{"name":"The Spellbound Wax Company","lat":"-38.66921890","long":"178.02691610","store_key":6358,"city":"Gisborne"},{"name":"Vinyl Countdown","lat":"-39.05882740","long":"174.07106440","store_key":6509,"city":"New Plymouth"},{"name":"Real Groovy","lat":"-36.85747870","long":"174.76177600","store_key":6651,"city":"Auckland"},{"name":"Rough Peel Music","lat":"-41.29411350","long":"174.77540290","store_key":6936,"city":"Wellington"},{"name":"Southbound Records","lat":"-36.86165560","long":"174.76202810","store_key":7500,"city":"Auckland"},{"name":"Bound Books & Records","lat":"-45.03240030","long":"168.66198190","store_key":7680,"city":"Queenstown"}]