[{"name":"Classic Records - Tienda De Discos De Vinilo","lat":"-12.05083170","long":"-77.03947120","store_key":46,"city":"Lima"},{"name":"Los Luchos del Vinilo","lat":"-12.05097294","long":"-77.03947449","store_key":47,"city":"Lima"},{"name":"Sensei Records","lat":"-12.05099180","long":"-77.03947650","store_key":116,"city":"Lima"},{"name":"Mundo Vinyl Korea Peru Esquina Vinilo","lat":"-12.07229424","long":"-77.05052948","store_key":489,"city":"Lima"},{"name":"Disqueria","lat":"-12.05070340","long":"-77.03952410","store_key":545,"city":"Lima"},{"name":"Disco Centro","lat":"-12.12686119","long":"-77.03008981","store_key":1158,"city":"Lima"},{"name":"Vintage Sound","lat":"-12.12687168","long":"-77.03003617","store_key":1329,"city":"Lima"},{"name":"El Anexxxo - Tienda de Música","lat":"-12.14702030","long":"-77.02088080","store_key":1493,"city":"Lima"},{"name":"Galería del Vinilo","lat":"-12.05089474","long":"-77.03915405","store_key":2246,"city":"Lima"},{"name":"Memories Disco Club","lat":"-12.04525550","long":"-77.03260330","store_key":2537,"city":"Lima"},{"name":"Kat Records","lat":"-12.12399769","long":"-77.02769470","store_key":2782,"city":"Lima"},{"name":"PUNA Shop Gallery","lat":"-12.14596280","long":"-77.02244590","store_key":3599,"city":"Lima"},{"name":"Discos Eternos Arequipa","lat":"-16.40050490","long":"-71.53560360","store_key":3634,"city":"Arequipa"},{"name":"Disco Clasico","lat":"-12.08737900","long":"-77.06483100","store_key":3868,"city":"Lima"},{"name":"Full Records","lat":"-12.05091381","long":"-77.03955841","store_key":4137,"city":"Lima"},{"name":"Lazy It Is Discos","lat":"-12.12085000","long":"-77.02882040","store_key":4280,"city":"Lima"},{"name":"Arcadia Mediática Música","lat":"-12.12226120","long":"-77.02768880","store_key":5070,"city":"Lima"},{"name":"Discos Eternos - Discos Vinilo","lat":"-12.12463090","long":"-77.02825980","store_key":5249,"city":"Lima"},{"name":"Vinyl Sound Peru","lat":"-11.94301120","long":"-77.08772190","store_key":5740,"city":"Lima"},{"name":"Barricada Discos","lat":"-12.07199190","long":"-77.05073350","store_key":5752,"city":"Lima"},{"name":"Vinilos","lat":"-12.12688020","long":"-77.02998454","store_key":1033,"city":"Lima"},{"name":"Tercer Ojo","lat":"-12.12034520","long":"-77.02828520","store_key":6432,"city":"Lima"},{"name":"RETRO KROMOS","lat":"-12.07254180","long":"-77.05025900","store_key":7278,"city":"Lima"}]