[{"name":"Third Street Vinyl Records Store","lat":"16.40811720","long":"120.60124090","store_key":138,"city":"Baguio"},{"name":"Vinyl on Vinyl Gallery","lat":"14.54563190","long":"121.01654860","store_key":746,"city":"Makati"},{"name":"Northwest Eastate and Collectibles","lat":"14.62944670","long":"121.04352130","store_key":1146,"city":"Manila"},{"name":"Vinyl Dump Store","lat":"14.62222400","long":"121.05665500","store_key":1232,"city":"Manila"},{"name":"Vinylhead Records","lat":"14.55980080","long":"121.00476070","store_key":1254,"city":"Makati"},{"name":"ThisIsPop","lat":"14.55617310","long":"121.01661610","store_key":1410,"city":"Makati"},{"name":"James Records And Antiques","lat":"14.63202500","long":"121.05077700","store_key":1476,"city":"Manila"},{"name":"The Grey Market","lat":"14.60221600","long":"121.05105300","store_key":1923,"city":"Manila"},{"name":"Treskul","lat":"14.57622260","long":"121.03723520","store_key":2172,"city":"Manila"},{"name":"ThisIsPop","lat":"14.55487400","long":"121.01682200","store_key":1410,"city":"Makati"},{"name":"TRAX MANILA RECORDS","lat":"14.63955000","long":"121.12059190","store_key":2516,"city":"Manila"},{"name":"Spindle Community Store","lat":"14.55495970","long":"121.01450490","store_key":2698,"city":"Makati"},{"name":"The Grey Market Records","lat":"14.60608400","long":"121.07047800","store_key":2963,"city":"Manila"},{"name":"Angel Spirits Thrift House","lat":"14.62221527","long":"121.05619812","store_key":3461,"city":"Manila"},{"name":"Yesteryear Music Gallery","lat":"14.64661140","long":"121.05922100","store_key":3470,"city":"Manila"},{"name":"Anthology Ilo","lat":"10.72269810","long":"122.56784580","store_key":3548,"city":"Iloilo City"},{"name":"Little Rituals Records Cebu","lat":"10.31823090","long":"123.90513800","store_key":3645,"city":"Cebu City"},{"name":"Watts Hi Fi - Makati Cinema Square","lat":"14.55245250","long":"121.01436670","store_key":3765,"city":"Makati"},{"name":"Bebop Records","lat":"14.55247784","long":"121.01442719","store_key":4526,"city":"Makati"},{"name":"Satchmi","lat":"14.58347607","long":"121.05656433","store_key":4573,"city":"Manila"},{"name":"Astroplus","lat":"14.58500530","long":"121.05659980","store_key":4611,"city":"Manila"},{"name":"Treskul","lat":"14.61927210","long":"121.05690410","store_key":2172,"city":"Manila"},{"name":"Acoustic Dimension","lat":"14.56426000","long":"121.03622000","store_key":5237,"city":"Makati"},{"name":"Vinyl Depot","lat":"14.61783409","long":"121.07029724","store_key":5238,"city":"Manila"},{"name":"Nocturnal Records","lat":"14.60274982","long":"120.98548889","store_key":5376,"city":"Manila"},{"name":"The Grey Market","lat":"14.56009590","long":"121.02010070","store_key":1923,"city":"Makati"},{"name":"Remnants","lat":"14.62212000","long":"121.05635800","store_key":6549,"city":"Manila"},{"name":"Nocturnal","lat":"14.60241800","long":"120.98557500","store_key":6785,"city":"Manila"},{"name":"Gold Digger","lat":"14.62221527","long":"121.05619812","store_key":6808,"city":"Manila"},{"name":"Bear's Den Records","lat":"14.55515980","long":"121.01619570","store_key":7184,"city":"Makati"},{"name":"Satchmi","lat":"14.65207280","long":"121.07522010","store_key":4573,"city":"Manila"}]