[{"name":"Shopiq","lat":"51.10930634","long":"17.02454185","store_key":48,"city":"Wrocław"},{"name":"K-Wax","lat":"52.40594690","long":"16.92523250","store_key":68,"city":"Poznań"},{"name":"Galeria Winylowo","lat":"54.34788030","long":"18.65142550","store_key":139,"city":"Gdańsk"},{"name":"12 Cali VinylShop","lat":"50.25838600","long":"19.02494890","store_key":213,"city":"Katowice"},{"name":"Vinyl Cafe","lat":"51.11171830","long":"17.03263350","store_key":499,"city":"Wrocław"},{"name":"Vinyl Tamka","lat":"52.23263168","long":"21.01566124","store_key":526,"city":"Warszawa"},{"name":"Winylownia Białystok","lat":"53.12188339","long":"23.16763115","store_key":527,"city":"Białystok"},{"name":"Vinylove","lat":"53.01473730","long":"18.61117240","store_key":563,"city":"Toruń"},{"name":"Winylove","lat":"51.10173035","long":"17.02919388","store_key":628,"city":"Wrocław"},{"name":"Duża Czarna","lat":"51.10624695","long":"17.03187752","store_key":847,"city":"Wrocław"},{"name":"asfaltshop.pl","lat":"52.23672390","long":"21.02435600","store_key":875,"city":"Warszawa"},{"name":"Komis Płytowy","lat":"50.25995160","long":"19.01726170","store_key":900,"city":"Katowice"},{"name":"Hi Fidelity","lat":"50.05337640","long":"19.94440490","store_key":924,"city":"Kraków"},{"name":"EPKA. Studio Czarnej Płyty","lat":"53.12713140","long":"18.00775190","store_key":1134,"city":"Bydgoszcz"},{"name":"Record Store WinyleSzczecin.com","lat":"53.43255500","long":"14.54624200","store_key":1150,"city":"Szczecin"},{"name":"Antykwariat KDK","lat":"52.24239170","long":"21.02442450","store_key":1187,"city":"Warszawa"},{"name":"Relax Music Shop","lat":"52.23295680","long":"21.01095860","store_key":1317,"city":"Warszawa"},{"name":"33'45 Recordstore","lat":"53.41665300","long":"14.54810890","store_key":1320,"city":"Szczecin"},{"name":"Longplay Vinyl shop & Cafe","lat":"52.41213890","long":"16.89612300","store_key":1356,"city":"Poznań"},{"name":"MOVIE SHOP","lat":"52.40612270","long":"16.92715710","store_key":1494,"city":"Poznań"},{"name":"Muzant","lat":"52.23672050","long":"21.01712750","store_key":1550,"city":"Warszawa"},{"name":"Antykwariat na Tamce","lat":"52.23636300","long":"21.02151490","store_key":1754,"city":"Warszawa"},{"name":"Trzaski Vinyl Shop","lat":"52.03273990","long":"23.11831390","store_key":1900,"city":"Biała Podlaska"},{"name":"Wino i Winyle","lat":"52.40544280","long":"16.92353670","store_key":1988,"city":"Poznań"},{"name":"De'Molika","lat":"51.10686874","long":"17.03449249","store_key":2031,"city":"Wrocław"},{"name":"Sklep Płytowy Używana Muzyka Gdynia","lat":"54.52036410","long":"18.53531110","store_key":2253,"city":"Gdynia"},{"name":"Sklep muzyczny","lat":"49.95091629","long":"18.59445381","store_key":2411,"city":"Jastrzębie-Zdrój"},{"name":"Nora Music","lat":"53.12083390","long":"17.99886020","store_key":2721,"city":"Bydgoszcz"},{"name":"Winyl-Books","lat":"50.04261780","long":"22.00542450","store_key":2783,"city":"Rzeszów"},{"name":"Antykwariat Grochowski","lat":"52.24852990","long":"21.08021450","store_key":2790,"city":"Warszawa"},{"name":"Brassel Music Shop","lat":"51.10075100","long":"17.03633600","store_key":2796,"city":"Wrocław"},{"name":"Grupo sklep","lat":"52.40755970","long":"16.93463900","store_key":2806,"city":"Poznań"},{"name":"Sklep Uzywana Muzyka","lat":"54.38059100","long":"18.60398800","store_key":2875,"city":"Gdańsk"},{"name":"Święty Spokój","lat":"51.24786100","long":"22.56684190","store_key":2887,"city":"Lublin"},{"name":"Records Dillaz","lat":"50.05452860","long":"19.94679020","store_key":2919,"city":"Kraków"},{"name":"Winylmojapasja.pl","lat":"50.07332650","long":"19.91811190","store_key":3031,"city":"Kraków"},{"name":"Antykwariat \"Płyty Gramofonowe\"","lat":"52.25346400","long":"21.04003600","store_key":3095,"city":"Warszawa"},{"name":"Side One","lat":"52.23219700","long":"21.01456700","store_key":3377,"city":"Warszawa"},{"name":"Audio Forte","lat":"52.20772800","long":"21.02004920","store_key":3393,"city":"Warszawa"},{"name":"Warszawska Gielda Plytowa","lat":"52.23271179","long":"21.01169586","store_key":3394,"city":"Warszawa"},{"name":"Book Się Rodzi","lat":"51.77207947","long":"19.45548058","store_key":3495,"city":"Łódź"},{"name":"Hey Dża.","lat":"52.23322730","long":"21.01132640","store_key":3714,"city":"Warszawa"},{"name":"Królestwo. Komis płytowy","lat":"50.81143500","long":"19.12509170","store_key":3749,"city":"Częstochowa"},{"name":"GRAM. Sklep muzyczny.","lat":"54.19746017","long":"16.19647408","store_key":3790,"city":"Koszalin"},{"name":"Sklep muzyczny VINYLMUSIC","lat":"54.51260370","long":"18.54031480","store_key":3797,"city":"Gdynia"},{"name":"Cyman Records","lat":"54.34382500","long":"18.64816550","store_key":3871,"city":"Gdańsk"},{"name":"Art Reco - Used vinyls and CDs","lat":"52.23713680","long":"21.02058670","store_key":4128,"city":"Warszawa"},{"name":"Music Corner Sp. o.o.","lat":"50.06394440","long":"19.93641400","store_key":4138,"city":"Kraków"},{"name":"Antykwariat PĄSOWA SOWA","lat":"53.13291168","long":"23.15988541","store_key":4139,"city":"Białystok"},{"name":"Vintage Vinyl","lat":"52.22546005","long":"20.93032455","store_key":1178,"city":"Warszawa"},{"name":"Antykwariat Muzyczny Winyl 1","lat":"49.82261660","long":"19.05270480","store_key":4373,"city":"Bielsko-Biała"},{"name":"Megadisc","lat":"52.22833100","long":"21.00919000","store_key":4499,"city":"Warszawa"},{"name":"Winylownia Gdynia","lat":"54.51707650","long":"18.54331700","store_key":4576,"city":"Gdynia"},{"name":"Perfect Music Sp. z o.o.","lat":"52.22716770","long":"21.00026280","store_key":4700,"city":"Warszawa"},{"name":"Skylark","lat":"51.75436300","long":"19.45942000","store_key":5219,"city":"Łódź"},{"name":"Popmaster Records Shop","lat":"54.46725000","long":"17.01824020","store_key":5239,"city":"Słupsk"},{"name":"Vinylgate Recordstore","lat":"52.40612180","long":"16.92203900","store_key":5301,"city":"Poznań"},{"name":"Winyl Market Records & Goodies","lat":"52.22365520","long":"21.02237740","store_key":5429,"city":"Warszawa"},{"name":"4 Music","lat":"53.42934430","long":"14.55027690","store_key":5726,"city":"Szczecin"},{"name":"DJM Vinyl Studio","lat":"50.86764908","long":"20.64191246","store_key":5756,"city":"Kielce"},{"name":"Plyty Winylowe","lat":"50.08819710","long":"19.96783330","store_key":5869,"city":"Kraków"},{"name":"Komis Płytowy","lat":"50.27779007","long":"19.12969208","store_key":900,"city":"Sosnowiec"},{"name":"Art Rock","lat":"52.40882874","long":"16.93641663","store_key":6003,"city":"Poznań"},{"name":"Winylowa","lat":"52.26012710","long":"20.92147840","store_key":6433,"city":"Warszawa"},{"name":"Black Market Coffee & Records","lat":"52.25338745","long":"20.98584366","store_key":7028,"city":"Warszawa"},{"name":"Paul's Boutique Record Store","lat":"50.05167770","long":"19.94247055","store_key":7253,"city":"Kraków"},{"name":"Gruba Nuta","lat":"52.20398331","long":"21.00469017","store_key":7304,"city":"Warszawa"},{"name":"Rock Long Luck","lat":"52.40298200","long":"16.92954450","store_key":7381,"city":"Poznań"},{"name":"vintageking.pl","lat":"53.01528240","long":"18.61214330","store_key":7665,"city":"Toruń"}]