[{"name":"DMN Supply - Coimbra","lat":"40.20027400","long":"-8.43171900","store_key":78,"city":"Coimbra"},{"name":"Vinil Experience","lat":"38.71072769","long":"-9.14510059","store_key":207,"city":"Lisboa"},{"name":"Once Upon a Time in Port ...","lat":"41.14694214","long":"-8.61501122","store_key":423,"city":"Porto"},{"name":"Porto Calling","lat":"41.15013030","long":"-8.61362110","store_key":625,"city":"Porto"},{"name":"Vinyl Disc","lat":"41.14916710","long":"-8.61198750","store_key":731,"city":"Porto"},{"name":"Audio Team","lat":"38.74867630","long":"-9.20969868","store_key":974,"city":"Lisboa"},{"name":"Flur","lat":"38.71371460","long":"-9.12179375","store_key":1192,"city":"Lisboa"},{"name":"Top Vintage","lat":"41.15323639","long":"-8.62087440","store_key":1382,"city":"Porto"},{"name":"Black Mamba","lat":"41.15127563","long":"-8.61391830","store_key":1815,"city":"Porto"},{"name":"Piranha - Loja de Música","lat":"41.15545350","long":"-8.62651600","store_key":1823,"city":"Porto"},{"name":"Tabatô Records","lat":"38.72744500","long":"-9.13640610","store_key":1873,"city":"Lisboa"},{"name":"doVigário Pub&Records","lat":"38.71260600","long":"-9.12758200","store_key":1948,"city":"Lisboa"},{"name":"Tubitek Braga","lat":"41.55035240","long":"-8.42371770","store_key":1986,"city":"Braga"},{"name":"Embaixada do Porto","lat":"41.14766090","long":"-8.61591610","store_key":2106,"city":"Porto"},{"name":"Lucky Lux - Record Store","lat":"40.20786930","long":"-8.42959860","store_key":2472,"city":"Coimbra"},{"name":"Crew Hassan - Cultural Cooperative C. L. R.","lat":"38.72260650","long":"-9.13321140","store_key":2626,"city":"Lisboa"},{"name":"Vinyl Gourmet","lat":"38.79033820","long":"-9.12300550","store_key":2630,"city":"Prior Velho"},{"name":"Carpet & Snares","lat":"38.71134700","long":"-9.14281400","store_key":2982,"city":"Lisboa"},{"name":"Discoteca Lisboa","lat":"38.71126360","long":"-9.13606660","store_key":3029,"city":"Lisboa"},{"name":"Louie Louie","lat":"38.71049810","long":"-9.13928240","store_key":3156,"city":"Lisboa"},{"name":"Bunker Store","lat":"41.14672510","long":"-8.60453560","store_key":3203,"city":"Porto"},{"name":"Mau Génio","lat":"38.75108580","long":"-9.20312510","store_key":3459,"city":"Lisboa"},{"name":"Kazoo","lat":"41.41052690","long":"-7.95473370","store_key":3527,"city":"Mondim de Basto"},{"name":"Discoteca Rotação","lat":"38.69012650","long":"-9.35491010","store_key":3618,"city":"Lisboa"},{"name":"Neat Records","lat":"38.73235719","long":"-9.13784726","store_key":3648,"city":"Lisboa"},{"name":"Tubitek","lat":"41.14739227","long":"-8.60912895","store_key":3764,"city":"Porto"},{"name":"Peekaboo Records","lat":"38.71140500","long":"-9.14275900","store_key":3798,"city":"Lisboa"},{"name":"Officina Noctua","lat":"41.27062225","long":"-8.08166981","store_key":3917,"city":"Amarante"},{"name":"Discoteca Amália","lat":"38.71241580","long":"-9.13910790","store_key":4155,"city":"Lisboa"},{"name":"Amor Records","lat":"38.70896912","long":"-9.14809608","store_key":4224,"city":"Lisboa"},{"name":"Discolecção","lat":"38.71314240","long":"-9.14253044","store_key":4487,"city":"Lisboa"},{"name":"Sound Club Vinyl Store","lat":"38.71136760","long":"-9.14284180","store_key":4488,"city":"Lisboa"},{"name":"Galáxia Discos","lat":"41.69491577","long":"-8.82656384","store_key":4927,"city":"Viana do Castelo"},{"name":"Circus Records Record Shop","lat":"41.14828110","long":"-8.62057304","store_key":5233,"city":"Porto"},{"name":"Louie Louie","lat":"41.15206909","long":"-8.61195278","store_key":3156,"city":"Porto"},{"name":"La Bamba Bazar","lat":"37.73988900","long":"-25.66918100","store_key":5652,"city":"Ponta Delgada"},{"name":"Collect - Food . Radio . Records","lat":"38.70742140","long":"-9.14411320","store_key":5767,"city":"Lisboa"},{"name":"Distopia - Livros, Música, Papelaria","lat":"38.71516790","long":"-9.15410820","store_key":5775,"city":"Lisboa"},{"name":"Chasing Rabbits - Record Store","lat":"38.71996940","long":"-9.16048800","store_key":6043,"city":"Lisboa"},{"name":"Groovie Records","lat":"38.72299900","long":"-9.13135980","store_key":6307,"city":"Lisboa"},{"name":"Discos do Baú","lat":"41.15266920","long":"-8.62180800","store_key":6333,"city":"Porto"},{"name":"Materia Prima","lat":"41.14997864","long":"-8.61817741","store_key":6350,"city":"Porto"},{"name":"CDV - AUDITU MUSIC STORE","lat":"39.74694100","long":"-8.80363400","store_key":6379,"city":"Leiria"},{"name":"Glam-O-Rama","lat":"38.73045349","long":"-9.14800167","store_key":6537,"city":"Lisboa"},{"name":"Clockwork Store","lat":"38.70819855","long":"-9.14363670","store_key":6541,"city":"Lisboa"},{"name":"Loja CNM - Companhia Nacional de Música","lat":"38.70999720","long":"-9.13915010","store_key":6591,"city":"Lisboa"},{"name":"Jukebox","lat":"38.63605610","long":"-8.91261270","store_key":1237,"city":"Palmela"},{"name":"Muzak Vinil","lat":"41.14960480","long":"-8.62033060","store_key":6608,"city":"Porto"},{"name":"SSIG Music","lat":"41.16345720","long":"-8.66737250","store_key":6714,"city":"Porto"},{"name":"Books & Records Megastore","lat":"38.72091800","long":"-9.13510700","store_key":7058,"city":"Lisboa"},{"name":"Drogaria Central Loja de Discos","lat":"38.68279730","long":"-9.15816440","store_key":7142,"city":"Almada"},{"name":"X & Records","lat":"40.63944830","long":"-8.65342850","store_key":7227,"city":"Aveiro"},{"name":"Carbono","lat":"38.71931458","long":"-9.14253521","store_key":7438,"city":"Lisboa"},{"name":"T`N`T - ToandTicha","lat":"38.72776031","long":"-9.16226292","store_key":7485,"city":"Lisboa"}]