[{"name":"Music Box","lat":"44.47616577","long":"26.10478592","store_key":546,"city":"București"},{"name":"Palatul Vechiturilor","lat":"44.43320330","long":"26.13759500","store_key":786,"city":"București"},{"name":"MadPiano","lat":"44.43175830","long":"26.10667370","store_key":1495,"city":"București"},{"name":"Andante Music srl","lat":"44.43430840","long":"26.08256070","store_key":1932,"city":"București"},{"name":"Pure Indie Records","lat":"44.44026890","long":"26.09217490","store_key":1955,"city":"București"},{"name":"Cărturești","lat":"45.76739080","long":"21.22846320","store_key":2952,"city":"Timișoara"},{"name":"Antiques","lat":"44.43859600","long":"26.09303360","store_key":3683,"city":"București"},{"name":"Viniloteca","lat":"45.74802780","long":"21.21980476","store_key":3762,"city":"Timișoara"},{"name":"Librăria muzicală George Enescu","lat":"44.44734550","long":"26.08718440","store_key":3867,"city":"București"},{"name":"Music shop","lat":"46.06737518","long":"23.57254028","store_key":4058,"city":"Alba Iulia"},{"name":"RockShop","lat":"44.43723700","long":"26.09640510","store_key":4270,"city":"București"},{"name":"Cărturești Brașov","lat":"45.64191818","long":"25.58812714","store_key":4332,"city":"Brașov"},{"name":"Colectiva Gazette","lat":"46.76608658","long":"23.59850883","store_key":4671,"city":"Cluj-Napoca"},{"name":"Niche Records","lat":"44.42019510","long":"26.12087420","store_key":5229,"city":"București"},{"name":"Two Sides Records","lat":"44.43561480","long":"26.09467180","store_key":5776,"city":"București"},{"name":"Librăria George Coșbuc","lat":"45.64330700","long":"25.59236400","store_key":5847,"city":"Brașov"},{"name":"Cărturești Verona","lat":"44.44289000","long":"26.09944900","store_key":6633,"city":"București"},{"name":"Lazy Hour Store","lat":"47.06073820","long":"21.92736590","store_key":6725,"city":"Oradea"},{"name":"Misbits Record Shop","lat":"44.45042000","long":"26.11982690","store_key":6868,"city":"București"},{"name":"Dusty Sound Records","lat":"46.77026600","long":"23.59395880","store_key":6902,"city":"Cluj-Napoca"}]