[{"name":"Triumvirate CD & Vinil Shop","lat":"44.80227250","long":"20.47127940","store_key":666,"city":"Beograd"},{"name":"Vinyl Cafe","lat":"43.31798740","long":"21.89482920","store_key":499,"city":"Niš"},{"name":"Video CD-26","lat":"44.00653839","long":"20.90664291","store_key":1130,"city":"Kragujevac"},{"name":"Ammonite Records","lat":"44.82193450","long":"20.46907780","store_key":1166,"city":"Beograd"},{"name":"Mungos CD Shop","lat":"45.25518799","long":"19.84650612","store_key":1496,"city":"Novi Sad"},{"name":"The Wall","lat":"44.81092453","long":"20.45999527","store_key":2977,"city":"Beograd"},{"name":"Leila Records","lat":"44.82230630","long":"20.45645090","store_key":3168,"city":"Beograd"},{"name":"Muzička kuća Metropolis","lat":"44.81572100","long":"20.46365200","store_key":3907,"city":"Beograd"},{"name":"Vulkan","lat":"44.81472140","long":"20.45959260","store_key":4333,"city":"Beograd"},{"name":"Belgrade Bistro & Vinyl Shop","lat":"44.80883060","long":"20.47557860","store_key":4875,"city":"Beograd"},{"name":"Vintage Shop","lat":"43.32164764","long":"21.89410019","store_key":5190,"city":"Niš"},{"name":"Yugovinyl","lat":"44.81788200","long":"20.46562660","store_key":5271,"city":"Beograd"},{"name":"Mascom Store","lat":"44.81502300","long":"20.46150390","store_key":5695,"city":"Beograd"},{"name":"Record Store","lat":"44.81446410","long":"20.43722000","store_key":683,"city":"Beograd"},{"name":"Evergreen","lat":"44.81319427","long":"20.46324158","store_key":6013,"city":"Beograd"}]