[{"name":"2B Rekord","lat":"55.68712997","long":"37.53455353","store_key":49,"city":"Moskva"},{"name":"Musicali Bomond - Музыкальный бомонд","lat":"56.31661370","long":"43.99952190","store_key":77,"city":"Nizhnij Novgorod"},{"name":"Top100 Rocks","lat":"59.94239426","long":"30.34319496","store_key":104,"city":"Sankt-Peterburg"},{"name":"Allsizemusic (Rock Island)","lat":"59.94420624","long":"30.35265350","store_key":215,"city":"Sankt-Peterburg"},{"name":"Kladovka - КЛАДОВКА","lat":"56.32436970","long":"44.00305600","store_key":355,"city":"Nizhnij Novgorod"},{"name":"Deficit Records","lat":"55.74575424","long":"37.64632034","store_key":547,"city":"Moskva"},{"name":"Diez","lat":"59.92547800","long":"30.35185200","store_key":580,"city":"Sankt-Peterburg"},{"name":"Vinilovyye Plastinki, Suveniry, Antikvariat","lat":"59.93276810","long":"30.35846300","store_key":805,"city":"Sankt-Peterburg"},{"name":"Olimp","lat":"56.85280530","long":"35.90772850","store_key":878,"city":"Tver"},{"name":"Digital Hall","lat":"43.12623100","long":"131.89791800","store_key":887,"city":"Vladivostok"},{"name":"Fonoteka","lat":"59.92656660","long":"30.35266850","store_key":925,"city":"Sankt-Peterburg"},{"name":"DVD Home","lat":"54.68127823","long":"20.47431183","store_key":975,"city":"Kaliningrad"},{"name":"Vinyl Record Store DiG","lat":"55.76651280","long":"37.66090840","store_key":1129,"city":"Moskva"},{"name":"Vinyl u dyadi Bori","lat":"55.76101240","long":"37.62371610","store_key":1518,"city":"Moskva"},{"name":"Maschina Records","lat":"59.89070300","long":"30.49302500","store_key":1533,"city":"Sankt-Peterburg"},{"name":"Mir Kino - Мир Кино","lat":"55.75757217","long":"37.63660049","store_key":1769,"city":"Moskva"},{"name":"Vinyloman","lat":"55.78067017","long":"37.69743347","store_key":1810,"city":"Moskva"},{"name":"Muza Disk","lat":"57.62670135","long":"39.87308502","store_key":1885,"city":"Yaroslavl'"},{"name":"Sound Hound Record Store","lat":"59.93237686","long":"30.32120514","store_key":2056,"city":"Sankt-Peterburg"},{"name":"Andrey Mikhailov","lat":"55.80222000","long":"37.53361300","store_key":2432,"city":"Moskva"},{"name":"Mul'timedia Tsentr Piramida","lat":"54.71946150","long":"20.50611250","store_key":2439,"city":"Konigsberg"},{"name":"VinylMarket","lat":"55.74933100","long":"37.59588100","store_key":2507,"city":"Moskva"},{"name":"Ono Moyo","lat":"59.93742790","long":"30.35908050","store_key":2515,"city":"Sankt-Peterburg"},{"name":"Boogiemanmusic","lat":"55.79368800","long":"37.59302100","store_key":2621,"city":"Moskva"},{"name":"Imagine Club","lat":"59.93599701","long":"30.35733032","store_key":2682,"city":"Sankt-Peterburg"},{"name":"Longpray","lat":"55.73615520","long":"37.59267700","store_key":2788,"city":"Moskva"},{"name":"kammer.space","lat":"59.92902360","long":"30.32385450","store_key":2811,"city":"Sankt-Peterburg"},{"name":"Gramplastinki","lat":"55.79214360","long":"49.10441780","store_key":2831,"city":"Kazan"},{"name":"White Trash","lat":"59.92820000","long":"30.36843410","store_key":3053,"city":"Sankt-Peterburg"},{"name":"Drive","lat":"58.00600600","long":"56.22787800","store_key":3096,"city":"Perm"},{"name":"Dom Kul'tury","lat":"55.73926560","long":"37.52466200","store_key":3332,"city":"Moskva"},{"name":"Transylvania - Трансильвания","lat":"55.76095963","long":"37.61141968","store_key":3414,"city":"Moskva"},{"name":"Enthusiast Records","lat":"55.76297379","long":"37.61437988","store_key":3448,"city":"Moskva"},{"name":"Onkai Master","lat":"55.80703170","long":"37.58423290","store_key":3609,"city":"Moskva"},{"name":"Grooving","lat":"59.93322200","long":"30.32841190","store_key":3615,"city":"Sankt-Peterburg"},{"name":"Stoprobot Vinyl","lat":"55.80645900","long":"37.58478220","store_key":3637,"city":"Moskva"},{"name":"Totem","lat":"59.96295400","long":"30.30707300","store_key":3815,"city":"Sankt-Peterburg"},{"name":"Grammofon","lat":"59.93577500","long":"30.35268100","store_key":3829,"city":"Sankt-Peterburg"},{"name":"Musical Alliance","lat":"43.11692310","long":"131.87878340","store_key":3850,"city":"Vladivostok"},{"name":"Holly.wood","lat":"53.37700090","long":"58.97702880","store_key":3969,"city":"Magnitogorsk"},{"name":"Rez-One Multimedia Supermarket","lat":"54.71815491","long":"20.50026131","store_key":4057,"city":"Kaliningrad"},{"name":"Dom Vinila","lat":"59.93736800","long":"30.31919010","store_key":4064,"city":"Sankt-Peterburg"},{"name":"Vinylroom","lat":"59.93428040","long":"30.33509827","store_key":4079,"city":"Sankt-Peterburg"},{"name":"Uralton","lat":"55.16177760","long":"61.40338560","store_key":4255,"city":"Chelyabinsk"},{"name":"vinyl2you","lat":"55.80319940","long":"37.48927280","store_key":4403,"city":"Moskva"},{"name":"Vinyl Museum - Музей винила","lat":"54.72543200","long":"20.50239370","store_key":4427,"city":"Konigsberg"},{"name":"Mixed Emotions","lat":"55.74369510","long":"37.65069490","store_key":4608,"city":"Moskva"},{"name":"VOLTA HiFi - ВОЛЬТА HiFi","lat":"58.01429520","long":"56.23710180","store_key":4674,"city":"Perm"},{"name":"Rock On Shop","lat":"55.79441650","long":"37.75366630","store_key":4705,"city":"строение6"},{"name":"Dr. Head record store","lat":"55.75218020","long":"37.59261590","store_key":4706,"city":"Moskva"},{"name":"Hook Record Store","lat":"59.92863780","long":"30.34238880","store_key":4709,"city":"Sankt-Peterburg"},{"name":"Maximum Vinyl","lat":"55.77518520","long":"37.66954050","store_key":4743,"city":"Moskva"},{"name":"Kultura - Культура","lat":"59.92813940","long":"30.31247110","store_key":4757,"city":"Sankt-Peterburg"},{"name":"Zvukovoy Bar'yer - Звуковой Барьер","lat":"55.68715740","long":"37.54226290","store_key":4880,"city":"Moskva"},{"name":"+Dark/Light+","lat":"53.25182343","long":"34.33356476","store_key":4953,"city":"Bryansk"},{"name":"AQUA Rock Shop","lat":"54.72453750","long":"20.50804510","store_key":4960,"city":"Konigsberg"},{"name":"Vinyl Records","lat":"59.93673900","long":"30.32553890","store_key":353,"city":"Sankt-Peterburg"},{"name":"Rez-One Multimedia Supermarket","lat":"54.72478867","long":"20.50208855","store_key":4057,"city":"Kaliningrad"},{"name":"Golden Years","lat":"55.75455360","long":"49.18756060","store_key":5430,"city":"Kazan"},{"name":"ZekoRecords","lat":"53.33233900","long":"83.78976200","store_key":5475,"city":"Barnaul"},{"name":"CD-SOUND","lat":"50.62120130","long":"36.56853830","store_key":5498,"city":"Belgorod"},{"name":"Nota Plus","lat":"55.73448563","long":"37.62354279","store_key":5614,"city":"Moskva"},{"name":"Vinylbox","lat":"59.92303690","long":"30.35061620","store_key":5627,"city":"Sankt-Peterburg"},{"name":"Siyanie - Магазин виниловых пластинок «Сияние»","lat":"55.78836600","long":"49.10374300","store_key":5666,"city":"Kazan"},{"name":"World Music","lat":"56.86078200","long":"35.90992790","store_key":5669,"city":"Tver"},{"name":"Orbita","lat":"55.85513580","long":"38.44042150","store_key":5777,"city":"Noginsk"},{"name":"Vinyl for all","lat":"59.94331900","long":"30.35893300","store_key":5806,"city":"Sankt-Peterburg"},{"name":"ZekoRecords, магазин CD и DVD дисков","lat":"53.34976000","long":"83.77143900","store_key":5867,"city":"Barnaul"},{"name":"Grammofon","lat":"45.02866770","long":"38.97410770","store_key":3829,"city":"Krasnodar"},{"name":"Radiotehnica","lat":"55.80447720","long":"37.58463330","store_key":6077,"city":"Moskva"},{"name":"PLAY vinyl store","lat":"48.70721436","long":"44.50922775","store_key":6195,"city":"Volgograd"},{"name":"Novoye Iskusstvo (New Art) - Новое Искусство","lat":"55.79366850","long":"37.58403290","store_key":6291,"city":"Moskva"},{"name":"Spin Vinyl","lat":"58.01160310","long":"56.24021360","store_key":6295,"city":"Perm"},{"name":"Ritm","lat":"59.93195920","long":"30.32083120","store_key":6440,"city":"Sankt-Peterburg"},{"name":"Colmuz Records","lat":"57.91089200","long":"59.98034190","store_key":6450,"city":"Nizhny Tagil"},{"name":"Dimedia","lat":"56.46171560","long":"84.95425060","store_key":6466,"city":"Tomsk"},{"name":"Katarsis","lat":"54.72456100","long":"20.50561900","store_key":6609,"city":"Konigsberg"},{"name":"Test-HiFi","lat":"55.73899500","long":"37.58115750","store_key":6693,"city":"Moskva"},{"name":"vinylplay.ru","lat":"53.72049400","long":"91.45397660","store_key":6721,"city":"Abakan"},{"name":"Matritsa","lat":"54.72088000","long":"20.49985600","store_key":6807,"city":"Kaliningrad"},{"name":"Washing Machine","lat":"59.93347490","long":"30.32191750","store_key":7062,"city":"Sankt-Peterburg"},{"name":"Cool Vinyl Store","lat":"55.77463210","long":"37.67380830","store_key":7192,"city":"Moskva"},{"name":"Musicltd.ru","lat":"59.93932400","long":"30.36087400","store_key":7268,"city":"Sankt-Peterburg"},{"name":"Vinyl and Money","lat":"54.96501923","long":"73.40792084","store_key":7389,"city":"Omsk"},{"name":"Droog Music","lat":"47.21983000","long":"39.71158700","store_key":7531,"city":"Rostov"},{"name":"Melomania - the music store","lat":"48.70462230","long":"44.51429110","store_key":7642,"city":"Volgograd"},{"name":"Kompakt Disk","lat":"56.85267060","long":"60.64620630","store_key":6862,"city":"Yekaterinburg"},{"name":"Play","lat":"59.93729019","long":"30.34119225","store_key":7648,"city":"Sankt-Peterburg"}]