[{"name":"Takt & Ton Scandinavia","lat":"65.58534920","long":"22.15695350","store_key":73,"city":"Luleå"},{"name":"Rundgång","lat":"55.59236110","long":"13.00966350","store_key":186,"city":"Malmö"},{"name":"Skivhallen Majorna","lat":"57.68616486","long":"11.91807747","store_key":200,"city":"Göteborg"},{"name":"Lilla Torgs Seriemagasin","lat":"55.60489655","long":"12.99826717","store_key":325,"city":"Malmö"},{"name":"Knastret","lat":"59.37984300","long":"13.50510830","store_key":336,"city":"Karlstad"},{"name":"Bengans","lat":"59.33034270","long":"18.06527640","store_key":360,"city":"Stockholm"},{"name":"Vinyl & Ljudvintage","lat":"60.99989319","long":"14.53739071","store_key":433,"city":"Mora"},{"name":"Backlist Company Games & Records, Varberg","lat":"57.10735200","long":"12.24995160","store_key":587,"city":"Varberg"},{"name":"Skivesset Records","lat":"55.59323883","long":"13.02054691","store_key":607,"city":"Malmö"},{"name":"Sound Pollution","lat":"59.32467800","long":"18.06825710","store_key":616,"city":"Stockholm"},{"name":"MJ Retro","lat":"59.31500730","long":"18.03228900","store_key":663,"city":"Stockholm"},{"name":"Värnamo Musik","lat":"57.18212040","long":"14.05752840","store_key":778,"city":"Värnamo"},{"name":"No. 1 Records","lat":"57.64271545","long":"18.29524231","store_key":815,"city":"Visby"},{"name":"Hot Records","lat":"59.36526600","long":"17.99652220","store_key":893,"city":"Solna"},{"name":"Burmans Musik","lat":"63.82509800","long":"20.26479100","store_key":911,"city":"Umeå"},{"name":"Vinyl & Pryl Källaren","lat":"60.68286630","long":"13.71407310","store_key":1045,"city":"Malung"},{"name":"Vinylpågarna","lat":"56.24690845","long":"12.86139838","store_key":1057,"city":"Ängelholm"},{"name":"Larry's Corner","lat":"59.30942917","long":"18.06728172","store_key":1094,"city":"Stockholm"},{"name":"Antikvariat Samlarshoppen","lat":"65.58715820","long":"22.15352960","store_key":1125,"city":"Luleå"},{"name":"Vinylkontoret","lat":"59.26426905","long":"13.02127075","store_key":1131,"city":"Segmon"},{"name":"Vinylen Records Comics","lat":"58.28540320","long":"12.29298780","store_key":1169,"city":"Trollhättan"},{"name":"Enköpings Skivbörs","lat":"59.63727070","long":"17.07915480","store_key":1194,"city":"Enköping"},{"name":"Solna Skivbörs","lat":"59.36525910","long":"17.99646580","store_key":1244,"city":"Solna"},{"name":"Antikvariat Alibi","lat":"59.44858120","long":"18.10462290","store_key":1331,"city":"Täby"},{"name":"South End Records","lat":"57.77354520","long":"14.15261300","store_key":1336,"city":"Jönköping"},{"name":"Nya Östman Musik AB","lat":"63.29035510","long":"18.71644770","store_key":1344,"city":"Örnsköldsvik"},{"name":"Restyle Second hand & Records","lat":"59.85964560","long":"17.63140670","store_key":1446,"city":"Uppsala"},{"name":"Got To Hurry - Musica","lat":"59.32469559","long":"18.06900597","store_key":1464,"city":"Stockholm"},{"name":"Repeat Records","lat":"55.59752090","long":"13.01050530","store_key":1556,"city":"Malmö"},{"name":"Mickes Serier CD & Vinyl","lat":"59.31733322","long":"18.03261757","store_key":1564,"city":"Stockholm"},{"name":"Stockholms Serie & Skivhandel","lat":"59.34300430","long":"18.05685970","store_key":1565,"city":"Stockholm"},{"name":"Atlas Records","lat":"59.33913990","long":"18.03663660","store_key":1566,"city":"Stockholm"},{"name":"Jackdaw Records","lat":"58.38534540","long":"13.44380220","store_key":1695,"city":"Skara"},{"name":"Skivlagret","lat":"56.15887540","long":"13.76697760","store_key":1705,"city":"Hässleholm"},{"name":"Omega Records Stockholm","lat":"59.34151049","long":"18.04945587","store_key":1729,"city":"Stockholm"},{"name":"Dice Records","lat":"60.48646164","long":"15.43623257","store_key":1763,"city":"Borlänge"},{"name":"Vinylkällaren","lat":"56.34828230","long":"12.81517680","store_key":1908,"city":"Förslöv"},{"name":"2nd Chance Vinyl","lat":"56.04024600","long":"12.70670960","store_key":1989,"city":"Helsingborg"},{"name":"Hot Stuff AB","lat":"56.55469310","long":"14.14940920","store_key":2003,"city":"Älmhult"},{"name":"Lennarts Place","lat":"57.50904083","long":"18.44737625","store_key":2004,"city":"Romakloster"},{"name":"Evolution Records","lat":"58.34442410","long":"11.93582620","store_key":2009,"city":"Uddevalla"},{"name":"Herrhagen Skivbörs","lat":"59.37754230","long":"13.51566940","store_key":2069,"city":"Karlstad"},{"name":"Snickars Records","lat":"59.31823730","long":"18.07350349","store_key":2134,"city":"Stockholm"},{"name":"Record Hunter","lat":"59.33858109","long":"18.03610611","store_key":2135,"city":"Stockholm"},{"name":"Linné skivbörs","lat":"57.69898987","long":"11.94738579","store_key":2147,"city":"Göteborg"},{"name":"Skivcentrum","lat":"59.85963821","long":"17.64113617","store_key":2166,"city":"Uppsala"},{"name":"Galaxy Gramophone Records","lat":"57.69677734","long":"11.96823406","store_key":2228,"city":"Göteborg"},{"name":"Nyman's HiFi & Music","lat":"56.03245030","long":"14.15623590","store_key":2304,"city":"Kristianstad"},{"name":"Peddas Record & Game","lat":"56.16449430","long":"15.58164840","store_key":2319,"city":"Karlskrona"},{"name":"Bengans Record Store","lat":"57.69918570","long":"11.93408520","store_key":2379,"city":"Göteborg"},{"name":"Musik & Konst","lat":"55.59605970","long":"13.00400100","store_key":2387,"city":"Malmö"},{"name":"Open Mind Records","lat":"59.85982132","long":"17.62865448","store_key":2393,"city":"Uppsala"},{"name":"Dirty Records","lat":"57.69937515","long":"11.95136642","store_key":2394,"city":"Göteborg"},{"name":"Nostalgipalatset","lat":"59.34383170","long":"18.03878240","store_key":2395,"city":"Stockholm"},{"name":"Vinylstallet","lat":"62.39126910","long":"17.31065490","store_key":2421,"city":"Sundsvall"},{"name":"Kafe Höga Nord","lat":"57.70427750","long":"11.96309180","store_key":2438,"city":"Göteborg"},{"name":"Beat goes on","lat":"59.33826570","long":"18.03532680","store_key":2564,"city":"Stockholm"},{"name":"Blue Desert Music","lat":"55.60619910","long":"13.02145840","store_key":2572,"city":"Malmö"},{"name":"July Morning Records AB","lat":"59.36885580","long":"16.51993240","store_key":2708,"city":"Eskilstuna"},{"name":"Antikt & Annat","lat":"60.35631220","long":"13.32628390","store_key":2877,"city":"Stöllet"},{"name":"Gallery Ping-Pong","lat":"55.60392761","long":"13.00886631","store_key":2944,"city":"Malmö"},{"name":"Backlist Company Games & Records Halmstad","lat":"56.67304020","long":"12.86407940","store_key":3058,"city":"Halmstad"},{"name":"Mynt & Musik","lat":"57.69916580","long":"11.93526680","store_key":3075,"city":"Göteborg"},{"name":"Wasa Skivbörs","lat":"59.34148970","long":"18.04411130","store_key":3141,"city":"Stockholm"},{"name":"Skivbörsen","lat":"59.33857910","long":"18.03561520","store_key":3142,"city":"Stockholm"},{"name":"Rämjes Eftr.","lat":"58.93756485","long":"11.17521095","store_key":3158,"city":"Strömstad"},{"name":"Roadhouze Records Internethandel","lat":"56.04478073","long":"12.69950867","store_key":3185,"city":"Helsingborg"},{"name":"Moderna Magnus","lat":"59.32506380","long":"18.07229060","store_key":3285,"city":"Stockholm"},{"name":"Blacklist Company","lat":"56.67482260","long":"12.85386800","store_key":3345,"city":"Halmstad"},{"name":"Dackes Vinyl","lat":"57.31866340","long":"15.58361540","store_key":3356,"city":"Virserum"},{"name":"Runt Runt","lat":"59.34099960","long":"18.04267311","store_key":3407,"city":"Stockholm"},{"name":"Sound+Matter Record Shop","lat":"55.59392820","long":"13.01944390","store_key":3633,"city":"Malmö"},{"name":"Retro","lat":"59.65663870","long":"12.58816180","store_key":3644,"city":"Arvika"},{"name":"Asker-Antikt & begagnat","lat":"59.33351440","long":"13.09988550","store_key":3652,"city":"Grums"},{"name":"Bananamoon","lat":"59.27534866","long":"15.21234608","store_key":3725,"city":"Örebro"},{"name":"Vinylkällaren","lat":"58.38730621","long":"13.42524719","store_key":1908,"city":"Skara"},{"name":"Repeat","lat":"55.70136642","long":"13.19871426","store_key":3740,"city":"Lund"},{"name":"Golden oldies","lat":"59.34305200","long":"18.03909070","store_key":3836,"city":"Stockholm"},{"name":"Top Five Records","lat":"59.31620407","long":"18.05915642","store_key":2002,"city":"Stockholm"},{"name":"Backbeatshop","lat":"56.01861750","long":"12.71714040","store_key":3966,"city":"Helsingborg"},{"name":"Andra Långgatans Skivhandel","lat":"57.69889069","long":"11.94534683","store_key":4016,"city":"Göteborg"},{"name":"Electric Mud Records","lat":"56.24362840","long":"12.85778850","store_key":4024,"city":"Ängelholm"},{"name":"Musiclovers records","lat":"57.70444182","long":"11.96295965","store_key":4056,"city":"Göteborg"},{"name":"Push My Buttons","lat":"59.31316376","long":"18.08846092","store_key":4106,"city":"Stockholm"},{"name":"Mr. D & Co","lat":"57.71832275","long":"12.01651669","store_key":4107,"city":"Göteborg"},{"name":"Hurricane Records","lat":"59.33916430","long":"18.03660050","store_key":936,"city":"Stockholm"},{"name":"Farsot","lat":"57.69597626","long":"11.91813564","store_key":4229,"city":"Göteborg"},{"name":"Vintage Vinyl","lat":"55.70326130","long":"13.19163970","store_key":1178,"city":"Lund"},{"name":"Ljud","lat":"60.67728043","long":"17.13689613","store_key":4298,"city":"Gävle"},{"name":"Fade","lat":"59.31210327","long":"18.07915878","store_key":4344,"city":"Stockholm"},{"name":"Boavideo","lat":"61.72784070","long":"17.10370320","store_key":4369,"city":"Hudiksvall"},{"name":"Plugged Records","lat":"59.32324600","long":"18.07089424","store_key":4376,"city":"Stockholm"},{"name":"Nunnan Records","lat":"58.75608950","long":"17.01787950","store_key":4479,"city":"Nyköping"},{"name":"Mingus Bok-& Skivbutik","lat":"63.82395172","long":"20.27928734","store_key":4493,"city":"Umeå"},{"name":"Dirty Music","lat":"56.03187180","long":"14.16151428","store_key":4648,"city":"Kristianstad"},{"name":"Ubbes Vinyl & Musik","lat":"56.87893850","long":"16.65738140","store_key":4677,"city":"Borgholm"},{"name":"Vintage Violence Record Store","lat":"59.32453070","long":"18.07224100","store_key":4692,"city":"Stockholm"},{"name":"Holje Bokhandel & Antikvariat","lat":"56.28085709","long":"14.52097607","store_key":4836,"city":"Olofström"},{"name":"Hjalmar B:s Skivbörs","lat":"59.86295730","long":"17.65323230","store_key":4837,"city":"Uppsala"},{"name":"Rytm","lat":"55.59666380","long":"13.01101100","store_key":4894,"city":"Malmö"},{"name":"Gellborn Records","lat":"59.34614370","long":"18.05318990","store_key":4910,"city":"Stockholm"},{"name":"Örebro Records & Stuff - rcrdsnstff","lat":"59.27620697","long":"15.20501423","store_key":5006,"city":"Örebro"},{"name":"Cranefly Records","lat":"57.63798141","long":"18.29941368","store_key":5008,"city":"Visby"},{"name":"Vinyl köp","lat":"59.31865220","long":"18.07159650","store_key":5147,"city":"Stockholm"},{"name":"Pet Sounds Records","lat":"59.31213379","long":"18.07798767","store_key":5163,"city":"Stockholm"},{"name":"An Ideal for Living","lat":"59.31291962","long":"18.08089447","store_key":5177,"city":"Stockholm"},{"name":"Alla Tiders Skivhandel","lat":"60.67518920","long":"17.13934910","store_key":5194,"city":"Gävle"},{"name":"Delicious Goldfish Records","lat":"59.36577420","long":"17.98983160","store_key":5212,"city":"Solna"},{"name":"Vinylsidan.se","lat":"57.73340225","long":"12.06569195","store_key":5343,"city":"Göteborg"},{"name":"Recordfreaks","lat":"63.83049011","long":"20.21904564","store_key":5396,"city":"Umeå"},{"name":"seagullvinyl","lat":"55.59510800","long":"13.02223490","store_key":5556,"city":"Malmö"},{"name":"Bengans skivbutik","lat":"58.40977097","long":"15.62258816","store_key":5628,"city":"Linköping"},{"name":"Rundgång i Uffes Källare","lat":"56.87745667","long":"14.81060791","store_key":5719,"city":"Växjö"},{"name":"Incas Frimärksbod","lat":"57.69178772","long":"11.99162769","store_key":5760,"city":"Göteborg"},{"name":"Nya Skivlagret","lat":"55.37333679","long":"13.16042995","store_key":5804,"city":"Trelleborg"},{"name":"Frosta Radio TV","lat":"55.93439520","long":"13.54057570","store_key":5839,"city":"Höör"},{"name":"Folk å Rock","lat":"55.60496521","long":"12.99940777","store_key":5888,"city":"Malmö"},{"name":"Skivfönstret","lat":"58.90357590","long":"17.94773483","store_key":5929,"city":"Nynäshamn"},{"name":"Crazy Records","lat":"58.41446930","long":"15.61842880","store_key":5931,"city":"Linköping"},{"name":"Skivklubben","lat":"57.77494049","long":"14.15680027","store_key":5940,"city":"Jönköping"},{"name":"Triphopshop","lat":"59.34046173","long":"18.03048325","store_key":5990,"city":"Stockholm"},{"name":"CD Fyndet","lat":"59.86120224","long":"17.63543320","store_key":5991,"city":"Uppsala"},{"name":"City Records","lat":"59.61040930","long":"16.54513690","store_key":2622,"city":"Västerås"},{"name":"Stockholms Skivbörs","lat":"59.34149510","long":"18.04948470","store_key":6303,"city":"Stockholm"},{"name":"Hellstone Music","lat":"59.31830597","long":"18.07110023","store_key":6408,"city":"Stockholm"},{"name":"House Of Oldies","lat":"59.34355545","long":"18.03552818","store_key":3109,"city":"Stockholm"},{"name":"Vinylskrubben","lat":"58.28641980","long":"12.31195470","store_key":6616,"city":"Trollhättan"},{"name":"Vinylgaraget","lat":"56.91068540","long":"12.43086120","store_key":6638,"city":"Falkenberg"},{"name":"Cultix","lat":"56.87919610","long":"14.80074990","store_key":6656,"city":"Växjö"},{"name":"Stockholms Stadsmission Second Hand","lat":"59.34395770","long":"18.05274660","store_key":6661,"city":"Stockholm"},{"name":"Vinylcenter Sweden AB","lat":"59.36478690","long":"17.97603100","store_key":6662,"city":"Sundbyberg"},{"name":"Arvika Mixture","lat":"59.65487710","long":"12.58936270","store_key":6727,"city":"Arvika"},{"name":"Bengans","lat":"57.70634600","long":"11.97105500","store_key":360,"city":"Göteborg"},{"name":"Ginza","lat":"58.12817383","long":"12.77749729","store_key":6833,"city":"Fåglum"},{"name":"Kompakt Disk","lat":"56.02934647","long":"14.16244602","store_key":6862,"city":"Kristianstad"},{"name":"Armadillo Records","lat":"57.69928741","long":"11.93604565","store_key":6863,"city":"Göteborg"},{"name":"Ekholm Records","lat":"58.38381577","long":"12.32598972","store_key":6891,"city":"Vänersborg"},{"name":"Skivbörsen","lat":"59.61103439","long":"16.54436302","store_key":3142,"city":"Västerås"},{"name":"Vinylbutiken","lat":"59.33445590","long":"18.08306690","store_key":6949,"city":"Stockholm"},{"name":"Zombie Records","lat":"59.36973190","long":"16.52125168","store_key":7083,"city":"Eskilstuna"},{"name":"Mynt & Music","lat":"57.71101340","long":"11.98792470","store_key":7172,"city":"Göteborg"},{"name":"Hep Cat Store","lat":"55.68501280","long":"13.18121410","store_key":7338,"city":"Lund"},{"name":"Vaxkupan Norrköping HB","lat":"58.59009171","long":"16.18742943","store_key":7369,"city":"Norrköping"},{"name":"Record Mania","lat":"59.31746300","long":"18.07500100","store_key":5549,"city":"Stockholm"},{"name":"Folk å Rock","lat":"60.48592320","long":"15.43289690","store_key":5888,"city":"Borlänge"},{"name":"Andra jazz","lat":"59.34399033","long":"18.03588676","store_key":7445,"city":"Stockholm"},{"name":"Söder disc and gadget Exchange","lat":"60.67768860","long":"17.14473534","store_key":7457,"city":"Gävle"},{"name":"Rainbow Music","lat":"59.36154420","long":"17.99059060","store_key":7473,"city":"Solna"},{"name":"Ally Stuff (records)","lat":"59.31860733","long":"18.07166290","store_key":7608,"city":"Stockholm"},{"name":"Skivhögen","lat":"59.31679700","long":"18.07347620","store_key":7609,"city":"Stockholm"},{"name":"Söders Skivbörs","lat":"59.31769562","long":"18.05508232","store_key":7610,"city":"Stockholm"},{"name":"Ramlösa Records","lat":"56.01968500","long":"12.75185600","store_key":7664,"city":"Ramlösa"}]