[{"name":"White Label Records","lat":"1.28072600","long":"103.84578700","store_key":128,"city":"Singapore"},{"name":"For The Record","lat":"1.29191899","long":"103.85013580","store_key":367,"city":"Singapore"},{"name":"Loong Records Shop","lat":"1.29201530","long":"103.84986180","store_key":378,"city":"Singapore"},{"name":"Vinyl Records","lat":"1.30220950","long":"103.86385870","store_key":353,"city":"Singapore"},{"name":"Mosta Records","lat":"1.30048070","long":"103.85987520","store_key":889,"city":"Singapore"},{"name":"Hear Records","lat":"1.30203460","long":"103.85246430","store_key":949,"city":"Singapore"},{"name":"Jade Music","lat":"1.29187984","long":"103.85031883","store_key":1228,"city":"Singapore"},{"name":"Simply Music","lat":"1.29103211","long":"103.85115771","store_key":1246,"city":"Singapore"},{"name":"Vinyl Kakis","lat":"1.29212440","long":"103.84987090","store_key":1498,"city":"Singapore"},{"name":"Memphis Music","lat":"1.29220903","long":"103.84981537","store_key":2160,"city":"Singapore"},{"name":"Roxy Disc House","lat":"1.29102200","long":"103.85113500","store_key":2976,"city":"Singapore"},{"name":"Past Image","lat":"1.29194000","long":"103.84968800","store_key":3047,"city":"Singapore"},{"name":"Curated Records","lat":"1.28462400","long":"103.83412780","store_key":3196,"city":"Singapore"},{"name":"Roxy Disc House (Jalan Pemimpin)","lat":"1.34930100","long":"103.84150800","store_key":3631,"city":"Singapore"},{"name":"AVP Sound Vision","lat":"1.29120148","long":"103.85118551","store_key":3632,"city":"Singapore"},{"name":"RetroCrates","lat":"1.30653500","long":"103.90446800","store_key":3659,"city":"Singapore"},{"name":"New Disc Village","lat":"1.29124240","long":"103.85115440","store_key":3916,"city":"Singapore"},{"name":"Vinylicious Records","lat":"1.29131300","long":"103.85115430","store_key":3949,"city":"Singapore"},{"name":"Still Can Use","lat":"1.28258630","long":"103.84309230","store_key":4815,"city":"Singapore"},{"name":"Choice Cuts Good + Coffee","lat":"1.30675780","long":"103.90449940","store_key":4996,"city":"Singapore"},{"name":"Red Point Record Warehouse","lat":"1.33705604","long":"103.88685608","store_key":5596,"city":"Singapore"},{"name":"Roxy Records & Trading","lat":"1.29211880","long":"103.84998890","store_key":5605,"city":"Singapore"},{"name":"CD PLUS","lat":"1.31691510","long":"103.84377580","store_key":5763,"city":"Singapore"},{"name":"Zenn Audio Electronics","lat":"1.33161530","long":"103.94846660","store_key":5930,"city":"Singapore"},{"name":"Memory Lane","lat":"1.29102200","long":"103.85113500","store_key":6008,"city":"Singapore"},{"name":"Modular Audio","lat":"1.29139200","long":"103.85124100","store_key":6039,"city":"Singapore"},{"name":"Retrophonic Records","lat":"1.27818520","long":"103.84333930","store_key":6109,"city":"Singapore"},{"name":"The Analog Vault","lat":"1.28956460","long":"103.85587070","store_key":6200,"city":"Singapore"},{"name":"VINYLUCKY Music and Audio","lat":"1.29102200","long":"103.85113500","store_key":6796,"city":"Singapore"},{"name":"QQ Music Store","lat":"1.35988200","long":"103.83434100","store_key":6916,"city":"Singapore"},{"name":"House Of Turntables","lat":"1.30467960","long":"103.79830540","store_key":6939,"city":"Singapore"}]