[{"name":"Thirteenth Music","lat":"48.32935333","long":"19.66745758","store_key":95,"city":"Lučenec"},{"name":"Vinyloveplatne","lat":"48.14516449","long":"17.10772705","store_key":509,"city":"Bratislava"},{"name":"Hummel Music Shop - Divyd Ltd.","lat":"48.14421600","long":"17.11023460","store_key":721,"city":"Bratislava"},{"name":"WEGART","lat":"48.14407470","long":"17.11025970","store_key":1260,"city":"Bratislava"},{"name":"Gladiator Shop","lat":"48.14417267","long":"17.10699081","store_key":1385,"city":"Bratislava"},{"name":"etc. / vinyl, books & more","lat":"48.14123400","long":"17.10982300","store_key":4091,"city":"Bratislava"},{"name":"Fonotéka - BBZOO - Vinyl Record Store","lat":"48.73736191","long":"19.14873123","store_key":4727,"city":"Banská"},{"name":"Dr. Horák","lat":"48.14136240","long":"17.11216550","store_key":6577,"city":"Bratislava"},{"name":"Rock Music Shop","lat":"48.71955150","long":"21.26031730","store_key":6957,"city":"Košice"},{"name":"COMPACT STUDIO","lat":"48.71717834","long":"21.26147842","store_key":7144,"city":"Košice"}]