[{"name":"Bungkumhouse Records","lat":"13.72971630","long":"100.58093610","store_key":421,"city":"Bangkok"},{"name":"Heaven & Hell","lat":"13.79889175","long":"100.55056267","store_key":754,"city":"Bangkok"},{"name":"Vinyllica","lat":"13.75710200","long":"100.56500800","store_key":1502,"city":"Bangkok"},{"name":"M - Tanakorn Records","lat":"13.74672840","long":"100.51052150","store_key":2070,"city":"Bangkok"},{"name":"Triple Six Records","lat":"13.73761082","long":"100.51644135","store_key":2248,"city":"Bangkok"},{"name":"Nik Studio","lat":"13.75910600","long":"100.56517800","store_key":2255,"city":"Bangkok"},{"name":"Vinyl Die Hards","lat":"13.68793690","long":"100.64670790","store_key":2296,"city":"Bangkok"},{"name":"P&P Audio & Vinyl","lat":"13.75783400","long":"100.56479150","store_key":2317,"city":"Bangkok"},{"name":"Pro HIFI","lat":"13.75909690","long":"100.56513440","store_key":3024,"city":"Bangkok"},{"name":"Hall of Fame Records (HOF-Records)","lat":"13.75793552","long":"100.56509399","store_key":3098,"city":"Bangkok"},{"name":"Vinylfeeling Record","lat":"13.72809470","long":"100.51470990","store_key":3276,"city":"Bangkok"},{"name":"COCONUT RECORDS","lat":"13.75799970","long":"100.56514380","store_key":3341,"city":"Bangkok"},{"name":"tonchabab records vinyl shop","lat":"13.75464520","long":"100.49604950","store_key":3533,"city":"Bangkok"},{"name":"Bryter Layter Cafe","lat":"13.76543236","long":"100.48358917","store_key":3602,"city":"Bangkok"},{"name":"Minilop","lat":"13.75742765","long":"100.56485932","store_key":4688,"city":"Bangkok"},{"name":"REC.","lat":"13.81312872","long":"100.56063508","store_key":4697,"city":"Bangkok"},{"name":"Fat Black Record","lat":"13.80311940","long":"100.61859300","store_key":4869,"city":"Bangkok"},{"name":"1979 Vinyl","lat":"13.73014860","long":"100.58067570","store_key":5757,"city":"Bangkok"},{"name":"Vinyl & Toys","lat":"13.80702190","long":"100.61653470","store_key":5810,"city":"Bangkok"},{"name":"Record Hunter","lat":"13.76369030","long":"100.53808130","store_key":2135,"city":"Bangkok"},{"name":"8 Musique","lat":"13.73033714","long":"100.58200836","store_key":6297,"city":"Bangkok"},{"name":"Wualai Records Shop","lat":"18.77677180","long":"98.98296680","store_key":6848,"city":"Chiang Mai"},{"name":"Zudrangma Records","lat":"13.72659060","long":"100.57636120","store_key":7417,"city":"Bangkok"}]