[{"name":"Kivilcim Muzik","lat":"41.02825420","long":"28.97440320","store_key":276,"city":"Istanbul"},{"name":"D&R Çorlu","lat":"41.15196670","long":"27.83132600","store_key":280,"city":"Çorlu"},{"name":"OZZYTURK","lat":"39.90266600","long":"32.86064200","store_key":326,"city":"Ankara"},{"name":"Zihni Muzik","lat":"40.98920441","long":"29.02308273","store_key":341,"city":"Istanbul"},{"name":"Velvet Indieground Plak / Records","lat":"41.05677650","long":"28.98263000","store_key":460,"city":"Istanbul"},{"name":"Ada Muzik","lat":"39.88233880","long":"32.68535290","store_key":583,"city":"Ankara"},{"name":"D&R Sakarya Serdivan","lat":"40.77886160","long":"30.36549920","store_key":697,"city":"Sakarya"},{"name":"Dipdibe Records - Plak","lat":"38.32187670","long":"26.76463260","store_key":782,"city":"Urla"},{"name":"Mr. Frog's Record Store","lat":"41.02565570","long":"28.97494410","store_key":885,"city":"Istanbul"},{"name":"Vintage Records","lat":"40.98578262","long":"29.02590179","store_key":898,"city":"Istanbul"},{"name":"Gramofon Antik","lat":"40.98941422","long":"29.02587891","store_key":967,"city":"Istanbul"},{"name":"Mavzolos Plak Evi","lat":"40.22010680","long":"28.95882970","store_key":997,"city":"Bursa"},{"name":"Shades Records & Cds","lat":"39.90568924","long":"32.86093903","store_key":1029,"city":"Ankara"},{"name":"Jukebox Plak&Cafe","lat":"41.03340780","long":"28.98177430","store_key":1143,"city":"Istanbul"},{"name":"Rpm Music","lat":"40.98607900","long":"29.02592700","store_key":1321,"city":"Istanbul"},{"name":"Outro Music Store","lat":"40.98510390","long":"29.02331330","store_key":1525,"city":"Istanbul"},{"name":"Deform Music","lat":"41.03334850","long":"28.98126450","store_key":1561,"city":"Istanbul"},{"name":"Dipsahaf Plak Deposu","lat":"40.98585220","long":"29.02540440","store_key":1690,"city":"Istanbul"},{"name":"Deviant Vintage","lat":"39.90899200","long":"32.86016690","store_key":1886,"city":"Ankara"},{"name":"Plakperest","lat":"40.99461180","long":"29.02928920","store_key":1896,"city":"Istanbul"},{"name":"Kupon HiFi","lat":"40.96701600","long":"29.11317050","store_key":1979,"city":"Istanbul"},{"name":"D&R Tekira","lat":"40.97771820","long":"27.50400930","store_key":2064,"city":"Tekirdağ"},{"name":"Lale Plak","lat":"41.02841370","long":"28.97450700","store_key":2137,"city":"Istanbul"},{"name":"Ege Kitap ve Plak Evi","lat":"38.43672400","long":"27.14404300","store_key":2179,"city":"Izmir"},{"name":"D&R Samsun Bulvar","lat":"41.28909200","long":"36.33415510","store_key":2205,"city":"Samsun"},{"name":"Vinylium ZONE","lat":"38.43678400","long":"27.14503000","store_key":2249,"city":"Izmir"},{"name":"Zoltan Records","lat":"40.98896408","long":"29.02679825","store_key":2579,"city":"Istanbul"},{"name":"Jammin's Vinyl Records","lat":"41.06057100","long":"28.98428600","store_key":2619,"city":"Istanbul"},{"name":"D&R","lat":"40.99987690","long":"39.76144200","store_key":2645,"city":"Trabzon"},{"name":"Orfe Moby Dick","lat":"40.98534775","long":"29.02442169","store_key":2785,"city":"Istanbul"},{"name":"Boris Comics & Records","lat":"40.98780790","long":"29.02575660","store_key":2800,"city":"Istanbul"},{"name":"D&R Bodrum Milta Marina","lat":"37.03442800","long":"27.42222170","store_key":3000,"city":"Bodrum"},{"name":"Plakçı Hamit","lat":"40.98949970","long":"29.02548090","store_key":3195,"city":"Istanbul"},{"name":"Kıvılcım Müzik","lat":"39.92009960","long":"32.85743380","store_key":3209,"city":"Ankara"},{"name":"Gürkan Plak Evi","lat":"39.92423430","long":"32.85584870","store_key":3222,"city":"Ankara"},{"name":"Dost Bookstore","lat":"39.91972351","long":"32.85533142","store_key":3223,"city":"Ankara"},{"name":"Soundstage","lat":"41.04879890","long":"28.99561220","store_key":3313,"city":"Istanbul"},{"name":"Gramofon Kafeye","lat":"39.93685150","long":"32.86405182","store_key":3450,"city":"Ankara"},{"name":"monoplak","lat":"41.03119400","long":"28.97960670","store_key":3452,"city":"Istanbul"},{"name":"D&R Samsun Piazza","lat":"41.27679060","long":"36.35285950","store_key":3475,"city":"Samsun"},{"name":"Plakhane","lat":"40.98676300","long":"29.02382700","store_key":3663,"city":"Istanbul"},{"name":"D&R Bodrum Oasis","lat":"37.04183578","long":"27.41073036","store_key":3777,"city":"Bodrum"},{"name":"Kurgu Sahaf","lat":"41.03373090","long":"28.98185140","store_key":3824,"city":"Istanbul"},{"name":"D&R","lat":"41.00523760","long":"39.71622150","store_key":2645,"city":"Trabzon"},{"name":"Küçük Plak Dükkanı","lat":"40.98504257","long":"29.02541733","store_key":4240,"city":"Istanbul"},{"name":"Matara İlgi Evi","lat":"38.42155075","long":"27.13310242","store_key":4296,"city":"Izmir"},{"name":"Huri Antik Mücevherat","lat":"36.20163710","long":"36.16226180","store_key":4404,"city":"Hatay"},{"name":"D&R","lat":"37.24865600","long":"27.66399250","store_key":2645,"city":"Milas-Bodrum Havalimanı"},{"name":"Akmar Pasajı","lat":"40.98898070","long":"29.02327720","store_key":4645,"city":"Istanbul"},{"name":"Gramofon Evi","lat":"38.42127609","long":"27.13314819","store_key":4646,"city":"Izmir"},{"name":"Antik & An","lat":"39.91206360","long":"32.86230087","store_key":4656,"city":"Ankara"},{"name":"Atlantis Müzik","lat":"41.02755737","long":"28.97408676","store_key":4682,"city":"Istanbul"},{"name":"Rainbow45 Records","lat":"40.98776870","long":"29.02637590","store_key":4944,"city":"Istanbul"},{"name":"Pantheon Records","lat":"41.02712250","long":"28.97866440","store_key":4947,"city":"Istanbul"},{"name":"Off The Record","lat":"41.03365600","long":"29.03167100","store_key":513,"city":"Istanbul"},{"name":"Mephisto Bookstore & Cafe - Beyoglu","lat":"41.03432350","long":"28.97961160","store_key":5629,"city":"Istanbul"},{"name":"Berk Plak","lat":"40.98392550","long":"29.05115640","store_key":5665,"city":"Istanbul"},{"name":"Ada Kitabevi","lat":"39.90096490","long":"32.69123350","store_key":6057,"city":"Ankara"},{"name":"SANAT ve KULTUR MERKEZI","lat":"39.90684128","long":"32.86110687","store_key":6107,"city":"Ankara"},{"name":"Can Plak","lat":"40.98722230","long":"29.02535170","store_key":6120,"city":"Istanbul"},{"name":"Mephisto Bookstore & Cafe - Besiktas","lat":"41.04350662","long":"29.00493431","store_key":6130,"city":"Istanbul"},{"name":"Fil Elektronik","lat":"38.43420150","long":"27.14199800","store_key":6352,"city":"Izmir"},{"name":"Groove Records","lat":"41.04895680","long":"28.99772980","store_key":798,"city":"Istanbul"},{"name":"Ceyhun Plak","lat":"38.41921130","long":"27.13102890","store_key":6407,"city":"Izmir"},{"name":"Gold Plak","lat":"41.05046670","long":"28.98662050","store_key":6411,"city":"Istanbul"},{"name":"Oda Müzik - Plak Dükkanı","lat":"40.97859192","long":"28.86910820","store_key":6435,"city":"Istanbul"},{"name":"Gobbidi","lat":"40.97927400","long":"29.04610100","store_key":6443,"city":"Istanbul"},{"name":"Kontra Plak","lat":"41.03166199","long":"28.97846222","store_key":6500,"city":"Istanbul"},{"name":"Analog Kültür","lat":"41.02815628","long":"28.97649956","store_key":6780,"city":"Istanbul"},{"name":"Moya Plak","lat":"41.05817510","long":"28.98797640","store_key":7180,"city":"Istanbul"},{"name":"D&R","lat":"39.90225750","long":"32.86101920","store_key":2645,"city":"Ankara"},{"name":"Pirinc Han","lat":"39.93636750","long":"32.86344170","store_key":7366,"city":"Ankara"},{"name":"Opus 3A","lat":"41.03094864","long":"28.98658180","store_key":7434,"city":"Istanbul"},{"name":"exit music","lat":"40.98736191","long":"29.03136253","store_key":7462,"city":"Istanbul"},{"name":"Tezgah","lat":"41.03276825","long":"28.97759628","store_key":7476,"city":"Istanbul"},{"name":"Hammer Muzik","lat":"40.98930910","long":"29.02280080","store_key":7477,"city":"Istanbul"},{"name":"Vinylmania","lat":"40.98702420","long":"29.02760180","store_key":7549,"city":"Istanbul"},{"name":"Gökhan Müzik Plak & Cafe","lat":"36.19870720","long":"36.16078950","store_key":7673,"city":"Antakya"}]