[{"name":"Eslite Dunnan Store","lat":"25.03921190","long":"121.54958290","store_key":473,"city":"Taipei"},{"name":"Metal Gate 揺滾帝国/金属極境","lat":"25.05058861","long":"121.56827545","store_key":549,"city":"Taipei"},{"name":"Music House - 泽龙唱片","lat":"25.04247390","long":"121.50675190","store_key":568,"city":"Taipei"},{"name":"Waiting Room","lat":"25.04935290","long":"121.52022250","store_key":785,"city":"Taipei"},{"name":"Xiao Song Records - 小宋唱片行","lat":"22.61662770","long":"120.30687930","store_key":802,"city":"Kaohsiung City"},{"name":"愛樂唱片","lat":"25.04507800","long":"121.51459100","store_key":862,"city":"Taipei"},{"name":"Kind Of Blue Records - 感傷唱片行（卡帶 咖啡 甜點）","lat":"24.13894870","long":"120.66110920","store_key":1370,"city":"Taichung"},{"name":"SHS Music - 山海山音樂廣場","lat":"24.07962190","long":"120.54057500","store_key":1500,"city":"Changhua"},{"name":"Swangen LP","lat":"25.03055382","long":"121.49679565","store_key":1593,"city":"Taipei"},{"name":"Jengood - 珍古书坊","lat":"22.99575800","long":"120.21354200","store_key":2286,"city":"Tainan"},{"name":"Abbey Road Record Store - 艾比路唱片行","lat":"22.62836800","long":"120.31003300","store_key":2741,"city":"Kaohsiung City"},{"name":"佳佳唱片","lat":"25.04527200","long":"121.51457090","store_key":2804,"city":"Taipei"},{"name":"95 Music Zone - 95樂府","lat":"25.04491300","long":"121.50806800","store_key":3036,"city":"Taipei"},{"name":"Sunrise Records - 上揚唱片","lat":"25.05776210","long":"121.52304030","store_key":3037,"city":"Taipei"},{"name":"Syntrend","lat":"25.04533900","long":"121.53103190","store_key":3601,"city":"Taipei"},{"name":"Analogy - 古殿樂藏","lat":"25.10972160","long":"121.51847180","store_key":3691,"city":"Taipei"},{"name":"Eslite Spectrum Park Lane by CMP Store","lat":"24.15120220","long":"120.66389420","store_key":3947,"city":"Taichung"},{"name":"Vinyl Decision","lat":"25.02404730","long":"121.55375230","store_key":4141,"city":"Taipei"},{"name":"Chia Chia Record Zhonghua Store - 佳佳唱片","lat":"25.04390500","long":"121.50836800","store_key":4189,"city":"Taipei"},{"name":"White Wabbit Records 小白兔唱片","lat":"25.02429800","long":"121.52717800","store_key":5268,"city":"Taipei"},{"name":"BEANS & BEATS","lat":"25.06039047","long":"121.55738831","store_key":5346,"city":"Taipei"},{"name":"Wien Disc Shop - 惟因唱片","lat":"22.99284220","long":"120.19765800","store_key":5604,"city":"Tainan"},{"name":"Eslite Xinyi Store","lat":"25.03960230","long":"121.56577800","store_key":5852,"city":"Taipei"},{"name":"合友唱片","lat":"25.04368200","long":"121.53208100","store_key":6034,"city":"Taipei"},{"name":"THT唱片","lat":"25.05609120","long":"121.53775980","store_key":6375,"city":"Taipei"},{"name":"Pub Metal Merchandise - 陰府門","lat":"25.04278600","long":"121.50428400","store_key":6380,"city":"Taipei"},{"name":"RK Records - 駱克唱片","lat":"25.05219500","long":"121.55973500","store_key":6455,"city":"Taipei"},{"name":"Species Records - 有種唱片","lat":"25.04482300","long":"121.50420170","store_key":6895,"city":"Taipei"},{"name":"SOUL AMAZIN' MUSIC","lat":"25.04558945","long":"121.58023834","store_key":7025,"city":"Taipei"},{"name":"Indimusic 個體戶","lat":"25.01751518","long":"121.53175354","store_key":7030,"city":"Taipei"},{"name":"ReUSED","lat":"25.10662700","long":"121.51632400","store_key":7258,"city":"Taipei"},{"name":"Genki - 元氣唱片行","lat":"24.14544290","long":"120.67190800","store_key":7261,"city":"Taichung"}]