[{"name":"LongPlay Community","lat":"50.45282260","long":"30.50633820","store_key":578,"city":"Kyiv"},{"name":"Vinyla — Vinyl Music Corner","lat":"50.46603710","long":"30.52025090","store_key":669,"city":"Kyiv"},{"name":"Vibeside","lat":"46.49136130","long":"30.73699340","store_key":1930,"city":"Odesa"},{"name":"Odessadisc","lat":"46.48504690","long":"30.73723690","store_key":2095,"city":"Odesa"},{"name":"Vinyl Shop","lat":"49.84127426","long":"24.03241158","store_key":2480,"city":"L'viv"},{"name":"Closer","lat":"50.46606120","long":"30.49990770","store_key":2624,"city":"Kyiv"},{"name":"Gram Record Store","lat":"50.45624700","long":"30.50173500","store_key":2742,"city":"Kyiv"},{"name":"S2DIO","lat":"48.92013950","long":"24.70760690","store_key":3840,"city":"Ivano-Frankivs'k"},{"name":"JAM","lat":"48.47311930","long":"35.03028670","store_key":4410,"city":"Dnipropetrovs'k"},{"name":"Пластмасса","lat":"50.46249390","long":"30.52358627","store_key":4717,"city":"Kyiv"},{"name":"Vinyl Club Lviv | Вініл Клуб Львів","lat":"49.84048230","long":"24.03393560","store_key":4874,"city":"L'viv"},{"name":"Diskultura","lat":"50.45203840","long":"30.49436860","store_key":5644,"city":"Kyiv"},{"name":"Культура звука Store","lat":"50.00846850","long":"36.23891710","store_key":6327,"city":"Kharkiv"},{"name":"Kharms","lat":"50.44797897","long":"30.51555824","store_key":6406,"city":"Kyiv"},{"name":"Vinylotheka - digger-bar","lat":"50.46274948","long":"30.45954514","store_key":6694,"city":"Kyiv"},{"name":"Магазин «Музыкальный центр»","lat":"49.98925130","long":"36.23126230","store_key":7095,"city":"Kharkiv"},{"name":"SuperShop2016","lat":"50.48691220","long":"30.48844750","store_key":7368,"city":"Kyiv"},{"name":"Музыкальный магазин","lat":"48.73690414","long":"37.58840179","store_key":7479,"city":"Kramators'k"}]