[{"name":"Radiation Records","lat":"33.85675580","long":"-117.90725160","store_key":3,"city":"Anaheim"},{"name":"Boss Vintage","lat":"39.09955220","long":"-94.57999120","store_key":13,"city":"Kansas City"},{"name":"Electric Buddhas","lat":"43.65503440","long":"-70.26131960","store_key":17,"city":"Portland"},{"name":"Luv Unlimited","lat":"42.99669600","long":"-87.89831200","store_key":18,"city":"Milwaukee"},{"name":"Cosmic Debris","lat":"34.01480900","long":"-86.00789250","store_key":19,"city":"Gadsden"},{"name":"The Music Underground","lat":"40.79276160","long":"-77.86308720","store_key":20,"city":"State College"},{"name":"The Book House in Dinkytown","lat":"44.98061580","long":"-93.23644550","store_key":22,"city":"Minneapolis"},{"name":"CD Warehouse","lat":"34.01448530","long":"-84.55022600","store_key":23,"city":"Marietta"},{"name":"C D Reunion","lat":"38.78063965","long":"-90.51988220","store_key":24,"city":"Saint Charles"},{"name":"Terry's Mallternative","lat":"46.18960120","long":"-123.83070640","store_key":25,"city":"Astoria"},{"name":"Mercer Street Books & Records","lat":"40.72665750","long":"-73.99670880","store_key":27,"city":"New York"},{"name":"Media Rerun","lat":"35.82963181","long":"-86.34749603","store_key":28,"city":"Murfreesboro"},{"name":"Old Towne Strings","lat":"43.84086990","long":"-91.24649048","store_key":29,"city":"La Crosse"},{"name":"Singles Going Steady","lat":"47.61351400","long":"-122.34520970","store_key":30,"city":"Seattle"},{"name":"Sound Exchange","lat":"39.29310810","long":"-81.54684660","store_key":31,"city":"Parkersburg"},{"name":"The Exchange","lat":"41.15731430","long":"-81.86154175","store_key":32,"city":"Medina"},{"name":"Flip Side","lat":"34.17137710","long":"-118.56771540","store_key":33,"city":"Los Angeles"},{"name":"The Vinyl Music Vault","lat":"42.45557800","long":"-75.05924900","store_key":34,"city":"Oneonta"},{"name":"3 Dachshunds","lat":"35.65256370","long":"-97.51690480","store_key":52,"city":"Edmond"},{"name":"Purchase Street Records","lat":"41.63469970","long":"-70.92605130","store_key":53,"city":"New Bedford"},{"name":"2 Bridges Music Arts","lat":"40.71363700","long":"-73.99413270","store_key":54,"city":"New York"},{"name":"Elf Shelf Books & Music","lat":"39.80082321","long":"-89.65016174","store_key":55,"city":"Springfield"},{"name":"Iris Records","lat":"40.72273100","long":"-74.05120000","store_key":62,"city":"Jersey City"},{"name":"Revolver Records","lat":"30.43601060","long":"-87.20515360","store_key":67,"city":"Pensacola"},{"name":"Vinyl Remains","lat":"40.38031600","long":"-80.04482740","store_key":70,"city":"Pittsburgh"},{"name":"Put The Needle On The Record","lat":"34.50119760","long":"-97.94655960","store_key":71,"city":"Duncan"},{"name":"Triangle Vinyl","lat":"28.55552900","long":"-81.76706400","store_key":75,"city":"Clermont"},{"name":"Canandaigua Record Exchange","lat":"42.88551340","long":"-77.27896870","store_key":79,"city":"Canandaigua"},{"name":"Retro Wanderlust","lat":"44.92402800","long":"-93.41549940","store_key":80,"city":"Hopkins"},{"name":"Rock Hill Bakehouse & Cafe","lat":"43.31300060","long":"-73.63620800","store_key":82,"city":"Glens Falls"},{"name":"Record Town","lat":"32.74298100","long":"-97.32908790","store_key":83,"city":"Fort Worth"},{"name":"The Exchange Buy- Sell-Trade","lat":"40.44103040","long":"-79.95813040","store_key":85,"city":"Pittsburgh"},{"name":"Medusa Records","lat":"37.29250000","long":"-80.06027780","store_key":89,"city":"Salem"},{"name":"Vinyl Destination","lat":"26.13671790","long":"-80.12123740","store_key":92,"city":"Fort Lauderdale"},{"name":"Hard Copies","lat":"37.98452759","long":"-87.49549103","store_key":94,"city":"Evansville"},{"name":"CD Exchange - Evers","lat":"29.48619090","long":"-98.59496150","store_key":96,"city":"San Antonio"},{"name":"Green Apple Books","lat":"37.78304500","long":"-122.46471500","store_key":98,"city":"San Francisco"},{"name":"Sound Attitude","lat":"39.13783880","long":"-121.60779780","store_key":100,"city":"Yuba City"},{"name":"Aurora Antique Pavilion Inc","lat":"47.78032450","long":"-122.34362320","store_key":112,"city":"Edmonds"},{"name":"Pirate Traders","lat":"47.65616800","long":"-117.23787890","store_key":113,"city":"Spokane Valley"},{"name":"Golden Oldies Records Tapes","lat":"47.25544160","long":"-122.48335970","store_key":118,"city":"Tacoma"},{"name":"Digital Gym CINEMA","lat":"32.75497460","long":"-117.13088440","store_key":120,"city":"San Diego"},{"name":"Uncle Aldo's Attic","lat":"33.45208700","long":"-111.70038500","store_key":125,"city":"Mesa"},{"name":"McKay's Winston-Salem","lat":"36.09069370","long":"-80.28128750","store_key":131,"city":"Winston-Salem"},{"name":"Moods Music","lat":"33.76452100","long":"-84.35015860","store_key":132,"city":"Atlanta"},{"name":"Back To The Media - Video Games Records & Movies","lat":"39.18326270","long":"-78.16616280","store_key":137,"city":"Winchester"},{"name":"A Gal Named Cinda Lou","lat":"40.12648120","long":"-82.93145250","store_key":142,"city":"Westerville"},{"name":"FYE","lat":"41.11558070","long":"-85.13883130","store_key":145,"city":"Fort Wayne"},{"name":"FYE","lat":"27.24343770","long":"-80.27519170","store_key":145,"city":"Jensen Beach"},{"name":"FYE","lat":"41.23597930","long":"-73.03553760","store_key":145,"city":"Milford"},{"name":"FYE","lat":"38.35417880","long":"-81.63779170","store_key":145,"city":"Charleston"},{"name":"FYE","lat":"40.72495370","long":"-111.87057670","store_key":145,"city":"Salt Lake City"},{"name":"FYE","lat":"31.78359030","long":"-106.41352740","store_key":145,"city":"El Paso"},{"name":"FYE","lat":"38.95388810","long":"-94.72139050","store_key":145,"city":"Overland Park"},{"name":"FYE","lat":"36.03968690","long":"-79.83855020","store_key":145,"city":"Greensboro"},{"name":"FYE","lat":"42.12903770","long":"-75.97448010","store_key":145,"city":"Johnson City"},{"name":"FYE","lat":"39.15410530","long":"-77.20485060","store_key":145,"city":"Gaithersburg"},{"name":"FYE","lat":"32.49858720","long":"-92.06079480","store_key":145,"city":"Monroe"},{"name":"FYE","lat":"37.98684940","long":"-84.52955720","store_key":145,"city":"Lexington"},{"name":"LongHair Records","lat":"35.09095500","long":"-106.58673890","store_key":158,"city":"Albuquerque"},{"name":"Mothership York","lat":"39.95908030","long":"-76.69565210","store_key":159,"city":"York"},{"name":"Nickelodeon Records","lat":"32.76322300","long":"-117.12213700","store_key":167,"city":"San Diego"},{"name":"Colleen's Collectibles","lat":"40.03227997","long":"-82.97402191","store_key":171,"city":"Columbus"},{"name":"Redscroll Records","lat":"41.45721990","long":"-72.82400280","store_key":172,"city":"Wallingford"},{"name":"Forever Young Records","lat":"32.69499470","long":"-97.06165920","store_key":173,"city":"Grand Prairie"},{"name":"Radio-Active Records","lat":"26.13484840","long":"-80.13788630","store_key":174,"city":"Fort Lauderdale"},{"name":"Exile On Main Street","lat":"44.19784450","long":"-72.50242720","store_key":185,"city":"Barre"},{"name":"Sig's Lagoon Record Shop","lat":"29.73871040","long":"-95.37977600","store_key":188,"city":"Houston"},{"name":"Willimantic Records","lat":"41.71221130","long":"-72.22023410","store_key":189,"city":"Willimantic"},{"name":"Record Runner","lat":"40.73239100","long":"-74.00204100","store_key":203,"city":"New York"},{"name":"Black Dots","lat":"42.92392140","long":"-78.89020950","store_key":216,"city":"Buffalo"},{"name":"Third Eye Records","lat":"33.77157270","long":"-118.16479950","store_key":217,"city":"Long Beach"},{"name":"Bagatelle Records","lat":"33.77030182","long":"-118.18482971","store_key":218,"city":"Long Beach"},{"name":"Magic Bullet Records & Skateboards","lat":"38.30002975","long":"-77.45752716","store_key":222,"city":"Fredericksburg"},{"name":"Shiree Record Shop","lat":"40.71212006","long":"-73.94132233","store_key":223,"city":"New York"},{"name":"Record Dugout Comics","lat":"41.77761130","long":"-87.77362620","store_key":226,"city":"Chicago"},{"name":"Wuxtry Records","lat":"33.79115360","long":"-84.30568870","store_key":227,"city":"Decatur"},{"name":"Holy Cow Records","lat":"47.60862880","long":"-122.34116880","store_key":228,"city":"Seattle"},{"name":"Mad Platter","lat":"33.97622540","long":"-117.33799960","store_key":229,"city":"Riverside"},{"name":"Goner Records","lat":"35.11972809","long":"-89.99042511","store_key":230,"city":"Memphis"},{"name":"Mod Lang","lat":"37.90071830","long":"-122.30141760","store_key":231,"city":"El Cerrito"},{"name":"Play It Again","lat":"35.74379730","long":"-81.56367040","store_key":232,"city":"Valdese"},{"name":"Maynard's Music","lat":"30.41374870","long":"-88.81152250","store_key":234,"city":"Ocean Springs"},{"name":"Breakaway Records","lat":"30.31830978","long":"-97.72444153","store_key":236,"city":"Austin"},{"name":"Fifth Avenue Record Shop","lat":"40.66929700","long":"-73.98602820","store_key":237,"city":"New York"},{"name":"Spin Connection","lat":"31.53001730","long":"-97.16073090","store_key":238,"city":"Waco"},{"name":"Slackers CDs & Games","lat":"38.58592580","long":"-92.25179160","store_key":239,"city":"Jefferson City"},{"name":"Guestroom Records OKC","lat":"35.50799500","long":"-97.53004890","store_key":240,"city":"Oklahoma City"},{"name":"606 Records","lat":"41.85759310","long":"-87.65783200","store_key":257,"city":"Chicago"},{"name":"Thrillhouse Records","lat":"37.74194150","long":"-122.42253480","store_key":261,"city":"San Francisco"},{"name":"Purple Dog Records","lat":"41.77930832","long":"-88.14640808","store_key":266,"city":"Naperville"},{"name":"Wooden Nickel Records","lat":"41.10979350","long":"-85.13642260","store_key":267,"city":"Fort Wayne"},{"name":"The Record Spot","lat":"44.93397900","long":"-93.28467130","store_key":269,"city":"Minneapolis"},{"name":"Folk Arts Rare Records","lat":"32.75564194","long":"-117.12834167","store_key":270,"city":"San Diego"},{"name":"Cheapo Records","lat":"44.94359110","long":"-93.16743480","store_key":271,"city":"Saint Paul"},{"name":"End of An Ear","lat":"30.22903870","long":"-97.78433750","store_key":272,"city":"Austin"},{"name":"Rock and Soul DJ Equipment and Records","lat":"40.75055850","long":"-73.98404610","store_key":274,"city":"New York"},{"name":"Cosmic Vinyl","lat":"34.07770920","long":"-118.26498413","store_key":277,"city":"Los Angeles"},{"name":"Discolandia Records","lat":"39.93590490","long":"-75.15867300","store_key":303,"city":"Philadelphia"},{"name":"Daybreak Records","lat":"47.65964380","long":"-122.34979770","store_key":307,"city":"Seattle"},{"name":"Sisters Of Sound Music","lat":"39.18616910","long":"-96.57553560","store_key":316,"city":"Manhattan"},{"name":"Skippy White's Records","lat":"42.31530580","long":"-71.09816420","store_key":322,"city":"Boston"},{"name":"Cheapo Records","lat":"42.36422660","long":"-71.10229920","store_key":271,"city":"Boston"},{"name":"Grooves","lat":"37.77141190","long":"-122.42352295","store_key":327,"city":"San Francisco"},{"name":"Warbler Records & Goods","lat":"34.42179800","long":"-119.69759850","store_key":328,"city":"Santa Barbara"},{"name":"Golden Oldies Records","lat":"47.66119270","long":"-122.32707590","store_key":335,"city":"Seattle"},{"name":"Music Coop","lat":"42.19533960","long":"-122.71192340","store_key":338,"city":"Ashland"},{"name":"Westsider Rare & Used Books","lat":"40.78465390","long":"-73.97896430","store_key":347,"city":"New York"},{"name":"Voltage Records","lat":"35.59787850","long":"-82.55360970","store_key":348,"city":"Asheville"},{"name":"Hold Fast","lat":"40.21614110","long":"-74.01104030","store_key":351,"city":"Asbury Park"},{"name":"Groovy Records","lat":"29.03037800","long":"-81.30365400","store_key":358,"city":"DeLand"},{"name":"Underground Sounds","lat":"42.27963450","long":"-83.74638620","store_key":364,"city":"Ann Arbor"},{"name":"Hitt Records","lat":"38.95071793","long":"-92.32521057","store_key":366,"city":"Columbia"},{"name":"Antone's Record Shop","lat":"30.29613720","long":"-97.74256090","store_key":368,"city":"Austin"},{"name":"All That Music","lat":"31.77635070","long":"-106.38944970","store_key":369,"city":"El Paso"},{"name":"Skinnies Records","lat":"36.86949860","long":"-76.29090840","store_key":370,"city":"Norfolk"},{"name":"Dr. Records","lat":"44.79975050","long":"-68.79349910","store_key":381,"city":"Bangor"},{"name":"Josey Records","lat":"32.91118110","long":"-96.88467960","store_key":389,"city":"Farmers Branch"},{"name":"Turntable Treasures","lat":"47.25576500","long":"-122.46926610","store_key":396,"city":"Tacoma"},{"name":"Hippie Hut Guitars & Things","lat":"39.99004364","long":"-83.00624847","store_key":398,"city":"Columbus"},{"name":"Earshot Music","lat":"36.07017670","long":"-80.29519310","store_key":426,"city":"Winston-Salem"},{"name":"Melusina Records","lat":"41.23436560","long":"-80.43614890","store_key":428,"city":"Hermitage"},{"name":"Chuck's R.I.P. Records","lat":"39.74730830","long":"-77.59014780","store_key":430,"city":"Waynesboro"},{"name":"Half Price Books","lat":"33.00281430","long":"-96.98145100","store_key":432,"city":"Lewisville"},{"name":"Lincoln Vintage Vinyl","lat":"40.82180900","long":"-96.62392990","store_key":440,"city":"Lincoln"},{"name":"Scituate Music Center","lat":"42.19550770","long":"-70.72505720","store_key":442,"city":"Scituate"},{"name":"American Hardware Center","lat":"33.70456590","long":"-84.11456910","store_key":445,"city":"Lithonia"},{"name":"Bob's Records","lat":"34.11326940","long":"-117.58204040","store_key":448,"city":"Rancho Cucamonga"},{"name":"Vault Vintage","lat":"41.73143690","long":"-71.20441070","store_key":452,"city":"Swansea"},{"name":"Paradise Ridge C D's & Tapes","lat":"46.73219900","long":"-117.00045920","store_key":462,"city":"Moscow"},{"name":"Sister Anne's","lat":"39.07042160","long":"-94.57374730","store_key":464,"city":"Kansas City"},{"name":"FYE","lat":"41.54958110","long":"-73.02578930","store_key":145,"city":"Waterbury"},{"name":"FYE","lat":"41.22964910","long":"-73.22649220","store_key":145,"city":"Trumbull"},{"name":"FYE","lat":"40.82542630","long":"-76.84819670","store_key":145,"city":"Selinsgrove"},{"name":"FYE","lat":"35.19762780","long":"-106.65657460","store_key":145,"city":"Albuquerque"},{"name":"FYE","lat":"40.77686930","long":"-74.35384870","store_key":145,"city":"Livingston"},{"name":"FYE","lat":"38.14205170","long":"-85.67205390","store_key":145,"city":"Louisville"},{"name":"Hawthorne Game Exchange","lat":"45.51235810","long":"-122.62670240","store_key":471,"city":"Portland"},{"name":"Talisman Records","lat":"39.32648560","long":"-77.74374650","store_key":472,"city":"Harpers Ferry"},{"name":"Half Off Books Records Films","lat":"33.87249930","long":"-117.92552570","store_key":487,"city":"Fullerton"},{"name":"The Record Lounge","lat":"42.72218300","long":"-84.55212110","store_key":506,"city":"Lansing"},{"name":"2nd & Charles","lat":"32.53023540","long":"-93.70558700","store_key":507,"city":"Bossier City"},{"name":"Bionic Records","lat":"33.81567340","long":"-118.02764670","store_key":510,"city":"Buena Park"},{"name":"Boulevard Record Shop","lat":"36.13203830","long":"-86.79519560","store_key":511,"city":"Nashville"},{"name":"Book Nook","lat":"33.89803696","long":"-84.13687897","store_key":512,"city":"Lilburn"},{"name":"Off The Record","lat":"43.06087290","long":"-86.21500720","store_key":513,"city":"Grand Haven"},{"name":"Embassy Vinyl","lat":"41.40927840","long":"-75.65972300","store_key":514,"city":"Scranton"},{"name":"Haddonfield Record Exchange","lat":"39.90328630","long":"-75.03956110","store_key":515,"city":"Haddonfield"},{"name":"Groovers Paradise","lat":"30.40589860","long":"-97.87395160","store_key":516,"city":"Austin"},{"name":"Iko's Music Trade","lat":"39.97293900","long":"-76.68099700","store_key":517,"city":"York"},{"name":"Light In The Attic Record Shop","lat":"47.62274980","long":"-122.35497600","store_key":518,"city":"Seattle"},{"name":"Virginia's Memory Lane Records","lat":"37.63032450","long":"-77.50284830","store_key":519,"city":"Richmond"},{"name":"Power Plant Records","lat":"33.43617249","long":"-117.62081909","store_key":520,"city":"San Clemente"},{"name":"PLUTOS","lat":"40.56311090","long":"-122.36326190","store_key":521,"city":"Redding"},{"name":"Roots Music Shop","lat":"40.81563900","long":"-96.69441400","store_key":522,"city":"Lincoln"},{"name":"Rich's Record and Audio","lat":"38.66982470","long":"-89.98735350","store_key":523,"city":"Collinsville"},{"name":"Round Midnight Records","lat":"42.99778120","long":"-84.18278190","store_key":524,"city":"Owosso"},{"name":"Stray Vintage","lat":"40.74645233","long":"-73.91572571","store_key":525,"city":"New York"},{"name":"The Exchange","lat":"41.50926800","long":"-81.58017000","store_key":32,"city":"Cleveland"},{"name":"Uncle Tony's Donut Shoppe","lat":"28.55332184","long":"-81.37905884","store_key":532,"city":"Orlando"},{"name":"Analog Vault","lat":"41.97066800","long":"-91.65941480","store_key":550,"city":"Cedar Rapids"},{"name":"Vinyl Tap","lat":"36.18852250","long":"-86.72949570","store_key":551,"city":"Nashville"},{"name":"Stranded SF","lat":"37.75609970","long":"-122.42084503","store_key":552,"city":"San Francisco"},{"name":"MoJo's Records","lat":"36.40439100","long":"-93.73767700","store_key":553,"city":"Eureka Springs"},{"name":"Vista Music","lat":"34.11975590","long":"-116.42312830","store_key":559,"city":"Yucca Valley"},{"name":"Kitsap Audio Video","lat":"47.65482490","long":"-122.68837850","store_key":562,"city":"Silverdale"},{"name":"Deep Grooves Record Co.","lat":"42.12644390","long":"-70.91450820","store_key":569,"city":"Rockland"},{"name":"3hive Record Lounge","lat":"40.24013230","long":"-111.65754850","store_key":571,"city":"Provo"},{"name":"David’s Record Shop","lat":"29.99755580","long":"-95.26168980","store_key":572,"city":"Humble"},{"name":"Etiquette","lat":"40.71074680","long":"-73.96627170","store_key":573,"city":"New York"},{"name":"A Separate Reality Records","lat":"41.48255900","long":"-81.76575600","store_key":576,"city":"Cleveland"},{"name":"Space Monkey Records","lat":"37.95151930","long":"-87.54339890","store_key":577,"city":"Evansville"},{"name":"Modern Vintage Vinyl","lat":"38.42202210","long":"-81.84103760","store_key":588,"city":"Nitro"},{"name":"Nuggets","lat":"42.34857178","long":"-71.09447479","store_key":590,"city":"Boston"},{"name":"Extreme Noise","lat":"44.94824720","long":"-93.28461620","store_key":597,"city":"Minneapolis"},{"name":"Bill's Records","lat":"32.76808330","long":"-96.79649620","store_key":598,"city":"Dallas"},{"name":"Records & Tapes Galore","lat":"43.42231690","long":"-83.97114790","store_key":599,"city":"Saginaw"},{"name":"Sonic Boom Records","lat":"47.66849300","long":"-122.38514070","store_key":600,"city":"Seattle"},{"name":"Gramaphone Records","lat":"41.93397190","long":"-87.64567400","store_key":601,"city":"Chicago"},{"name":"Original Records","lat":"40.69224690","long":"-73.76575130","store_key":617,"city":"New York"},{"name":"2nd & Charles","lat":"33.38287230","long":"-86.80479270","store_key":507,"city":"Birmingham"},{"name":"Record Graveyard","lat":"42.40530490","long":"-83.06640190","store_key":621,"city":"Detroit"},{"name":"Tracks In Wax","lat":"33.50706570","long":"-112.07337530","store_key":622,"city":"Phoenix"},{"name":"Dave's Records","lat":"41.92982020","long":"-87.64336140","store_key":624,"city":"Chicago"},{"name":"Central Square Records","lat":"30.32045746","long":"-86.13701630","store_key":630,"city":"Santa Rosa Beach"},{"name":"Nob Hill Music","lat":"35.08011800","long":"-106.60612400","store_key":632,"city":"Albuquerque"},{"name":"Groovin High Inc","lat":"41.93973541","long":"-87.65594482","store_key":634,"city":"Chicago"},{"name":"Headline Records","lat":"34.08355331","long":"-118.35772705","store_key":635,"city":"Los Angeles"},{"name":"Bric-a-Brac Records & Collectibles","lat":"41.93213760","long":"-87.70724320","store_key":637,"city":"Chicago"},{"name":"Rhino Records","lat":"34.09634220","long":"-117.71807490","store_key":639,"city":"Claremont"},{"name":"Cat Head Delta Blues & Folk Art","lat":"34.20172800","long":"-90.57433200","store_key":643,"city":"Clarksdale"},{"name":"Soundwaves","lat":"29.74102630","long":"-95.39105120","store_key":644,"city":"Houston"},{"name":"Wuxtry Records","lat":"33.95866520","long":"-83.37593730","store_key":227,"city":"Athens"},{"name":"Guestroom Records Norman","lat":"35.22165880","long":"-97.44238670","store_key":646,"city":"Norman"},{"name":"MAKE Collectives","lat":"33.76793720","long":"-118.18683830","store_key":647,"city":"Long Beach"},{"name":"The Business","lat":"48.52012830","long":"-122.61283010","store_key":649,"city":"Anacortes"},{"name":"Admiral Analog's Audio Assortment","lat":"39.43146090","long":"-77.80717570","store_key":650,"city":"Shepherdstown"},{"name":"North Street Records","lat":"40.50937271","long":"-88.98537445","store_key":652,"city":"Normal"},{"name":"Mother Murphy's","lat":"40.50926700","long":"-88.98512600","store_key":653,"city":"Normal"},{"name":"Records & Thing Strange","lat":"30.75673320","long":"-98.67451030","store_key":655,"city":"Llano"},{"name":"Sonic Rainbow Compact Discs","lat":"42.84927030","long":"-106.32534160","store_key":656,"city":"Casper"},{"name":"Pueblo Records & Tapes","lat":"38.24609340","long":"-104.66266130","store_key":657,"city":"Pueblo"},{"name":"Oddball Media","lat":"36.62316240","long":"-87.31757570","store_key":658,"city":"Clarksville"},{"name":"Phoenix Books & Music","lat":"41.13322530","long":"-104.81589670","store_key":685,"city":"Cheyenne"},{"name":"Darkside Records","lat":"41.69640480","long":"-73.89199760","store_key":688,"city":"Poughkeepsie"},{"name":"Ranch Records Bend","lat":"44.05913660","long":"-121.31277430","store_key":691,"city":"Bend"},{"name":"Groovy Records","lat":"46.20411301","long":"-119.11654663","store_key":358,"city":"Kennewick"},{"name":"Caveman Vintage Music","lat":"34.06625880","long":"-118.20653790","store_key":694,"city":"Los Angeles"},{"name":"Appleton Imports","lat":"44.26203880","long":"-88.41407540","store_key":698,"city":"Appleton"},{"name":"Easton Record Exchange","lat":"40.69148620","long":"-75.20902690","store_key":728,"city":"Easton"},{"name":"Uff Da Records","lat":"45.55168152","long":"-94.19730377","store_key":729,"city":"St. Cloud"},{"name":"7B Grooves","lat":"48.27646255","long":"-116.55387878","store_key":732,"city":"Sandpoint"},{"name":"Pulp Reality","lat":"39.71653370","long":"-82.60431450","store_key":735,"city":"Lancaster"},{"name":"Vintage Vinyl by \"Yesterday's Fish\"","lat":"38.73959732","long":"-75.14739990","store_key":736,"city":"Lewes"},{"name":"Trax Records","lat":"34.53876495","long":"-112.47040558","store_key":737,"city":"Prescott"},{"name":"Symposium Records","lat":"41.82277380","long":"-71.41253790","store_key":740,"city":"Providence"},{"name":"Infinity Records","lat":"40.67657089","long":"-73.45670319","store_key":743,"city":"Massapequa Park"},{"name":"14 Records + Cassette Museum","lat":"32.82752490","long":"-96.70912020","store_key":745,"city":"Dallas"},{"name":"PD's Records","lat":"36.54604950","long":"-82.56168490","store_key":747,"city":"Kingsport"},{"name":"Turntable City","lat":"33.98322910","long":"-81.23876050","store_key":749,"city":"Lexington"},{"name":"Fool's Gold Records","lat":"40.71492980","long":"-73.96197040","store_key":753,"city":"New York"},{"name":"Galactic Greg's","lat":"41.46811800","long":"-87.04353280","store_key":756,"city":"Valparaiso"},{"name":"Moondog Music","lat":"42.49301460","long":"-90.71992500","store_key":760,"city":"Dubuque"},{"name":"Grimm Bebop","lat":"44.93424740","long":"-93.24699040","store_key":761,"city":"Minneapolis"},{"name":"Coastal Empire Records","lat":"32.01893480","long":"-80.97488610","store_key":762,"city":"Savannah"},{"name":"Vinyl Destination Records","lat":"46.49003520","long":"-87.66638490","store_key":763,"city":"Ishpeming"},{"name":"Syracuse Vintage Vinyl","lat":"43.06392910","long":"-76.07325250","store_key":773,"city":"Syracuse"},{"name":"FYE","lat":"40.22194410","long":"-85.37546400","store_key":145,"city":"Muncie"},{"name":"FYE","lat":"39.14301720","long":"-121.63264350","store_key":145,"city":"Yuba City"},{"name":"FYE","lat":"40.22323790","long":"-76.93178520","store_key":145,"city":"Camp Hill"},{"name":"FYE","lat":"40.63084990","long":"-75.48018340","store_key":145,"city":"Allentown"},{"name":"FYE","lat":"36.06749210","long":"-80.30142580","store_key":145,"city":"Winston-Salem"},{"name":"FYE","lat":"41.96716240","long":"-73.98379620","store_key":145,"city":"Kingston"},{"name":"FYE","lat":"40.86555720","long":"-73.13054210","store_key":145,"city":"Lake Grove"},{"name":"FYE","lat":"40.42365430","long":"-74.38295250","store_key":145,"city":"East Brunswick"},{"name":"FYE","lat":"43.09708160","long":"-70.80567340","store_key":145,"city":"Newington"},{"name":"Tradepost Entertainment","lat":"41.11907690","long":"-95.92413060","store_key":776,"city":"Omaha"},{"name":"Trader Shag's Music Emporium","lat":"43.21490100","long":"-77.93909600","store_key":777,"city":"Brockport"},{"name":"HiFi Records","lat":"36.06982890","long":"-79.40003020","store_key":780,"city":"Graham"},{"name":"El Guapo Records","lat":"32.29184430","long":"-95.30541090","store_key":784,"city":"Tyler"},{"name":"Old City Market and Oven","lat":"38.90282600","long":"-76.99863600","store_key":795,"city":"Washington"},{"name":"Retro City Collectibles","lat":"25.74974160","long":"-80.26028160","store_key":804,"city":"Miami"},{"name":"Revolution Records","lat":"39.09059740","long":"-94.57817940","store_key":671,"city":"Kansas City"},{"name":"Cheap Thrills Records","lat":"37.77133500","long":"-81.19583700","store_key":818,"city":"Beckley"},{"name":"Tracks Music & Videos","lat":"39.16666500","long":"-86.52912660","store_key":819,"city":"Bloomington"},{"name":"Newbury Comics","lat":"42.37264610","long":"-71.11980020","store_key":820,"city":"Boston"},{"name":"Porchlight Coffee & Records","lat":"47.61466100","long":"-122.31438590","store_key":821,"city":"Seattle"},{"name":"Double Nickles Collective","lat":"33.39271230","long":"-111.94124540","store_key":822,"city":"Tempe"},{"name":"CD Warehouse","lat":"36.30343050","long":"-86.68946450","store_key":23,"city":"Nashville"},{"name":"In the Moment Records","lat":"42.85305300","long":"-72.55813500","store_key":823,"city":"Brattleboro"},{"name":"Jelly's Discs","lat":"42.26538467","long":"-71.81917572","store_key":824,"city":"Worcester"},{"name":"Lefty's Records","lat":"40.79195970","long":"-96.68067720","store_key":825,"city":"Lincoln"},{"name":"Mr K's Used Books, Music and More","lat":"32.86823690","long":"-80.01718310","store_key":826,"city":"North Charleston"},{"name":"Rock N' Rags","lat":"42.18561520","long":"-87.79813110","store_key":827,"city":"Highland Park"},{"name":"Rustic Music","lat":"39.94665390","long":"-75.15759150","store_key":828,"city":"Philadelphia"},{"name":"Satellite Records","lat":"42.28383780","long":"-85.58971780","store_key":829,"city":"Kalamazoo"},{"name":"Vintage Freak","lat":"32.83794280","long":"-97.15987690","store_key":830,"city":"Bedford"},{"name":"Vinyl Rescue Project LLC","lat":"39.62116820","long":"-86.15970300","store_key":832,"city":"Greenwood"},{"name":"Wax Moon","lat":"37.56550480","long":"-77.47157180","store_key":833,"city":"Richmond"},{"name":"Movie Trading Company","lat":"32.82249890","long":"-97.20150420","store_key":844,"city":"Hurst"},{"name":"DeadRockers","lat":"33.77184060","long":"-118.17919350","store_key":849,"city":"Long Beach"},{"name":"The Archive","lat":"41.18253450","long":"-73.19007390","store_key":850,"city":"Bridgeport"},{"name":"Bandcamp Record Store and Performance Space","lat":"37.80798100","long":"-122.26914670","store_key":856,"city":"Oakland"},{"name":"Records & Relics RVA","lat":"37.53124740","long":"-77.41558010","store_key":858,"city":"Richmond"},{"name":"Weasel Land Records","lat":"42.59812500","long":"-76.17473300","store_key":859,"city":"Cortland"},{"name":"Stay Pressed Records","lat":"42.46093680","long":"-83.13525180","store_key":861,"city":"Detroit"},{"name":"Rabbit Hole Records Greensburg","lat":"40.30379840","long":"-79.54470040","store_key":864,"city":"Greensburg"},{"name":"Graffiti Records","lat":"41.58709100","long":"-109.22164200","store_key":865,"city":"Rock Springs"},{"name":"Vinyl Cave","lat":"46.72080710","long":"-92.10365980","store_key":866,"city":"Superior"},{"name":"We Are Hear Vinyl","lat":"34.14283470","long":"-118.39957890","store_key":869,"city":"Los Angeles"},{"name":"Hex Enduction Records & Books","lat":"47.71832090","long":"-122.29547170","store_key":873,"city":"Seattle"},{"name":"Sonidos Music & More","lat":"39.03346320","long":"-76.90677300","store_key":876,"city":"Beltsville"},{"name":"Maiden Wax","lat":"35.29241200","long":"-81.53980100","store_key":877,"city":"Shelby"},{"name":"Kevin's Records","lat":"38.24094600","long":"-85.73645300","store_key":882,"city":"Louisville"},{"name":"Vinyl & Vintage","lat":"41.89289110","long":"-88.47210320","store_key":883,"city":"Elburn"},{"name":"Everybody's Records","lat":"39.18216500","long":"-84.42682600","store_key":892,"city":"Cincinnati"},{"name":"Stranded Records NYC","lat":"40.72720900","long":"-73.99039000","store_key":896,"city":"New York"},{"name":"Amoeba Music","lat":"37.86590880","long":"-122.25840440","store_key":901,"city":"Berkeley"},{"name":"Streetlight Records","lat":"36.97077580","long":"-122.02540010","store_key":902,"city":"Santa Cruz"},{"name":"A1 Record Shop","lat":"40.72586441","long":"-73.98439026","store_key":904,"city":"New York"},{"name":"Music Millennium","lat":"45.52271670","long":"-122.63194440","store_key":906,"city":"Portland"},{"name":"FYE","lat":"42.06871120","long":"-80.09711230","store_key":145,"city":"Erie"},{"name":"Low - Vintage Clothing, Records & Antiques","lat":"38.02961500","long":"-78.47871000","store_key":908,"city":"Charlottesville"},{"name":"Toadstool Sounds","lat":"42.87634240","long":"-71.94920150","store_key":909,"city":"Peterborough"},{"name":"Record Surplus","lat":"34.03853710","long":"-118.46733770","store_key":910,"city":"Los Angeles"},{"name":"CD Central","lat":"38.04206320","long":"-84.50351660","store_key":913,"city":"Lexington"},{"name":"Instant Karma Records","lat":"41.78636551","long":"-69.99288940","store_key":918,"city":"Orleans"},{"name":"Exiled Records","lat":"45.51178741","long":"-122.61456299","store_key":933,"city":"Portland"},{"name":"Gravity Records","lat":"34.22829100","long":"-77.94027190","store_key":934,"city":"Wilmington"},{"name":"Mushroom","lat":"29.94115340","long":"-90.12360120","store_key":937,"city":"New Orleans"},{"name":"Preserved Instincts","lat":"42.41002950","long":"-74.15243160","store_key":938,"city":"Oak Hill"},{"name":"Recorded Memories","lat":"47.67495290","long":"-117.39625900","store_key":939,"city":"Spokane"},{"name":"Wingo's Wecords @ RS Butler's Trading Co.","lat":"43.19187500","long":"-71.14575970","store_key":951,"city":"Northwood"},{"name":"Bob Richerson's Warehouse","lat":"29.61346817","long":"-95.55603027","store_key":953,"city":"Stafford"},{"name":"Disco Tech","lat":"34.98628616","long":"-90.01880646","store_key":954,"city":"Southaven"},{"name":"The Record Exchange","lat":"39.41643660","long":"-77.41078640","store_key":956,"city":"Frederick"},{"name":"Meteor Music","lat":"40.44990230","long":"-122.29927470","store_key":957,"city":"Anderson"},{"name":"Try Tone Classical Records","lat":"32.95205680","long":"-96.89862250","store_key":958,"city":"Carrollton"},{"name":"Mc Whorter Greenhaw Music","lat":"32.76672590","long":"-96.60139840","store_key":959,"city":"Mesquite"},{"name":"Old Paint Records","lat":"32.22432720","long":"-110.97408990","store_key":966,"city":"Tucson"},{"name":"The Book Trader","lat":"39.95022964","long":"-75.14345551","store_key":968,"city":"Philadelphia"},{"name":"Exile on Main Street","lat":"40.11697110","long":"-88.24056740","store_key":976,"city":"Champaign"},{"name":"Agharta Records","lat":"44.96507040","long":"-93.20119360","store_key":979,"city":"Saint Paul"},{"name":"Brewerytown Beats","lat":"39.97404110","long":"-75.18092430","store_key":985,"city":"Philadelphia"},{"name":"Sub Pop","lat":"47.44400440","long":"-122.30275010","store_key":1006,"city":"SeaTac"},{"name":"Rotten Island Records","lat":"40.69838250","long":"-73.93356720","store_key":1008,"city":"New York"},{"name":"Bookcellar","lat":"44.35757820","long":"-89.08506840","store_key":1011,"city":"Waupaca"},{"name":"Timewarp Records","lat":"34.00462500","long":"-118.43132470","store_key":1012,"city":"Los Angeles"},{"name":"Main Street Vinyl","lat":"39.40356590","long":"-84.56883120","store_key":1016,"city":"Hamilton"},{"name":"Acoustic Sounds, Inc.","lat":"38.84866100","long":"-97.61503800","store_key":1017,"city":"Salina"},{"name":"Karma Clothing & Accessories","lat":"30.40960900","long":"-86.87183120","store_key":1019,"city":"Navarre"},{"name":"McKay's Knoxville","lat":"35.93510200","long":"-84.01117070","store_key":1028,"city":"Knoxville"},{"name":"Retroactive Records And Games","lat":"38.23764190","long":"-122.04070670","store_key":1031,"city":"Suisun City"},{"name":"Cherry Records","lat":"38.89912550","long":"-121.07002060","store_key":1035,"city":"Auburn"},{"name":"Biscuits & Vinyl","lat":"42.24475650","long":"-122.78673650","store_key":1036,"city":"Talent"},{"name":"Gary's Record Paradise","lat":"33.10722350","long":"-117.07541790","store_key":1039,"city":"Escondido"},{"name":"Country Feedback","lat":"35.89796470","long":"-77.53535120","store_key":1040,"city":"Tarboro"},{"name":"Extended Play","lat":"38.71578770","long":"-75.08208700","store_key":1044,"city":"Rehoboth Beach"},{"name":"Ken's Groovy Tunes","lat":"33.42960610","long":"-94.03738770","store_key":1052,"city":"Texarkana"},{"name":"Record Shop","lat":"40.67774000","long":"-74.01274130","store_key":1054,"city":"New York"},{"name":"Dothan Nurseries Greenhouse, Gardens, Gifts, & Vinyl","lat":"31.23949260","long":"-85.40197170","store_key":1060,"city":"Dothan"},{"name":"Dudley's Records Vintage Vinyl","lat":"33.83922870","long":"-118.36289730","store_key":1061,"city":"Los Angeles"},{"name":"FYE","lat":"33.98130500","long":"-84.07820590","store_key":145,"city":"Lawrenceville"},{"name":"FYE","lat":"29.19704220","long":"-81.06356620","store_key":145,"city":"Daytona Beach"},{"name":"FYE","lat":"37.96710600","long":"-122.06091640","store_key":145,"city":"Concord"},{"name":"FYE","lat":"35.33994510","long":"-119.05490710","store_key":145,"city":"Bakersfield"},{"name":"FYE","lat":"37.36512640","long":"-79.17830590","store_key":145,"city":"Lynchburg"},{"name":"FYE","lat":"40.06783120","long":"-76.34092630","store_key":145,"city":"Lancaster"},{"name":"FYE","lat":"40.18339800","long":"-74.88094570","store_key":145,"city":"Langhorne"},{"name":"FYE LIMA MALL","lat":"40.76470420","long":"-84.14926870","store_key":1063,"city":"Lima"},{"name":"FYE","lat":"42.80805330","long":"-73.98916540","store_key":145,"city":"Schenectady"},{"name":"FYE","lat":"39.62733690","long":"-78.83469340","store_key":145,"city":"Cumberland"},{"name":"720° Records","lat":"40.46722370","long":"-79.96383720","store_key":1071,"city":"Pittsburgh"},{"name":"Windy City Music","lat":"41.88298800","long":"-87.97886900","store_key":1076,"city":"Chicago"},{"name":"Hi-Tones Record Store","lat":"38.74921900","long":"-121.28404700","store_key":1082,"city":"Roseville"},{"name":"Santa Ana Spin @ BBME","lat":"33.74869450","long":"-117.86946870","store_key":1083,"city":"Santa Ana"},{"name":"Cheap Thrills Records","lat":"37.36322800","long":"-81.09576510","store_key":818,"city":"Princeton"},{"name":"Newbury Comics","lat":"43.63325670","long":"-70.33640770","store_key":820,"city":"South Portland"},{"name":"2nd & Charles","lat":"38.65270670","long":"-77.29987280","store_key":507,"city":"Woodbridge"},{"name":"Apollo Records","lat":"39.33559990","long":"-82.98337750","store_key":1098,"city":"Chillicothe"},{"name":"Basement Records","lat":"35.92762890","long":"-83.89448740","store_key":1099,"city":"Knoxville"},{"name":"Bach & Rock","lat":"46.18934700","long":"-123.82561100","store_key":1100,"city":"Astoria"},{"name":"Crosstown Vinyl","lat":"43.54478920","long":"-96.73833390","store_key":1101,"city":"Sioux Falls"},{"name":"Dimple Records | Folsom","lat":"38.67330551","long":"-121.16884613","store_key":1102,"city":"Folsom"},{"name":"Grantski Records","lat":"33.47001000","long":"-82.01189200","store_key":1103,"city":"Augusta"},{"name":"House of Soul","lat":"37.74151500","long":"-122.15050100","store_key":1104,"city":"Oakland"},{"name":"Looney Tunes II","lat":"41.43952740","long":"-71.48758970","store_key":1105,"city":"South Kingstown"},{"name":"Midwest Musician's CO-OP","lat":"41.70262909","long":"-85.99224854","store_key":1106,"city":"Elkhart"},{"name":"The Record Room","lat":"33.56704530","long":"-112.11525400","store_key":1107,"city":"Phoenix"},{"name":"Record Connection","lat":"40.20267487","long":"-76.15881348","store_key":1108,"city":"Ephrata"},{"name":"Rockin Rudy's Record Heaven","lat":"46.86341650","long":"-113.99783690","store_key":1109,"city":"Missoula"},{"name":"Rumor Has It","lat":"41.82964880","long":"-86.25664490","store_key":1110,"city":"Niles"},{"name":"The Exchange","lat":"41.39025700","long":"-81.76127700","store_key":32,"city":"Parma Heights"},{"name":"The Exchange","lat":"41.40906710","long":"-82.66363990","store_key":32,"city":"Sandusky"},{"name":"The Rock Shop","lat":"39.45378950","long":"-74.64472100","store_key":1111,"city":"Hamilton Township"},{"name":"Vinyl Street Cafe","lat":"41.14075280","long":"-73.26489170","store_key":1113,"city":"Fairfield"},{"name":"VGMX","lat":"40.10482350","long":"-82.97635020","store_key":1140,"city":"Columbus"},{"name":"Control Records","lat":"34.75748290","long":"-92.32250390","store_key":1147,"city":"Little Rock"},{"name":"Discovery Records","lat":"37.30224942","long":"-89.54996768","store_key":1160,"city":"Cape Girardeau"},{"name":"The Exchange","lat":"41.45746450","long":"-81.68931920","store_key":32,"city":"Cleveland"},{"name":"Reckless Records","lat":"41.88222360","long":"-87.62668170","store_key":1171,"city":"Chicago"},{"name":"Vintage Vinyl","lat":"38.65585350","long":"-90.30583630","store_key":1178,"city":"St. Louis"},{"name":"Turn It Up","lat":"42.31931990","long":"-72.62968050","store_key":1179,"city":"Northampton"},{"name":"Turn It Up!","lat":"42.53789650","long":"-72.53730170","store_key":1180,"city":"Montague"},{"name":"River Street Beat Shop","lat":"42.73073196","long":"-73.69387817","store_key":1186,"city":"Troy"},{"name":"Half Price Books","lat":"29.74413530","long":"-95.39236750","store_key":432,"city":"Houston"},{"name":"Record & Tape Exchange","lat":"38.84259480","long":"-77.27016960","store_key":1210,"city":"Fairfax"},{"name":"Soundsations","lat":"33.95833588","long":"-118.39342499","store_key":1211,"city":"Los Angeles"},{"name":"Mad World Records","lat":"33.21438599","long":"-97.13322449","store_key":1212,"city":"Denton"},{"name":"Record Grouch","lat":"40.73279953","long":"-73.95446014","store_key":1213,"city":"New York"},{"name":"Vintage Vinyl Records","lat":"40.54783630","long":"-74.32294464","store_key":1215,"city":"Woodbridge Township"},{"name":"Steve's Downtown Music","lat":"29.02770800","long":"-81.30366900","store_key":1218,"city":"DeLand"},{"name":"Mill Valley Music","lat":"37.89877701","long":"-122.53892517","store_key":1219,"city":"Mill Valley"},{"name":"Rough Trade NYC","lat":"40.72079730","long":"-73.95995210","store_key":1221,"city":"New York"},{"name":"Scott's Record Shop & Carpet","lat":"33.39919281","long":"-91.03587341","store_key":1222,"city":"Greenville"},{"name":"Down In The Valley","lat":"44.98513412","long":"-93.38275146","store_key":1224,"city":"Minneapolis"},{"name":"Down In the Valley","lat":"45.05436590","long":"-93.36345570","store_key":1225,"city":"Minneapolis"},{"name":"Kingfish Records","lat":"28.00877160","long":"-82.73175040","store_key":1241,"city":"Clearwater"},{"name":"Down In The Valley","lat":"45.10237503","long":"-93.45438385","store_key":1224,"city":"Maple Grove"},{"name":"Silver Platters Lynnwood","lat":"47.82287430","long":"-122.28366520","store_key":1262,"city":"Lynnwood"},{"name":"Skele-Tone Records","lat":"43.30446900","long":"-70.97754900","store_key":1264,"city":"Rochester"},{"name":"Guy in the Groove","lat":"35.68271320","long":"-105.94517940","store_key":1265,"city":"Santa Fe"},{"name":"Little Big Store","lat":"32.25870750","long":"-90.42187930","store_key":1266,"city":"Raymond"},{"name":"Appleton Records","lat":"44.00241040","long":"-88.58395780","store_key":1271,"city":"Oshkosh"},{"name":"The Vinyl Frontier","lat":"33.57999000","long":"-85.07603200","store_key":1248,"city":"Carrollton"},{"name":"Rocket Records West Sac","lat":"38.57993230","long":"-121.52709910","store_key":1294,"city":"West Sacramento"},{"name":"Jive Time Clearance Annex","lat":"47.65021896","long":"-122.35010529","store_key":1299,"city":"Seattle"},{"name":"CD Exchange","lat":"42.81240570","long":"-86.08950490","store_key":1302,"city":"Holland"},{"name":"Half Price Books","lat":"32.81161510","long":"-96.62297490","store_key":432,"city":"Mesquite"},{"name":"Half Price Books","lat":"32.94846400","long":"-96.73780590","store_key":432,"city":"Dallas"},{"name":"The Artform Studio","lat":"34.10927963","long":"-118.19384766","store_key":1304,"city":"Los Angeles"},{"name":"Music To My Ear","lat":"40.51423570","long":"-80.00713830","store_key":1309,"city":"Pittsburgh"},{"name":"Imagine Peace Records","lat":"40.27795029","long":"-111.68699646","store_key":1312,"city":"Orem"},{"name":"Fidelis Home Audio","lat":"42.78937100","long":"-71.51917040","store_key":1313,"city":"Nashua"},{"name":"Full Contact Rock N Roll","lat":"32.74753800","long":"-117.13257220","store_key":1323,"city":"San Diego"},{"name":"Retro Music Co.","lat":"30.47758100","long":"-90.09461020","store_key":1324,"city":"Covington"},{"name":"vinyl index.","lat":"42.38122000","long":"-71.09805490","store_key":1328,"city":"Boston"},{"name":"Joe's Treasure Trove","lat":"39.59602640","long":"-105.10578840","store_key":1332,"city":"Littleton"},{"name":"Moira Records At Lazarus Juice Bar","lat":"40.03910490","long":"-76.30850850","store_key":1340,"city":"Lancaster"},{"name":"Final Form","lat":"45.59042100","long":"-122.75580500","store_key":1341,"city":"Portland"},{"name":"Good Vibrations","lat":"43.22095090","long":"-123.34479300","store_key":1342,"city":"Roseburg"},{"name":"FYE","lat":"41.55072730","long":"-72.80644310","store_key":145,"city":"Meriden"},{"name":"FYE","lat":"40.46946210","long":"-78.41244600","store_key":145,"city":"Altoona"},{"name":"FYE","lat":"42.16030180","long":"-76.87361240","store_key":145,"city":"Horseheads"},{"name":"FYE","lat":"44.74376330","long":"-93.29039720","store_key":145,"city":"Burnsville"},{"name":"FYE","lat":"38.48361840","long":"-82.65337890","store_key":145,"city":"Ashland"},{"name":"General Store Co-op","lat":"32.87714100","long":"-117.23988900","store_key":1345,"city":"San Diego"},{"name":"Hub City Vinyl","lat":"39.64029550","long":"-77.71110160","store_key":1346,"city":"Hagerstown"},{"name":"The Gold Pan Records & Recording","lat":"39.15937980","long":"-89.49303920","store_key":1350,"city":"Hillsboro"},{"name":"HR Records","lat":"38.95612200","long":"-77.02255700","store_key":1354,"city":"Washington"},{"name":"Rick & Kat's Howlin' Mouse","lat":"43.61928780","long":"-72.97396640","store_key":1355,"city":"Rutland"},{"name":"Rody's Records","lat":"32.06121000","long":"-81.09399400","store_key":1360,"city":"Savannah"},{"name":"No Noise Records","lat":"41.68470600","long":"-83.61200500","store_key":1368,"city":"Toledo"},{"name":"Bay View Books And Music","lat":"42.99663830","long":"-87.89821010","store_key":1383,"city":"Milwaukee"},{"name":"Newbury Comics","lat":"42.48183840","long":"-71.21265200","store_key":820,"city":"Burlington"},{"name":"Tonevendor","lat":"29.89154600","long":"-81.31480050","store_key":1384,"city":"St. Augustine"},{"name":"2nd & Charles","lat":"33.51038700","long":"-82.03298460","store_key":507,"city":"Augusta"},{"name":"2nd & Charles","lat":"32.48053090","long":"-84.94388620","store_key":507,"city":"Columbus"},{"name":"Inner Sleeve Records","lat":"44.96059670","long":"-89.62861800","store_key":1387,"city":"Wausau"},{"name":"Karma Records","lat":"39.91226600","long":"-86.22132400","store_key":1388,"city":"Indianapolis"},{"name":"Lofidelic Records","lat":"40.18001480","long":"-74.02521440","store_key":1389,"city":"Belmar"},{"name":"Odds & Ends Music, Movies & Video Games","lat":"42.04900180","long":"-92.91511610","store_key":1390,"city":"Marshalltown"},{"name":"Vintage Vinyl","lat":"41.57141100","long":"-81.57044000","store_key":1178,"city":"Cleveland"},{"name":"Third Coast Vinyl","lat":"43.23199670","long":"-86.24973820","store_key":1391,"city":"Muskegon"},{"name":"The Record Farm","lat":"40.75266540","long":"-86.36616980","store_key":1392,"city":"Logansport"},{"name":"Time Tunnel Records","lat":"47.46912200","long":"-122.34665700","store_key":1393,"city":"Burien"},{"name":"Thrifty's Music, Movies, & More","lat":"42.95574500","long":"-71.43346940","store_key":1394,"city":"Manchester"},{"name":"Lakeshore Vinyl","lat":"46.28328705","long":"-96.07318878","store_key":1404,"city":"Fergus Falls"},{"name":"Astro-Zombies","lat":"35.08044810","long":"-106.61062870","store_key":1412,"city":"Albuquerque"},{"name":"Beat Book Shop","lat":"40.01764850","long":"-105.27972680","store_key":1417,"city":"Boulder"},{"name":"True Vine","lat":"39.31064220","long":"-76.61638870","store_key":1418,"city":"Baltimore"},{"name":"Oil Capital Vinyl","lat":"36.12601500","long":"-95.88541690","store_key":1421,"city":"Tulsa"},{"name":"Finyl Vinyl","lat":"40.99760160","long":"-74.15333330","store_key":1426,"city":"Midland Park"},{"name":"The Archive Records","lat":"39.26749080","long":"-76.79692190","store_key":1430,"city":"Ellicott City"},{"name":"Back Around Records","lat":"35.05278510","long":"-78.87789130","store_key":1431,"city":"Fayetteville"},{"name":"Jack's Record Stache","lat":"43.01559400","long":"-83.69193300","store_key":1432,"city":"Flint"},{"name":"Rogue Antiques and Vintage Vinyl","lat":"35.19660690","long":"-111.65489940","store_key":1438,"city":"Flagstaff"},{"name":"The Treasure Box","lat":"29.99444450","long":"-81.67892780","store_key":1441,"city":"Green Cove Springs"},{"name":"Brooks Novelty Antiques & Records","lat":"38.58219440","long":"-121.50546110","store_key":1445,"city":"Sacramento"},{"name":"Waxidermy Records","lat":"38.57470140","long":"-121.47902460","store_key":1448,"city":"Sacramento"},{"name":"Black Wax Café","lat":"40.49375680","long":"-86.13343580","store_key":1452,"city":"Kokomo"},{"name":"Recycled Books Records CDs","lat":"33.21566490","long":"-97.13226210","store_key":1468,"city":"Denton"},{"name":"Future Shock","lat":"45.52267370","long":"-122.64612580","store_key":1469,"city":"Portland"},{"name":"Newbury Comics","lat":"42.36056360","long":"-71.05448580","store_key":820,"city":"Boston"},{"name":"Newbury Comics","lat":"42.22280502","long":"-71.02415466","store_key":820,"city":"Braintree"},{"name":"Pop-Up Records","lat":"40.02155450","long":"-83.00928030","store_key":1470,"city":"Columbus"},{"name":"2nd & Charles","lat":"34.78644960","long":"-77.39851970","store_key":507,"city":"Jacksonville"},{"name":"2nd & Charles","lat":"39.68828730","long":"-84.16457820","store_key":507,"city":"Dayton"},{"name":"Deep End of the Sandbox","lat":"40.83151760","long":"-73.08530970","store_key":1472,"city":"Ronkonkoma"},{"name":"Fat Kat Records & Books","lat":"38.01948800","long":"-77.51122700","store_key":1473,"city":"Ruther Glen"},{"name":"Grand Avenue Records","lat":"33.45918440","long":"-112.09159480","store_key":1474,"city":"Phoenix"},{"name":"Inner Groove Records","lat":"39.91539220","long":"-75.06664720","store_key":1475,"city":"Collingswood"},{"name":"RPM Records","lat":"44.75530624","long":"-85.59711456","store_key":1477,"city":"Traverse City"},{"name":"Pyramid Music & More","lat":"33.47506800","long":"-81.96623100","store_key":1478,"city":"Augusta"},{"name":"Slackers Cd's & Games","lat":"38.59237360","long":"-89.98684970","store_key":1479,"city":"Fairview Heights"},{"name":"The Exchange","lat":"40.90102020","long":"-81.15068880","store_key":32,"city":"Alliance"},{"name":"The Exchange","lat":"41.15458430","long":"-81.35221680","store_key":32,"city":"Kent"},{"name":"The Wax & The Needle","lat":"28.03830528","long":"-81.95739746","store_key":1480,"city":"Lakeland"},{"name":"Wolfson Equipment and Records","lat":"30.26343150","long":"-81.62422190","store_key":1481,"city":"Jacksonville"},{"name":"Jupiter Records & Tapes","lat":"32.74998190","long":"-117.11521750","store_key":1499,"city":"San Diego"},{"name":"Feels So Good Records","lat":"30.26716900","long":"-97.73632330","store_key":1501,"city":"Austin"},{"name":"The Beach Music Shop","lat":"36.04313920","long":"-75.67892480","store_key":1503,"city":"Kill Devil Hills"},{"name":"We Buy Records","lat":"43.06766590","long":"-87.90007520","store_key":1506,"city":"Milwaukee"},{"name":"DEAD TECH","lat":"33.79798770","long":"-84.36864200","store_key":1509,"city":"Atlanta"},{"name":"Half Price Books","lat":"47.82179300","long":"-122.31676860","store_key":432,"city":"Lynnwood"},{"name":"High Fidelity Records Inc","lat":"34.03277630","long":"-118.34471650","store_key":1516,"city":"Los Angeles"},{"name":"Vinyl Record Revival","lat":"43.19752730","long":"-77.94257620","store_key":1517,"city":"Brockport"},{"name":"Hoarders Trading Post","lat":"41.91463100","long":"-88.30856610","store_key":1522,"city":"St. Charles"},{"name":"Mo Records","lat":"32.74008900","long":"-117.21097980","store_key":1530,"city":"San Diego"},{"name":"Pop Up Records","lat":"47.99116070","long":"-122.39573890","store_key":1532,"city":"Langley"},{"name":"Pluto Vinyl","lat":"37.29250000","long":"-80.06027780","store_key":1534,"city":"Salem"},{"name":"Zip's Ziggurat","lat":"42.04931641","long":"-74.07073975","store_key":1542,"city":"Saugerties"},{"name":"Poo-Bah Record Shop","lat":"34.14593870","long":"-118.09594960","store_key":1546,"city":"Los Angeles"},{"name":"Planet Records","lat":"42.37388880","long":"-71.12484500","store_key":1554,"city":"Boston"},{"name":"The Record Rack","lat":"26.23200798","long":"-80.10163116","store_key":1563,"city":"Pompano Beach"},{"name":"Euclid Records New Orleans","lat":"29.96211940","long":"-90.04299170","store_key":1573,"city":"New Orleans"},{"name":"Jacknife Records & Tapes","lat":"34.11719600","long":"-118.26219300","store_key":1579,"city":"Los Angeles"},{"name":"Detroit Threads","lat":"42.39904120","long":"-83.05893550","store_key":1580,"city":"Detroit"},{"name":"Omega Music","lat":"39.75707500","long":"-84.18618100","store_key":1581,"city":"Dayton"},{"name":"Recycle Music LLC","lat":"44.05176770","long":"-121.31665270","store_key":1584,"city":"Bend"},{"name":"Schoolkids Records","lat":"35.77743550","long":"-78.67620570","store_key":1585,"city":"Raleigh"},{"name":"Record Krate Raleigh","lat":"35.78688350","long":"-78.65059980","store_key":1586,"city":"Raleigh"},{"name":"Eide's Entertainment","lat":"40.44536209","long":"-79.99326324","store_key":1590,"city":"Pittsburgh"},{"name":"Hanson Records Shop","lat":"41.29136140","long":"-82.21831670","store_key":1591,"city":"Oberlin"},{"name":"Music Box","lat":"30.40870667","long":"-87.27228546","store_key":546,"city":"Pensacola"},{"name":"Hear Again Records","lat":"29.64994330","long":"-82.32376990","store_key":1594,"city":"Gainesville"},{"name":"Groove Yard","lat":"37.84464550","long":"-122.25644730","store_key":1596,"city":"Oakland"},{"name":"Sound Exchange","lat":"40.93454430","long":"-74.26824800","store_key":31,"city":"Wayne"},{"name":"Half Price Books","lat":"43.03518070","long":"-88.12517810","store_key":432,"city":"Brookfield"},{"name":"Movie Trading Company","lat":"33.00641200","long":"-96.97352000","store_key":844,"city":"Lewisville"},{"name":"Buybacks Decatur","lat":"36.14275670","long":"-115.20628430","store_key":1602,"city":"Las Vegas"},{"name":"Hip Cat Records & Music Videos","lat":"42.07986069","long":"-87.76346588","store_key":1620,"city":"Chicago"},{"name":"Rasputin Music","lat":"36.81955320","long":"-119.79084410","store_key":1624,"city":"Fresno"},{"name":"Crooked Beat Records","lat":"38.81268690","long":"-77.04102780","store_key":1625,"city":"Alexandria"},{"name":"Black Circle Records","lat":"42.59598320","long":"-88.43574860","store_key":1627,"city":"Lake Geneva"},{"name":"Cactus Records","lat":"45.51899480","long":"-122.58208810","store_key":1657,"city":"Portland"},{"name":"Abandoned Luncheonette","lat":"39.96596909","long":"-74.94821167","store_key":1660,"city":"Moorestown"},{"name":"Pyramid Records","lat":"37.75259390","long":"-122.41580660","store_key":1661,"city":"San Francisco"},{"name":"Crossroads Music","lat":"45.48283005","long":"-122.57978821","store_key":1663,"city":"Portland"},{"name":"MAY 68 Books & Records","lat":"40.71713638","long":"-73.99672699","store_key":1664,"city":"New York"},{"name":"Norwalk Record Sales","lat":"33.90814700","long":"-118.07482300","store_key":1670,"city":"Norwalk"},{"name":"Nothing But A Nightmare","lat":"33.77592000","long":"-117.94693500","store_key":1673,"city":"Garden Grove"},{"name":"Cd Sam","lat":"29.49249500","long":"-98.55133000","store_key":1674,"city":"San Antonio"},{"name":"Disc-cover Records","lat":"43.57896290","long":"-116.55902430","store_key":1678,"city":"Nampa"},{"name":"Jimbo's Records","lat":"36.38894100","long":"-86.44695360","store_key":1680,"city":"Gallatin"},{"name":"Main Street Records","lat":"38.31540180","long":"-88.90371520","store_key":1683,"city":"Mount Vernon"},{"name":"BLK Vinyl","lat":"30.25861990","long":"-97.71408710","store_key":1684,"city":"Austin"},{"name":"Rochester Records","lat":"43.99077050","long":"-92.46140270","store_key":1692,"city":"Rochester"},{"name":"New 2 U Vinyl & Vintage","lat":"39.63295600","long":"-84.29244100","store_key":1696,"city":"Miamisburg"},{"name":"The Turntable Vintage Audio and Records","lat":"40.16241340","long":"-76.39378830","store_key":1698,"city":"Manheim"},{"name":"Rick’s Record Shack & Wifey’s Closet","lat":"42.79488470","long":"-78.84722710","store_key":1701,"city":"Buffalo"},{"name":"Black Plastic Records","lat":"39.15193500","long":"-84.62725570","store_key":1702,"city":"Cincinnati"},{"name":"Mr. Suit Records","lat":"40.04071000","long":"-76.30891300","store_key":1708,"city":"Lancaster"},{"name":"Classic Collections","lat":"40.17223480","long":"-75.72545100","store_key":1709,"city":"Pottstown"},{"name":"Terrapin Station","lat":"36.59784580","long":"-88.31700570","store_key":1711,"city":"Murray"},{"name":"Lost Padre Records","lat":"35.69110810","long":"-105.94247160","store_key":1713,"city":"Santa Fe"},{"name":"FYE","lat":"41.46833330","long":"-87.30957000","store_key":145,"city":"Merrillville"},{"name":"FYE","lat":"28.08194540","long":"-80.65093290","store_key":145,"city":"Melbourne"},{"name":"FYE","lat":"40.65026660","long":"-111.94250820","store_key":145,"city":"Salt Lake City"},{"name":"FYE","lat":"30.47121040","long":"-97.80579780","store_key":145,"city":"Cedar Park"},{"name":"FYE","lat":"40.45445820","long":"-80.15714050","store_key":145,"city":"Pittsburgh"},{"name":"FYE","lat":"35.53176280","long":"-108.76296110","store_key":145,"city":"Gallup"},{"name":"FYE","lat":"41.86311110","long":"-71.05226780","store_key":145,"city":"Taunton"},{"name":"Odd Bob's","lat":"30.44057690","long":"-87.68537960","store_key":1714,"city":"Foley"},{"name":"Turn The Page Books, Records & More","lat":"40.88258600","long":"-85.49530800","store_key":1715,"city":"Huntington"},{"name":"Sanford's Vintage","lat":"34.00010600","long":"-118.08012580","store_key":1727,"city":"Pico Rivera"},{"name":"The Spinning Groove","lat":"34.31691300","long":"-86.49555200","store_key":1728,"city":"Arab"},{"name":"Cameron Records","lat":"45.76943290","long":"-108.55273900","store_key":1736,"city":"Billings"},{"name":"Rodgers Book Barn","lat":"42.21172200","long":"-73.56163600","store_key":1745,"city":"Hillsdale"},{"name":"Rainy Day Records","lat":"47.04413223","long":"-122.89891815","store_key":1748,"city":"Olympia"},{"name":"Strictly Discs","lat":"43.06464710","long":"-89.41781180","store_key":1749,"city":"Madison"},{"name":"In Your Ear Records","lat":"42.35190964","long":"-71.11910248","store_key":1752,"city":"Boston"},{"name":"In Your Ear Records","lat":"41.72983932","long":"-71.28214264","store_key":1752,"city":"Warren"},{"name":"Landlocked Music","lat":"39.16593300","long":"-86.53334800","store_key":1758,"city":"Bloomington"},{"name":"El Suprimo Records","lat":"39.28346100","long":"-76.59273640","store_key":1771,"city":"Baltimore"},{"name":"Sound Revolution","lat":"30.01481420","long":"-95.45042790","store_key":1776,"city":"Houston"},{"name":"Vinyl Dreams","lat":"37.77175140","long":"-122.43182373","store_key":1778,"city":"San Francisco"},{"name":"Moondog Records","lat":"36.16517400","long":"-115.20721300","store_key":1779,"city":"Las Vegas"},{"name":"Clinton Street Record & Stereo","lat":"45.50326640","long":"-122.64005630","store_key":1780,"city":"Portland"},{"name":"Needledrop Records & Audio","lat":"43.14218140","long":"-77.60405731","store_key":1781,"city":"Rochester"},{"name":"Hyde Park Records","lat":"41.79938420","long":"-87.59210890","store_key":1782,"city":"Chicago"},{"name":"Hionfi Vintage Stereo Store","lat":"42.99125160","long":"-76.07130340","store_key":1783,"city":"Jamesville"},{"name":"Team Love Records HQ + Shop","lat":"41.74832916","long":"-74.08612061","store_key":1787,"city":"New Paltz"},{"name":"Main Street Music","lat":"40.02637100","long":"-75.22621155","store_key":1790,"city":"Philadelphia"},{"name":"Good Rockin' Tonight (Graceland Record Shop)","lat":"35.04690900","long":"-90.02418460","store_key":1791,"city":"Memphis"},{"name":"Blue Groove Soundz","lat":"38.88513420","long":"-77.14135310","store_key":1794,"city":"Arlington"},{"name":"Music Merchants","lat":"40.99202140","long":"-74.03099030","store_key":1795,"city":"Westwood"},{"name":"Recycled Records","lat":"39.80067720","long":"-89.64686350","store_key":1796,"city":"Springfield"},{"name":"Stick It In Your Ear","lat":"37.20699320","long":"-93.29128580","store_key":1797,"city":"Springfield"},{"name":"Frank's Record Shop","lat":"26.19285340","long":"-97.69468370","store_key":1798,"city":"Harlingen"},{"name":"Del Bravo Record Shop","lat":"29.42683200","long":"-98.57149900","store_key":1799,"city":"San Antonio"},{"name":"Zia Records (Eastern - Las Vegas)","lat":"36.11163000","long":"-115.11967000","store_key":1805,"city":"Las Vegas"},{"name":"Flipside Records","lat":"41.00591460","long":"-74.29167650","store_key":1806,"city":"Pompton Lakes"},{"name":"Academy Records","lat":"40.72785040","long":"-73.95773880","store_key":1807,"city":"New York"},{"name":"Groovy Graveyard","lat":"40.21554230","long":"-74.01174630","store_key":1808,"city":"Asbury Park"},{"name":"IT Records","lat":"44.98957825","long":"-93.25352478","store_key":1821,"city":"Minneapolis"},{"name":"Little Axe Records","lat":"45.53566510","long":"-122.62061000","store_key":1827,"city":"Portland"},{"name":"Delta Breeze Records","lat":"38.57204990","long":"-121.49688160","store_key":1830,"city":"Sacramento"},{"name":"The Long Ear CDs & Stuff","lat":"47.69091990","long":"-116.78569600","store_key":1833,"city":"Coeur d'Alene"},{"name":"Hi Fi Lounge","lat":"43.12845260","long":"-77.56616820","store_key":1835,"city":"Rochester"},{"name":"Kaos Records","lat":"34.09861110","long":"-117.88944440","store_key":1837,"city":"Covina"},{"name":"Wonderland","lat":"39.68330190","long":"-75.75668850","store_key":1838,"city":"Newark"},{"name":"Tom's Music Trade","lat":"39.90123150","long":"-76.60699940","store_key":1849,"city":"Red Lion"},{"name":"Vinyl Daze Records","lat":"36.85780190","long":"-75.98981290","store_key":1858,"city":"Virginia Beach"},{"name":"Electric Crown Records","lat":"42.95503400","long":"-83.66091100","store_key":1870,"city":"Flint"},{"name":"Bird & Beckett Books & Records","lat":"37.73441300","long":"-122.43295500","store_key":1874,"city":"San Francisco"},{"name":"Hopscotch Coffee & Records","lat":"39.17325500","long":"-78.16485710","store_key":1876,"city":"Winchester"},{"name":"Scooter's Records","lat":"33.46280240","long":"-88.80535480","store_key":1877,"city":"Starkville"},{"name":"MediumRare Records & Collectibles","lat":"38.57053770","long":"-121.49552590","store_key":1878,"city":"Sacramento"},{"name":"Rhino Records","lat":"41.74663330","long":"-74.08905130","store_key":639,"city":"New Paltz"},{"name":"Lucky Records","lat":"25.79937430","long":"-80.19796410","store_key":1614,"city":"Miami"},{"name":"Half Price Books","lat":"32.92962400","long":"-96.80243100","store_key":432,"city":"Dallas"},{"name":"High Fidelity Records Store","lat":"35.21097946","long":"-101.86676025","store_key":1880,"city":"Amarillo"},{"name":"Spin Records Petaluma","lat":"38.24581400","long":"-122.64454940","store_key":1881,"city":"Petaluma"},{"name":"Urban Outfitters","lat":"35.96448510","long":"-83.91933980","store_key":1882,"city":"Knoxville"},{"name":"Pink Elephant Vintage & Antiques","lat":"44.92462690","long":"-93.41204640","store_key":1883,"city":"Hopkins"},{"name":"Yellow K Records","lat":"39.65644100","long":"-78.92977600","store_key":1887,"city":"Frostburg"},{"name":"RetroDisc","lat":"46.87495600","long":"-96.76074000","store_key":1893,"city":"Moorhead"},{"name":"Paradise Trading Post and Record Store","lat":"34.86614110","long":"-120.41704620","store_key":1894,"city":"Santa Maria"},{"name":"Independent Records & Video","lat":"38.27046270","long":"-104.61267540","store_key":1901,"city":"Pueblo"},{"name":"Last Place Records","lat":"35.90920250","long":"-75.66994510","store_key":1909,"city":"Manteo"},{"name":"Media Mania","lat":"33.54170010","long":"-84.21194650","store_key":1911,"city":"Stockbridge"},{"name":"Perceptery Record Store","lat":"42.97682520","long":"-82.42438380","store_key":1913,"city":"Port Huron"},{"name":"Get Hip Records","lat":"40.45633400","long":"-80.03240090","store_key":1925,"city":"Pittsburgh"},{"name":"Pack Ratt Records & Puss In Boots Vintage","lat":"32.75620370","long":"-117.09245270","store_key":1926,"city":"San Diego"},{"name":"FYE","lat":"34.70792280","long":"-86.58766470","store_key":145,"city":"Huntsville"},{"name":"FYE","lat":"39.19326720","long":"-75.53908100","store_key":145,"city":"Dover"},{"name":"FYE","lat":"34.03612940","long":"-118.08520680","store_key":145,"city":"Montebello"},{"name":"FYE","lat":"35.92320620","long":"-84.03727960","store_key":145,"city":"Knoxville"},{"name":"FYE","lat":"39.76633010","long":"-84.05585030","store_key":145,"city":"Beavercreek"},{"name":"FYE","lat":"43.33070670","long":"-73.66985870","store_key":145,"city":"Queensbury"},{"name":"Epic Seconds","lat":"44.04749300","long":"-123.09229000","store_key":1928,"city":"Eugene"},{"name":"Soul Relief Records","lat":"36.06273240","long":"-79.82407050","store_key":1942,"city":"Greensboro"},{"name":"Friends of the Whittier Library Bookstore","lat":"33.98070800","long":"-118.03880340","store_key":1945,"city":"Whittier"},{"name":"Offbeat Music Store","lat":"42.19669420","long":"-88.09318430","store_key":1946,"city":"Lake Zurich"},{"name":"The Great Escape","lat":"38.22382240","long":"-85.68717580","store_key":1949,"city":"Louisville"},{"name":"Region records","lat":"41.52292600","long":"-87.42591600","store_key":1952,"city":"Griffith"},{"name":"Studio Records","lat":"36.15593120","long":"-95.96951330","store_key":1957,"city":"Tulsa"},{"name":"Tone Deaf Records","lat":"41.96023780","long":"-87.75433180","store_key":1960,"city":"Chicago"},{"name":"Remix Warehouse","lat":"28.56187740","long":"-81.36424310","store_key":1967,"city":"Orlando"},{"name":"Vinyl Consumption Record Shop","lat":"35.08778930","long":"-106.58893130","store_key":1968,"city":"Albuquerque"},{"name":"The Exchange","lat":"42.05434240","long":"-80.08796500","store_key":32,"city":"Erie"},{"name":"Electric Jungle","lat":"42.01040100","long":"-87.67497100","store_key":1983,"city":"Chicago"},{"name":"CounterCulture Records","lat":"26.33446710","long":"-81.78081790","store_key":1984,"city":"Bonita Springs"},{"name":"Culxr House","lat":"41.28661900","long":"-95.94738400","store_key":1990,"city":"Omaha"},{"name":"Good Earth Records","lat":"29.92077700","long":"-90.11600500","store_key":1991,"city":"New Orleans"},{"name":"Inner Groove Records","lat":"31.06635990","long":"-98.17771320","store_key":1475,"city":"Lampasas"},{"name":"Top Five Records","lat":"26.61560760","long":"-80.05623130","store_key":2002,"city":"Lake Worth"},{"name":"Budget Music","lat":"47.91460419","long":"-97.04552460","store_key":2005,"city":"Grand Forks"},{"name":"Bull Moose","lat":"44.56736760","long":"-69.64045230","store_key":2008,"city":"Waterville"},{"name":"Newbury Comics","lat":"41.94675064","long":"-71.35003662","store_key":820,"city":"North Attleborough"},{"name":"Books & More / Record Hound","lat":"33.23013700","long":"-97.14863100","store_key":2010,"city":"Denton"},{"name":"Captured Tracks Shop","lat":"40.72841790","long":"-73.95275220","store_key":2011,"city":"New York"},{"name":"C K Barrymores Inc","lat":"42.24828330","long":"-84.40608450","store_key":2012,"city":"Jackson"},{"name":"Commercial Astoria","lat":"46.18878555","long":"-123.82957458","store_key":2013,"city":"Astoria"},{"name":"Dr. Strange Records","lat":"34.12438230","long":"-117.59839130","store_key":2014,"city":"Rancho Cucamonga"},{"name":"Flipside Records","lat":"41.24652863","long":"-80.44868469","store_key":1806,"city":"Hermitage"},{"name":"Hippo Records","lat":"36.06326340","long":"-79.83951820","store_key":2015,"city":"Greensboro"},{"name":"Hifi Records & Café","lat":"40.77048660","long":"-73.90862720","store_key":2016,"city":"New York"},{"name":"Musical Memories","lat":"43.04258347","long":"-87.90090942","store_key":2017,"city":"Milwaukee"},{"name":"Off the Record","lat":"43.39064300","long":"-124.24251210","store_key":2018,"city":"North Bend"},{"name":"The Exchange Buy-Sell-Trade","lat":"41.42060470","long":"-81.90104680","store_key":2019,"city":"North Olmsted"},{"name":"Turntable Records","lat":"30.24628010","long":"-97.75638230","store_key":2020,"city":"Austin"},{"name":"Vienna Music Exchange","lat":"38.90158844","long":"-77.26757050","store_key":2021,"city":"Vienna"},{"name":"Wax Records Inc.","lat":"27.62948418","long":"-80.39098358","store_key":2022,"city":"Vero Beach"},{"name":"Driftless Books & Music","lat":"43.55842300","long":"-90.88317600","store_key":2029,"city":"Viroqua"},{"name":"Nu Way Vinyl","lat":"34.74232300","long":"-87.66795510","store_key":2032,"city":"Muscle Shoals"},{"name":"Record Wonderland","lat":"41.99806595","long":"-88.06166077","store_key":2033,"city":"Chicago"},{"name":"Wooden Tooth Records","lat":"32.22626400","long":"-110.96468100","store_key":2034,"city":"Tucson"},{"name":"Analog Record Shop","lat":"33.75033910","long":"-117.80935860","store_key":2035,"city":"Tustin"},{"name":"Karma Warsaw","lat":"41.27386750","long":"-85.85558840","store_key":2039,"city":"Warsaw"},{"name":"Assumption Records","lat":"39.53218079","long":"-80.11515045","store_key":2044,"city":"Rivesville"},{"name":"CD CAFE","lat":"42.14331300","long":"-77.05503700","store_key":2048,"city":"Corning"},{"name":"Phoenix Records","lat":"36.09574690","long":"-94.15845110","store_key":2049,"city":"Fayetteville"},{"name":"Cool Beat Music and Books","lat":"42.88418320","long":"-78.78005660","store_key":2053,"city":"Buffalo"},{"name":"Compact Disc Outlet","lat":"39.88850360","long":"-75.29962600","store_key":2057,"city":"Norwood"},{"name":"74 Kid Records","lat":"42.17846450","long":"-86.30173760","store_key":2060,"city":"Coloma"},{"name":"Now & Then Music","lat":"39.24981200","long":"-76.69371310","store_key":2061,"city":"Baltimore"},{"name":"MetaModern Music","lat":"39.15175600","long":"-84.43320610","store_key":2063,"city":"Cincinnati"},{"name":"Vinyl Cup Records","lat":"41.62087090","long":"-93.67305920","store_key":2080,"city":"Des Moines"},{"name":"10,000 Hz Records","lat":"32.64933130","long":"-85.37953100","store_key":2082,"city":"Opelika"},{"name":"Brooks Berdan Ltd","lat":"34.14443110","long":"-118.00133660","store_key":2083,"city":"Monrovia"},{"name":"Vinylyte Records And Skate shop","lat":"33.37425620","long":"-84.80033960","store_key":2085,"city":"Newnan"},{"name":"Rusty Dusty Vintage and Records","lat":"45.15133670","long":"-87.17139470","store_key":2087,"city":"Fish Creek"},{"name":"Chief Records","lat":"32.78836050","long":"-97.34525750","store_key":2088,"city":"Fort Worth"},{"name":"Groovy Records","lat":"32.75726090","long":"-117.21074620","store_key":358,"city":"San Diego"},{"name":"Vintage Audio Exchange","lat":"35.99352200","long":"-79.95206100","store_key":2096,"city":"Jamestown"},{"name":"FYE - For Your Entertainment","lat":"39.62778750","long":"-79.99862510","store_key":2097,"city":"Morgantown"},{"name":"FYE","lat":"47.21590130","long":"-122.47092000","store_key":145,"city":"Tacoma"},{"name":"FYE","lat":"34.84890460","long":"-82.33364940","store_key":145,"city":"Greenville"},{"name":"FYE","lat":"41.50846900","long":"-81.69550380","store_key":145,"city":"Cleveland"},{"name":"FYE","lat":"42.24943160","long":"-84.43761390","store_key":145,"city":"Jackson"},{"name":"Slackers Cd's & Games","lat":"38.92393800","long":"-90.17510770","store_key":1479,"city":"Alton"},{"name":"Variety Shop 4932 SE Foster Portland, Oregon 97206","lat":"45.49719260","long":"-122.61169820","store_key":2100,"city":"Portland"},{"name":"Listening Room","lat":"43.41730100","long":"-83.96347880","store_key":2104,"city":"Saginaw"},{"name":"Orange Cat Records","lat":"38.98767510","long":"-95.23413120","store_key":2113,"city":"Lawrence"},{"name":"Silver Lotus Records","lat":"29.95879430","long":"-90.06177650","store_key":2115,"city":"New Orleans"},{"name":"Kaiju Records","lat":"38.36557500","long":"-75.60232160","store_key":2116,"city":"Salisbury"},{"name":"Streetlight Records","lat":"37.30794800","long":"-121.93147400","store_key":902,"city":"San Jose"},{"name":"Mystery Spot Antiques","lat":"42.08318460","long":"-74.31345440","store_key":2122,"city":"Phoenicia"},{"name":"Vertigo Music","lat":"42.96015250","long":"-85.66806970","store_key":2123,"city":"Grand Rapids"},{"name":"Lost Weekend Records","lat":"40.02264390","long":"-83.01304910","store_key":2124,"city":"Columbus"},{"name":"Everyday Music","lat":"48.75044170","long":"-122.47676480","store_key":2126,"city":"Bellingham"},{"name":"Olympic Records","lat":"41.82038498","long":"-71.39140320","store_key":2129,"city":"Providence"},{"name":"Monster Music & Movies","lat":"32.79837400","long":"-80.02741000","store_key":2143,"city":"Charleston"},{"name":"Vinyl Conflict Record Store","lat":"37.54087070","long":"-77.45053610","store_key":2144,"city":"Richmond"},{"name":"Raunch Records","lat":"40.72561270","long":"-111.85905940","store_key":2145,"city":"Salt Lake City"},{"name":"Record Jungle","lat":"34.01434830","long":"-118.12942590","store_key":2146,"city":"Los Angeles"},{"name":"Long In The Tooth","lat":"39.95154500","long":"-75.17470300","store_key":2153,"city":"Philadelphia"},{"name":"Tres Gatos","lat":"42.31909140","long":"-71.11162340","store_key":2157,"city":"Boston"},{"name":"Memphis Music","lat":"35.13977620","long":"-90.05314200","store_key":2160,"city":"Memphis"},{"name":"Needle to the Groove","lat":"37.57641380","long":"-121.97833840","store_key":2161,"city":"Fremont"},{"name":"People's Records","lat":"40.86802460","long":"-124.08643270","store_key":2162,"city":"Arcata"},{"name":"Irvington Vinyl & Books","lat":"39.77044450","long":"-86.07291340","store_key":2167,"city":"Indianapolis"},{"name":"Gallery of Sound","lat":"41.24426860","long":"-75.85137150","store_key":2168,"city":"Wilkes-Barre"},{"name":"Discology: CDs : DVDs : LPs : LDs","lat":"39.52474600","long":"-119.81451400","store_key":2170,"city":"Reno"},{"name":"Chad's Records","lat":"35.06233730","long":"-85.30719920","store_key":2171,"city":"Chattanooga"},{"name":"Triple Play Records","lat":"39.06761580","long":"-108.56363540","store_key":2173,"city":"Grand Junction"},{"name":"Spin Cycle","lat":"47.62171020","long":"-122.32114660","store_key":2188,"city":"Seattle"},{"name":"Capital City Records","lat":"30.41647260","long":"-91.14183180","store_key":2192,"city":"Baton Rouge"},{"name":"No Name Vinyl Records & Music Etc.","lat":"30.23768360","long":"-92.26810990","store_key":2193,"city":"Rayne"},{"name":"Peoples Records","lat":"42.34424640","long":"-83.03791790","store_key":2197,"city":"Detroit"},{"name":"Lets Groove","lat":"28.56822250","long":"-81.37291660","store_key":2198,"city":"Orlando"},{"name":"Cd's Y Acessorios Ashley","lat":"34.11012610","long":"-118.19142360","store_key":2199,"city":"Los Angeles"},{"name":"Superior Elevation Record Store","lat":"40.70656500","long":"-73.93552000","store_key":2200,"city":"New York"},{"name":"Stranded Oakland","lat":"37.82588700","long":"-122.25247160","store_key":2201,"city":"Oakland"},{"name":"Whirled Records","lat":"39.80132870","long":"-76.98436370","store_key":2213,"city":"Hanover"},{"name":"Bob's Blues & Jazz Mart","lat":"41.95355225","long":"-87.71377563","store_key":2226,"city":"Chicago"},{"name":"Bull Moose","lat":"43.62447100","long":"-70.35005800","store_key":2008,"city":"Scarborough"},{"name":"Newbury Comics","lat":"42.36819670","long":"-71.07570450","store_key":820,"city":"Boston"},{"name":"Disko Obscura","lat":"29.93163370","long":"-90.07395680","store_key":2233,"city":"New Orleans"},{"name":"Another Part of the Forest","lat":"39.11083780","long":"-84.51218580","store_key":2235,"city":"Cincinnati"},{"name":"B-Side Music","lat":"41.87010020","long":"-80.78070880","store_key":2237,"city":"Ashtabula"},{"name":"Buzzo Music Ltd","lat":"42.79561550","long":"-77.81719890","store_key":2238,"city":"Geneseo"},{"name":"Ella Guru Record Shop","lat":"33.82385380","long":"-84.29390540","store_key":2239,"city":"Decatur"},{"name":"High Fidelity Records & Cd's","lat":"40.67101330","long":"-73.41690490","store_key":2240,"city":"Amityville"},{"name":"Newstand Records & Books","lat":"34.92499720","long":"-81.02635360","store_key":2241,"city":"Rock Hill"},{"name":"Village Music","lat":"34.24160110","long":"-116.91134430","store_key":2251,"city":"Big Bear Lake"},{"name":"All Sales Vinyl","lat":"40.58644860","long":"-105.07658810","store_key":2258,"city":"Fort Collins"},{"name":"Light Of Day Records","lat":"42.30837720","long":"-71.11532070","store_key":2276,"city":"Boston"},{"name":"Looney Tunes","lat":"42.35520610","long":"-71.13242710","store_key":2279,"city":"Boston"},{"name":"Rock of Ages","lat":"42.32496643","long":"-83.34751129","store_key":2287,"city":"Garden City"},{"name":"Torn Light Records","lat":"39.14425440","long":"-84.52172120","store_key":2290,"city":"Cincinnati"},{"name":"Batcave Vinyl","lat":"29.48833847","long":"-98.56825256","store_key":2291,"city":"San Antonio"},{"name":"Goodies Disc Exchange","lat":"39.89849900","long":"-75.30880770","store_key":2293,"city":"Holmes"},{"name":"Pioneer Trading Post","lat":"30.16868300","long":"-92.08157600","store_key":2298,"city":"Lafayette"},{"name":"The Old School Records","lat":"41.87905121","long":"-87.81417084","store_key":2300,"city":"Chicago"},{"name":"Hungry Ear Records","lat":"21.29855950","long":"-157.86114850","store_key":2302,"city":"Honolulu"},{"name":"Spin It Again Records","lat":"37.69269700","long":"-97.44264500","store_key":2306,"city":"Wichita"},{"name":"Borderline Records and Tapes","lat":"39.97049320","long":"-75.14606060","store_key":2314,"city":"Philadelphia"},{"name":"Independent Records & Video","lat":"38.73862230","long":"-104.73414240","store_key":1901,"city":"Colorado Springs"},{"name":"Vintage Vibe","lat":"40.99319430","long":"-74.14146600","store_key":2318,"city":"Midland Park"},{"name":"Technical Equipment Supply","lat":"42.24479340","long":"-83.60839290","store_key":2320,"city":"Ypsilanti"},{"name":"Reggae Land Muzik & Kultural","lat":"25.98418300","long":"-80.20913500","store_key":2321,"city":"Miramar"},{"name":"JB's Record Lounge","lat":"33.73757120","long":"-84.41542000","store_key":2323,"city":"Atlanta"},{"name":"Val Shively’s R&B Records","lat":"39.96082960","long":"-75.26259950","store_key":2329,"city":"Upper Darby"},{"name":"Vintage Vinyl LLC","lat":"28.12546200","long":"-82.74103000","store_key":2333,"city":"Tarpon Springs"},{"name":"The Preserve","lat":"46.54410630","long":"-87.39974920","store_key":2335,"city":"Marquette"},{"name":"Vintage & Current Collectibles (V&C)","lat":"27.93730830","long":"-82.27991460","store_key":2336,"city":"Brandon"},{"name":"FYE","lat":"33.72776680","long":"-84.74564380","store_key":145,"city":"Douglasville"},{"name":"FYE","lat":"32.35829130","long":"-88.67353540","store_key":145,"city":"Meridian"},{"name":"The Vinyl Garage","lat":"47.80648340","long":"-122.26297630","store_key":2348,"city":"Lynnwood"},{"name":"The Record Space","lat":"38.55614390","long":"-90.30976720","store_key":2358,"city":"St. Louis"},{"name":"Atomic Wax","lat":"31.76086790","long":"-106.48454600","store_key":2360,"city":"El Paso"},{"name":"Heavy Heads Records","lat":"37.21003200","long":"-93.29285050","store_key":2361,"city":"Springfield"},{"name":"Fremont Vintage Mall","lat":"47.65027700","long":"-122.35014500","store_key":2362,"city":"Seattle"},{"name":"Krazy Katz Vintage Vinyl Records","lat":"39.13660380","long":"-121.60638660","store_key":2363,"city":"Yuba City"},{"name":"Funhouse Records & Audio","lat":"38.22726210","long":"-85.69953480","store_key":2367,"city":"Louisville"},{"name":"Longmont Community Thrift Store","lat":"40.20190760","long":"-105.10298760","store_key":2368,"city":"Longmont"},{"name":"Weird Kid Records","lat":"32.87796000","long":"-111.72799000","store_key":2369,"city":"Casa Grande"},{"name":"Crescendo Fine Audio","lat":"39.76906600","long":"-105.07149100","store_key":2370,"city":"Denver"},{"name":"Dusty Groove","lat":"41.90217340","long":"-87.66770000","store_key":2375,"city":"Chicago"},{"name":"House of Records","lat":"44.04535600","long":"-123.08880100","store_key":2380,"city":"Eugene"},{"name":"New London Antiques Center","lat":"41.35279083","long":"-72.09548187","store_key":2384,"city":"New London"},{"name":"Last Vestige Music Shop","lat":"42.66271000","long":"-73.77668900","store_key":2385,"city":"Albany"},{"name":"Siren Records","lat":"40.31040960","long":"-75.12999800","store_key":2390,"city":"Doylestown"},{"name":"2nd Avenue Records","lat":"45.51982498","long":"-122.67337799","store_key":2392,"city":"Portland"},{"name":"Bargain CDs Records & Tapes","lat":"47.98436630","long":"-122.20119980","store_key":2397,"city":"Everett"},{"name":"Mobile Records","lat":"30.68336200","long":"-88.11488600","store_key":2402,"city":"Mobile"},{"name":"Zoinks Records","lat":"34.05747986","long":"-117.75213623","store_key":2403,"city":"Pomona"},{"name":"Bent Crayon Records","lat":"41.48408900","long":"-81.73919400","store_key":2404,"city":"Cleveland"},{"name":"Deep Thoughts JP","lat":"42.30534930","long":"-71.11443270","store_key":2405,"city":"Boston"},{"name":"Montclair Book Center","lat":"40.81388450","long":"-74.21701560","store_key":2406,"city":"Montclair"},{"name":"Vintage Vinyl","lat":"42.04717510","long":"-87.68470300","store_key":1178,"city":"Chicago"},{"name":"Stardust Records and Collectibles","lat":"43.23024750","long":"-87.98372650","store_key":2413,"city":"Thiensville"},{"name":"Factory Records","lat":"33.63007736","long":"-117.91045380","store_key":2414,"city":"Costa Mesa"},{"name":"Vinyl Solution Records","lat":"37.54342160","long":"-122.30803390","store_key":2415,"city":"San Mateo"},{"name":"Stax Of Trax","lat":"40.79415050","long":"-77.85959360","store_key":2416,"city":"State College"},{"name":"Flip Side Record Parlor","lat":"29.35627880","long":"-98.50551180","store_key":2419,"city":"San Antonio"},{"name":"Weird Harolds Records","lat":"40.81001750","long":"-91.10444860","store_key":2420,"city":"Burlington"},{"name":"Rainbow Records","lat":"34.52985700","long":"-82.66199160","store_key":1018,"city":"Anderson"},{"name":"Big Frog Music Co","lat":"34.86709460","long":"-84.32288640","store_key":2422,"city":"Blue Ridge"},{"name":"Zions Gate Records","lat":"47.61426544","long":"-122.31783295","store_key":2425,"city":"Seattle"},{"name":"JTB's Groovy Record Room","lat":"36.49309300","long":"-86.59464230","store_key":2426,"city":"Cottontown"},{"name":"The Sound Explosion","lat":"42.28176790","long":"-83.32858610","store_key":2444,"city":"Inkster"},{"name":"Electric Ladyland","lat":"38.22410450","long":"-85.68922740","store_key":2448,"city":"Louisville"},{"name":"Cheapo Records","lat":"45.13097700","long":"-93.26083790","store_key":271,"city":"Minneapolis"},{"name":"Ab Cd's","lat":"47.67502450","long":"-117.39629920","store_key":2449,"city":"Spokane"},{"name":"The Record Stop","lat":"32.39088230","long":"-86.25832710","store_key":2450,"city":"Montgomery"},{"name":"Bull Moose","lat":"44.83752550","long":"-68.74138800","store_key":2008,"city":"Bangor"},{"name":"Beatlab","lat":"30.24857300","long":"-97.76752000","store_key":2456,"city":"Austin"},{"name":"Exploded","lat":"30.30722618","long":"-97.72492981","store_key":2482,"city":"Austin"},{"name":"Bull Moose","lat":"43.07609420","long":"-70.75933710","store_key":2008,"city":"Portsmouth"},{"name":"Black Water Records","lat":"45.54102960","long":"-122.66284510","store_key":2483,"city":"Portland"},{"name":"1709 Records","lat":"45.63444700","long":"-122.67023800","store_key":2484,"city":"Vancouver"},{"name":"2nd & Charles","lat":"34.07329430","long":"-81.16059010","store_key":507,"city":"Columbia"},{"name":"Armadillo Music","lat":"38.54372970","long":"-121.74027920","store_key":2487,"city":"Davis"},{"name":"Books & Melodies","lat":"43.06852341","long":"-76.10985565","store_key":2488,"city":"Syracuse"},{"name":"Caydence Records & Coffee","lat":"44.96833570","long":"-93.07331170","store_key":2489,"city":"Saint Paul"},{"name":"Cheap Kiss Records","lat":"41.88930893","long":"-87.97025299","store_key":2490,"city":"Chicago"},{"name":"Everybody's Music","lat":"45.63213800","long":"-122.66906900","store_key":2491,"city":"Vancouver"},{"name":"Hat Trick Records & Darts","lat":"41.30469300","long":"-82.97518300","store_key":2493,"city":"Clyde"},{"name":"Music Connection","lat":"40.90403840","long":"-74.12712680","store_key":2494,"city":"Elmwood Park"},{"name":"Philadelphia Record Exchange","lat":"39.97355270","long":"-75.13388062","store_key":2495,"city":"Philadelphia"},{"name":"Sgt Peppers Music & Video","lat":"40.37638860","long":"-105.52203030","store_key":2496,"city":"Estes Park"},{"name":"The Exchange","lat":"41.11996420","long":"-81.47469950","store_key":32,"city":"Cuyahoga Falls"},{"name":"That's Entertainment","lat":"42.26552400","long":"-71.81908700","store_key":2497,"city":"Worcester"},{"name":"Lost Wax Records","lat":"45.51952090","long":"-123.11421030","store_key":2503,"city":"Forest Grove"},{"name":"The Record Booth","lat":"33.94611230","long":"-83.34671190","store_key":2505,"city":"Athens"},{"name":"Black Dog Records","lat":"29.80237590","long":"-95.41122770","store_key":2509,"city":"Houston"},{"name":"Dark Realm Records","lat":"33.92836160","long":"-118.14195450","store_key":2511,"city":"Los Angeles"},{"name":"Ernie November","lat":"45.78435740","long":"-108.56321500","store_key":2524,"city":"Billings"},{"name":"Main Street Jams","lat":"35.74632400","long":"-81.68887000","store_key":2534,"city":"Morganton"},{"name":"The Current Year Record Room","lat":"41.48078450","long":"-81.71292060","store_key":2539,"city":"Cleveland"},{"name":"Wormhole Vinyl","lat":"40.89172730","long":"-73.34238500","store_key":2540,"city":"Northport"},{"name":"Uncle Tony's Donut Shoppe","lat":"38.90480950","long":"-77.04758630","store_key":532,"city":"Washington"},{"name":"Reckless Records","lat":"41.93976380","long":"-87.65268660","store_key":1171,"city":"Chicago"},{"name":"Mystery Train Records","lat":"42.37837340","long":"-72.52062590","store_key":2556,"city":"Amherst"},{"name":"Lunchbox Records","lat":"35.22188200","long":"-80.82343500","store_key":2559,"city":"Charlotte"},{"name":"Yesterday And Today Records","lat":"25.73241997","long":"-80.34485626","store_key":2573,"city":"Miami"},{"name":"Som Records","lat":"38.91532200","long":"-77.03167100","store_key":2574,"city":"Washington"},{"name":"CDepot","lat":"39.00087890","long":"-76.93021060","store_key":2575,"city":"College Park"},{"name":"Doc's Records & Vintage","lat":"32.75741760","long":"-97.35419770","store_key":2576,"city":"Fort Worth"},{"name":"Jazz Record Center","lat":"40.74660690","long":"-73.99592900","store_key":2577,"city":"New York"},{"name":"Laurie's Planet of Sound","lat":"41.96604919","long":"-87.68662262","store_key":2588,"city":"Chicago"},{"name":"Velouria Records","lat":"36.32995270","long":"-119.29211700","store_key":2593,"city":"Visalia"},{"name":"Toxic Beauty Records","lat":"39.80605110","long":"-83.88878790","store_key":2595,"city":"Yellow Springs"},{"name":"Rons Closet","lat":"30.22947502","long":"-90.88306427","store_key":2596,"city":"Gonzales"},{"name":"Lucky Records","lat":"40.79773331","long":"-81.93948364","store_key":1614,"city":"Wooster"},{"name":"Sweet Spot Audio","lat":"29.54662470","long":"-95.12738530","store_key":2601,"city":"Webster"},{"name":"George's Song Shop","lat":"40.32661700","long":"-78.91963480","store_key":2603,"city":"Johnstown"},{"name":"Bogbean Books & Music","lat":"40.58147450","long":"-122.39171100","store_key":2604,"city":"Redding"},{"name":"Normal's Books & Records","lat":"39.32594950","long":"-76.60998330","store_key":2605,"city":"Baltimore"},{"name":"Request Music","lat":"20.88806490","long":"-156.50149030","store_key":2606,"city":"Wailuku"},{"name":"El Zarape Record Shop","lat":"27.51950300","long":"-97.86621090","store_key":2607,"city":"Kingsville"},{"name":"Vintage Sounds","lat":"29.78592030","long":"-95.57191720","store_key":2608,"city":"Houston"},{"name":"Vinyl Guru Record Shop","lat":"41.49383690","long":"-71.30978520","store_key":2610,"city":"Newport"},{"name":"Plaza Records","lat":"37.72869873","long":"-89.20398712","store_key":2616,"city":"Carbondale"},{"name":"B-Side Records","lat":"43.07501810","long":"-89.39241260","store_key":2617,"city":"Madison"},{"name":"Repo Record","lat":"35.20847300","long":"-80.79058900","store_key":2632,"city":"Charlotte"},{"name":"Sweet Melissa Records","lat":"33.95214100","long":"-84.54913090","store_key":2636,"city":"Marietta"},{"name":"Beatlab","lat":"33.76676060","long":"-84.34969570","store_key":2456,"city":"Atlanta"},{"name":"Sidetracks Music","lat":"38.02895100","long":"-78.48167790","store_key":2643,"city":"Charlottesville"},{"name":"Square Cat Vinyl","lat":"39.75277710","long":"-86.14036560","store_key":2655,"city":"Indianapolis"},{"name":"Big Jim's Records","lat":"41.10852900","long":"-73.79579370","store_key":2671,"city":"Hawthorne"},{"name":"Guitar Gallery","lat":"33.31864400","long":"-86.79706040","store_key":2672,"city":"Pelham"},{"name":"Salt Box Records","lat":"34.06496690","long":"-118.23798240","store_key":2674,"city":"Los Angeles"},{"name":"CD Universe","lat":"32.98754090","long":"-96.84391490","store_key":2675,"city":"Dallas"},{"name":"Songbyrd Record Cafe and Music House","lat":"38.92238235","long":"-77.04226685","store_key":2676,"city":"Washington"},{"name":"Music Connection","lat":"29.40517630","long":"-98.63099850","store_key":2494,"city":"San Antonio"},{"name":"Material World Records & Tapes","lat":"40.70407100","long":"-73.92985250","store_key":2678,"city":"New York"},{"name":"Studio G Vinyl Records","lat":"32.21801220","long":"-110.97040610","store_key":2680,"city":"Tucson"},{"name":"Innergroove Records","lat":"47.19099330","long":"-122.29116850","store_key":2681,"city":"Puyallup"},{"name":"Blue Shark Antiques & Collectibles","lat":"38.30290620","long":"-77.45927840","store_key":2683,"city":"Fredericksburg"},{"name":"Bob The Record Guy","lat":"42.92010820","long":"-78.69641600","store_key":2685,"city":"Depew"},{"name":"101 Music","lat":"37.80002594","long":"-122.40736389","store_key":2687,"city":"San Francisco"},{"name":"Independent Records & Video","lat":"38.84009110","long":"-104.77223810","store_key":1901,"city":"Colorado Springs"},{"name":"Speakertree Records","lat":"37.41570960","long":"-79.14051160","store_key":2689,"city":"Lynchburg"},{"name":"Slackers","lat":"38.77489170","long":"-90.70185010","store_key":2694,"city":"O'Fallon"},{"name":"Small Friend Records & Books","lat":"37.53443710","long":"-77.42746480","store_key":2695,"city":"Richmond"},{"name":"Ripe Records Detroit","lat":"42.38589330","long":"-82.94207420","store_key":2701,"city":"Grosse Pointe Park"},{"name":"Explore the Attic","lat":"34.24225240","long":"-111.31123120","store_key":2706,"city":"Payson"},{"name":"Audiophil's Records","lat":"41.52612200","long":"-88.08078270","store_key":2712,"city":"Joliet"},{"name":"Barnes & Noble","lat":"39.60919350","long":"-105.08944450","store_key":2714,"city":"Littleton"},{"name":"Buddha's Bazaar","lat":"35.25664030","long":"-81.10993270","store_key":2715,"city":"Gastonia"},{"name":"FYE","lat":"39.82368020","long":"-75.54338490","store_key":145,"city":"Wilmington"},{"name":"Elevator Vinyl","lat":"36.30349820","long":"-86.61567860","store_key":2720,"city":"Hendersonville"},{"name":"St. Pete Records","lat":"27.77057420","long":"-82.72944830","store_key":2722,"city":"St. Petersburg"},{"name":"Fly Vintage & Vinyl","lat":"45.02067680","long":"-93.32916460","store_key":2723,"city":"Minneapolis"},{"name":"FYE","lat":"30.41740190","long":"-86.65725410","store_key":145,"city":"Mary Esther"},{"name":"FYE","lat":"26.53386850","long":"-80.09553580","store_key":145,"city":"Boynton Beach"},{"name":"FYE","lat":"28.66658240","long":"-81.37839260","store_key":145,"city":"Altamonte Springs"},{"name":"FYE","lat":"40.21753660","long":"-111.66350020","store_key":145,"city":"Provo"},{"name":"FYE","lat":"40.99031140","long":"-75.22469760","store_key":145,"city":"Stroudsburg"},{"name":"FYE","lat":"43.10227090","long":"-73.73879830","store_key":145,"city":"Saratoga Springs"},{"name":"FYE","lat":"39.97982000","long":"-74.17794670","store_key":145,"city":"Toms River"},{"name":"Revolution Records","lat":"27.77961810","long":"-82.70039330","store_key":671,"city":"St. Petersburg"},{"name":"GotWhatULike Records","lat":"38.91413498","long":"-94.52325439","store_key":2754,"city":"Kansas City"},{"name":"Newbury Comics","lat":"41.82699800","long":"-71.41665200","store_key":820,"city":"Providence"},{"name":"2nd & Charles","lat":"29.67611694","long":"-82.33857727","store_key":507,"city":"Gainesville"},{"name":"2nd & Charles","lat":"34.06021650","long":"-83.99360330","store_key":507,"city":"Buford"},{"name":"2nd & Charles","lat":"40.64511490","long":"-75.49472046","store_key":507,"city":"Allentown"},{"name":"Allied Record Exchange","lat":"41.60916670","long":"-83.66527780","store_key":2756,"city":"Toledo"},{"name":"BJ Music","lat":"34.97578810","long":"-81.93527000","store_key":2757,"city":"Spartanburg"},{"name":"Hybrid Records","lat":"27.73062325","long":"-97.37281799","store_key":2758,"city":"Corpus Christi"},{"name":"Rev Charles' Dodds Record Shop","lat":"42.97057100","long":"-85.68807000","store_key":2759,"city":"Grand Rapids"},{"name":"Garageland","lat":"47.65819160","long":"-117.41461540","store_key":2760,"city":"Spokane"},{"name":"Graywhale Entertainment","lat":"41.18933400","long":"-111.98169800","store_key":2761,"city":"Ogden"},{"name":"Green Tangerine Records","lat":"41.93003020","long":"-88.76938140","store_key":2762,"city":"DeKalb"},{"name":"Highland Records","lat":"38.23028946","long":"-85.70372772","store_key":2763,"city":"Louisville"},{"name":"Time Machine Music","lat":"33.87520218","long":"-84.67496490","store_key":2765,"city":"Powder Springs"},{"name":"Vinyl Fantasy","lat":"40.70343910","long":"-73.92691330","store_key":2766,"city":"New York"},{"name":"Vinyl Bay 777","lat":"40.79755400","long":"-73.46410900","store_key":2767,"city":"Plainview"},{"name":"Watts Music","lat":"38.10791890","long":"-122.57314200","store_key":2768,"city":"Novato"},{"name":"Joe's Albums","lat":"42.26574100","long":"-71.80100800","store_key":2775,"city":"Worcester"},{"name":"The Mixtape Shop","lat":"40.68487167","long":"-73.95397186","store_key":2779,"city":"New York"},{"name":"Purple Narwhal Music & Manga","lat":"39.08882260","long":"-77.14897240","store_key":2793,"city":"Rockville"},{"name":"Crazy Rhythms Vinyl Records","lat":"29.46014100","long":"-98.46771280","store_key":2794,"city":"San Antonio"},{"name":"CRAFT & VINYL - Craft Beer Pub & Record Shop","lat":"39.98943200","long":"-83.05487400","store_key":2799,"city":"Columbus"},{"name":"The Merchant Company","lat":"43.65305900","long":"-70.26553100","store_key":2802,"city":"Portland"},{"name":"Cocoa's Vinyl & Vibes LLC","lat":"30.38480160","long":"-87.09728930","store_key":2803,"city":"Gulf Breeze"},{"name":"Revolver Records","lat":"35.25666140","long":"-81.10955500","store_key":67,"city":"Gastonia"},{"name":"Books by the River","lat":"41.45257450","long":"-72.46093130","store_key":2807,"city":"East Haddam"},{"name":"Pop Culture Antiques: The Yellow Door","lat":"39.57206500","long":"-76.99242120","store_key":2812,"city":"Westminster"},{"name":"Tone Army Records","lat":"37.95059250","long":"-121.95642080","store_key":2816,"city":"Concord"},{"name":"Soul Shack Records","lat":"32.76312300","long":"-117.11652500","store_key":2818,"city":"San Diego"},{"name":"Hometown Music & Pawn","lat":"37.10946340","long":"-113.56797940","store_key":2820,"city":"St. George"},{"name":"Prospector Records","lat":"45.48678470","long":"-122.59069830","store_key":2826,"city":"Portland"},{"name":"Moustique Music and Boutique","lat":"46.00774830","long":"-92.93168930","store_key":2833,"city":"Hinckley"},{"name":"Record City & Clothing","lat":"33.39071400","long":"-112.07429040","store_key":2835,"city":"Phoenix"},{"name":"Sweet Livin' Antiques, Arts & Records","lat":"41.64319800","long":"-91.53398820","store_key":2836,"city":"Iowa City"},{"name":"The Times Vintage","lat":"41.10423200","long":"-72.36020100","store_key":2837,"city":"Greenport"},{"name":"Underground Vinyl","lat":"42.33173330","long":"-83.06327570","store_key":2839,"city":"Detroit"},{"name":"Bookmans Entertainment Exchange","lat":"35.18608590","long":"-111.65941960","store_key":2846,"city":"Flagstaff"},{"name":"Alma Music & Audio","lat":"32.83440100","long":"-117.15086300","store_key":2853,"city":"San Diego"},{"name":"For the Record... Viva La Vinyl","lat":"38.70139870","long":"-90.14725670","store_key":2866,"city":"Granite City"},{"name":"RocknShop - Vinyl records","lat":"34.15298860","long":"-84.81601540","store_key":2872,"city":"Cartersville"},{"name":"Jet Age Records","lat":"39.08917880","long":"-84.49076610","store_key":2874,"city":"Newport"},{"name":"Traffic Record Store","lat":"35.49041800","long":"-120.66994440","store_key":2876,"city":"Atascadero"},{"name":"FYE","lat":"33.99470290","long":"-86.00817270","store_key":145,"city":"Gadsden"},{"name":"FYE","lat":"39.90892900","long":"-86.06729210","store_key":145,"city":"Indianapolis"},{"name":"FYE","lat":"40.47312800","long":"-86.10909870","store_key":145,"city":"Kokomo"},{"name":"FYE","lat":"41.59892730","long":"-87.55603830","store_key":145,"city":"Calumet City"},{"name":"FYE","lat":"35.37711150","long":"-77.94315130","store_key":145,"city":"Goldsboro"},{"name":"FYE","lat":"42.70063790","long":"-71.43631330","store_key":145,"city":"Nashua"},{"name":"FYE","lat":"39.62440430","long":"-77.77139720","store_key":145,"city":"Hagerstown"},{"name":"Rochester Underground Records","lat":"44.03052040","long":"-92.47857570","store_key":2881,"city":"Rochester"},{"name":"The House of Used Movies | Games | Music","lat":"33.42326500","long":"-111.77260600","store_key":2883,"city":"Mesa"},{"name":"Spinners Record Shop","lat":"35.77529440","long":"-86.91279030","store_key":2900,"city":"Spring Hill"},{"name":"Head Sounds Records","lat":"40.68683340","long":"-73.97471940","store_key":2902,"city":"New York"},{"name":"Mxxnshine Records","lat":"33.97818450","long":"-118.03705460","store_key":2903,"city":"Whittier"},{"name":"Electric Fetus","lat":"44.96225840","long":"-93.27038880","store_key":2912,"city":"Minneapolis"},{"name":"Groove Merchant Records","lat":"37.77152650","long":"-122.43344580","store_key":2918,"city":"San Francisco"},{"name":"Jackpot Records","lat":"45.51193700","long":"-122.62718540","store_key":2928,"city":"Portland"},{"name":"Indy CD & Vinyl","lat":"39.86979930","long":"-86.14459550","store_key":2932,"city":"Indianapolis"},{"name":"Left of the Dial Records","lat":"33.74772400","long":"-117.86470970","store_key":2934,"city":"Santa Ana"},{"name":"Found Sound","lat":"42.46069050","long":"-83.13696070","store_key":2935,"city":"Detroit"},{"name":"Melodies & Memories","lat":"42.46722000","long":"-82.95691910","store_key":2936,"city":"Eastpointe"},{"name":"Luna Music","lat":"39.84704420","long":"-86.14604380","store_key":2938,"city":"Indianapolis"},{"name":"Bull City Records","lat":"36.01081400","long":"-78.92877600","store_key":2939,"city":"Durham"},{"name":"Double Decker Records","lat":"40.59129820","long":"-75.46930900","store_key":2941,"city":"Allentown"},{"name":"Buch Spieler Records","lat":"44.26045227","long":"-72.57548523","store_key":2942,"city":"Montpelier"},{"name":"Toad Hall Books and Records","lat":"42.25262740","long":"-89.06287820","store_key":2943,"city":"Rockford"},{"name":"FeeLit","lat":"32.71452713","long":"-117.15624237","store_key":2948,"city":"San Diego"},{"name":"Hunky Dory","lat":"36.00844030","long":"-78.92196870","store_key":2950,"city":"Durham"},{"name":"Record Smith PA","lat":"40.21368027","long":"-77.00814056","store_key":2955,"city":"Mechanicsburg"},{"name":"Ignition Music Garage","lat":"41.58486500","long":"-85.83339500","store_key":2956,"city":"Goshen"},{"name":"Angry Mom Records","lat":"42.43930054","long":"-76.49821472","store_key":2957,"city":"Ithaca"},{"name":"Hill & Dale Records","lat":"38.90454700","long":"-77.06176100","store_key":2958,"city":"Washington"},{"name":"Shady Dog Record & Disc Exchange","lat":"40.04774770","long":"-75.44131080","store_key":2959,"city":"Berwyn"},{"name":"Reckless Records","lat":"41.90706860","long":"-87.67182980","store_key":1171,"city":"Chicago"},{"name":"Manny's","lat":"44.21024704","long":"-69.06633759","store_key":2987,"city":"Camden"},{"name":"Metro City Records","lat":"42.97638702","long":"-71.44540405","store_key":2989,"city":"Manchester"},{"name":"Barely Brothers Records","lat":"44.96502680","long":"-93.19772490","store_key":2994,"city":"Saint Paul"},{"name":"Rasputin Music","lat":"37.96274960","long":"-122.06247670","store_key":1624,"city":"Pleasant Hill"},{"name":"Vortex Music & Movies","lat":"47.71172110","long":"-122.18820840","store_key":2997,"city":"Kirkland"},{"name":"Sound Shack Newburgh","lat":"41.51888770","long":"-74.01894960","store_key":2999,"city":"Newburgh"},{"name":"Birdland Music","lat":"36.81298900","long":"-76.16935400","store_key":3013,"city":"Virginia Beach"},{"name":"2nd Chance Tech","lat":"45.42739120","long":"-84.90854540","store_key":3014,"city":"Harbor Springs"},{"name":"Brooklyn Record Exchange","lat":"40.70933750","long":"-73.92323130","store_key":3019,"city":"New York"},{"name":"Old's Cool","lat":"36.99884210","long":"-79.89247690","store_key":3020,"city":"Rocky Mount"},{"name":"Studio Records","lat":"33.92000880","long":"-118.41731080","store_key":1957,"city":"Los Angeles"},{"name":"Serge Records","lat":"33.17868280","long":"-117.36568530","store_key":3023,"city":"Oceanside"},{"name":"2nd & Charles","lat":"38.88817270","long":"-77.41990350","store_key":507,"city":"Chantilly"},{"name":"Spoonful Records","lat":"39.95788160","long":"-82.99461720","store_key":3032,"city":"Columbus"},{"name":"Concreta Sala","lat":"25.77446300","long":"-80.19094170","store_key":3033,"city":"Miami"},