[{"name":"Darkroom Cafe","lat":"10.77759460","long":"106.68657330","store_key":548,"city":"Ho Chi Minh"},{"name":"Rita Records @ RAND Moroc & Coffee","lat":"21.01551700","long":"105.85950300","store_key":764,"city":"Hanoi"},{"name":"LP Club","lat":"21.02115140","long":"105.84693860","store_key":774,"city":"Hanoi"},{"name":"JOLIE music","lat":"10.82109261","long":"106.63782501","store_key":2176,"city":"Ho Chi Minh"},{"name":"Fox Music","lat":"21.03173256","long":"105.85088348","store_key":2965,"city":"Hanoi"},{"name":"Ho Guom Audio","lat":"21.03333282","long":"105.84999847","store_key":5936,"city":"Hanoi"},{"name":"Hot Music Tape Disc Shop","lat":"20.91318130","long":"106.67243958","store_key":6955,"city":"Hai Phong City"},{"name":"Rita Records","lat":"21.03744430","long":"105.83162170","store_key":2498,"city":"Hanoi"},{"name":"Analog Audio","lat":"10.78669100","long":"106.67886500","store_key":7125,"city":"Ho Chi Minh"},{"name":"Hãng Đĩa Thời Đại / Times Records","lat":"10.79182680","long":"106.68794890","store_key":7223,"city":"Unknown"},{"name":"Coffee Music Shop","lat":"10.76627922","long":"106.68251038","store_key":7360,"city":"Ho Chi Minh"}]