[{"name":"Kandi Records","lat":"-33.94885250","long":"18.48083610","store_key":363,"city":"Cape Town"},{"name":"Record Mad","lat":"-26.14093260","long":"27.99235850","store_key":654,"city":"Johannesburg"},{"name":"Revolution Records","lat":"-33.93998600","long":"18.46899500","store_key":671,"city":"Cape Town"},{"name":"The Listening Room","lat":"-33.91524320","long":"18.41779370","store_key":1504,"city":"Cape Town"},{"name":"Mabu Vinyl","lat":"-33.92653680","long":"18.41482600","store_key":1507,"city":"Cape Town"},{"name":"Memories Antiques & Collectables","lat":"-25.98116100","long":"28.08546300","store_key":1599,"city":"Johannesburg"},{"name":"JUST CD'S Music Shop","lat":"-26.19257164","long":"28.03387451","store_key":2247,"city":"Johannesburg"},{"name":"Multi-Racial Records","lat":"-25.75140572","long":"28.24057770","store_key":2504,"city":"Pretoria"},{"name":"Club Vinyl","lat":"-26.84863000","long":"26.66872000","store_key":2898,"city":"Klerksdorp"},{"name":"Echo's Record Bar","lat":"-26.23783810","long":"28.32554530","store_key":3192,"city":"Brakpan"},{"name":"The Moral Kiosk","lat":"-26.17721110","long":"28.00863770","store_key":3551,"city":"Johannesburg"},{"name":"The Other Records","lat":"-33.93694000","long":"18.46844000","store_key":3826,"city":"Cape Town"},{"name":"Treasures & Trash","lat":"-29.46613890","long":"30.15527780","store_key":4030,"city":"Lions River"},{"name":"ROASTIN' RECORDS","lat":"-33.93184000","long":"18.41574000","store_key":4140,"city":"Cape Town"},{"name":"Mr Vinyl","lat":"-26.18547058","long":"28.01902008","store_key":4643,"city":"Johannesburg"},{"name":"Musica","lat":"-25.77143478","long":"28.23460960","store_key":4676,"city":"Pretoria"},{"name":"Afrosynth Records","lat":"-26.20300240","long":"28.06003380","store_key":4829,"city":"Johannesburg"},{"name":"Microgram","lat":"-26.20410347","long":"28.04730415","store_key":5256,"city":"Johannesburg"},{"name":"Khaya Records","lat":"-29.83734010","long":"31.01878400","store_key":5602,"city":"Durban"},{"name":"Stash Records","lat":"-25.77192307","long":"28.25281906","store_key":5621,"city":"Pretoria"},{"name":"Micogram Music Traders","lat":"-26.17524900","long":"28.00732900","store_key":6434,"city":"Johannesburg"},{"name":"Voom Voom Records & Vintage","lat":"-33.94207001","long":"18.46863937","store_key":6766,"city":"Cape Town"},{"name":"Collectors Treasury","lat":"-26.20408300","long":"28.05564750","store_key":6782,"city":"Johannesburg"},{"name":"Just CD's Music Shop","lat":"-26.20475197","long":"28.04351044","store_key":7256,"city":"Johannesburg"},{"name":"Vinyl Joint","lat":"-26.21032333","long":"28.04435539","store_key":7257,"city":"Johannesburg"},{"name":"Deer Hunter","lat":"-33.92700780","long":"18.45648440","store_key":7355,"city":"Cape Town"}]