City;Name;Country code;Has closed;supporter;state;Latitude;Longitude;placeidh;Geolocation;Rate
Paris;Librairie L' Arnaqueur;FR;no;0;;48.90233600;2.34199020;345d0be1dbba71a7333f3a14425edd39;48.902336,2.3419902;
Madrid;Discos Libros Loner;ES;no;0;;40.43538666;-3.64429688;70a6aa871e0dd29d55ff704af25bee9f;40.43538666,-3.64429688;
Torino;Frau Musika;IT;no;0;;45.06772614;7.69056702;b1e8d3ad2b1c9e5d30ce2098d765cf73;45.06772614,7.69056702;
Anaheim;Radiation Records;US;no;0;CA;33.85675580;-117.90725160;8c67297c5276e898b93db7824fff41f0;33.8567558,-117.9072516;
Villa María;FM Musical;AR;no;0;;-32.41096878;-63.24386978;81f985b25e0dde8e3932b57f08c27e8e;-32.41096878,-63.24386978;
Santiago de Compostela;Chafaris;ES;no;0;;42.88195801;-8.54239273;24e99fb802875755657104d04ce5ea7d;42.88195801,-8.54239273;
Madrid;El Corte Inglés;ES;no;0;;40.41988100;-3.70545730;6c3daa64c804f516b364e4ddc9ab1d7b;40.419881,-3.7054573;
London;Container Records;GB;no;0;;51.46362020;-0.11241710;4bc6c10c5e56258f38a70587cd5cdd9f;51.4636202,-0.1124171;
Melbourne;Nowhere Special;AU;no;0;;-37.77076630;144.97162810;e0cc3fa68d4ed7d449520c35127958b6;-37.7707663,144.9716281;
Aurillac;Leclerc Culturel;FR;no;0;;44.91211160;2.44102480;612bfb42b2f3fede4a06f4aec66fbb1a;44.9121116,2.4410248;
Bath;Resolution Records;GB;no;0;;51.38140390;-2.36678930;ccc9772a5e627d240fecdff962c8a8bc;51.3814039,-2.3667893;
Bournemouth;Rose Red Records;GB;no;0;;50.72654640;-1.84054930;7b59fa49fc691cf4e754120a91e0d0c2;50.7265464,-1.8405493;
Truro;Music Nostalgia;GB;no;0;;50.26285170;-5.04982500;bc44cc7a8dc7ee1047689eb88c236084;50.2628517,-5.049825;
Kansas City;Boss Vintage;US;no;0;MO;39.09955220;-94.57999120;bcead3e3b7edbfcc14cde76a3b21773c;39.0995522,-94.5799912;
Chester;hmv;GB;no;0;;53.19029880;-2.88894230;201057f79322b6cc104da1511b0a9714;53.1902988,-2.8889423;
Aberdeen;hmv;GB;no;0;;57.14564060;-2.10139540;91e26f0c4ae163293d6bced7a069fde4;57.1456406,-2.1013954;
Milton Keynes;hmv;GB;no;0;;52.04246880;-0.75788910;cc7cd9fa5a04e42d51e8941fbdbbc14c;52.0424688,-0.7578891;
Folkestone;Vintage & Vinyl;GB;no;0;;51.08043289;1.18409204;cbe0b932a12fa377d97dd2c2b641ea10;51.08043289,1.18409204;
Leicester;Beat Route;GB;no;0;;52.63507342;-1.13444060;;52.63507342,-1.1344406;
Portland;Electric Buddhas;US;no;0;ME;43.65503440;-70.26131960;9e76e5d1f202387054fb809c952b2d30;43.6550344,-70.2613196;
Milwaukee;Luv Unlimited;US;no;0;WI;42.99669600;-87.89831200;ce48ccee09b6d8dd1fbc2bf1bbe335e6;42.996696,-87.898312;
Gadsden;Cosmic Debris;US;no;0;AL;34.01480900;-86.00789250;32e316e92f3cb1d5fa2b56c21b35672c;34.014809,-86.0078925;
State College;The Music Underground;US;no;0;PA;40.79276160;-77.86308720;3135904d913ad9926ce2230119fe02f5;40.7927616,-77.8630872;
Santiago;Vinilos Club;CL;no;0;;-33.43762972;-70.64279677;76fd0b11a81a27b81e22ecddb53e273e;-33.43762972,-70.64279677;
Minneapolis;The Book House in Dinkytown;US;no;0;MN;44.98061580;-93.23644550;5066703aa2007ad561a2f2c648bad8bd;44.9806158,-93.2364455;
Marietta;CD Warehouse;US;no;0;GA;34.01448530;-84.55022600;85a6a2f982be95ea44531c3f6a9ad01a;34.0144853,-84.550226;
Saint Charles;C D Reunion;US;no;0;MO;38.78063965;-90.51988220;980462299a20b6d7e077686580eda0ac;38.78063965,-90.5198822;
Astoria;Terry's Mallternative;US;no;0;OR;46.18960120;-123.83070640;b1ddc13cdc57a15d184e001955494b4b;46.1896012,-123.8307064;
Prague;Bontonland Megastore Praha;CZ;no;0;;50.08410280;14.42417220;24e8d1faa9c8293364f6fc296e628643;50.0841028,14.4241722;
New York;Mercer Street Books & Records;US;no;0;NY;40.72665750;-73.99670880;bbdaebdd1206dc9755a67316e4a1d1ce;40.7266575,-73.9967088;
Murfreesboro;Media Rerun;US;no;0;TN;35.82963181;-86.34749603;fcc56a544ab71e5176b604dac1a6ed4b;35.82963181,-86.34749603;
La Crosse;Old Towne Strings;US;no;0;WI;43.84086990;-91.24649048;3a94dd0c2640a160b1c6d22939d57d7d;43.8408699,-91.24649048;
Seattle;Singles Going Steady;US;no;0;WA;47.61351400;-122.34520970;498f53cf9b2ab5637cc374732dcbab42;47.613514,-122.3452097;
Parkersburg;Sound Exchange;US;no;0;WV;39.29310810;-81.54684660;a3ad6cf470490c59656a57395ef839e1;39.2931081,-81.5468466;
Medina;The Exchange;US;no;0;OH;41.15731430;-81.86154175;111696419f6fd61731e9ccf997a67ffe;41.1573143,-81.86154175;
Los Angeles;Flip Side;US;no;0;CA;34.17137710;-118.56771540;e4a18c65c3ab488a268cf1e586add0ef;34.1713771,-118.5677154;
Oneonta;The Vinyl Music Vault;US;no;0;NY;42.45557800;-75.05924900;cfc2c2c0eb5b5438db93948401739018;42.455578,-75.059249;
Manaus;Império Sebo e Antiquário;BR;no;0;;-3.12621188;-60.02774048;c12cac1d16310a2d43fc94602545cb65;-3.12621188,-60.02774048;
Hong Kong;Lamma Vinyl;HK;no;0;;22.22576520;114.11174670;af3837b92b07e62ad085a473a6956d1a;22.2257652,114.1117467;
Roma;Not Perfect;IT;no;0;;41.90063260;12.53627160;5c8db5fbe8a5d0a59153af2176df3a79;41.9006326,12.5362716;
Kanazawa;Estacio Records;JP;no;0;;36.55578613;136.65745544;d41d8cd98f00b204e9800998ecf8427e;36.55578613,136.65745544;
Tokyo;General Record Store;JP;no;0;;35.66205540;139.66941390;108902b37386ff5a87b8f80d4391473e;35.6620554,139.6694139;
Tokyo;Neds;JP;no;0;;35.69451500;139.69909400;74980cbc44191d58639b044e24fbc84d;35.694515,139.699094;
Tokyo;Universounds;JP;no;0;;35.70356020;139.64858650;b59edf850af6378ce7f62ffb2747be47;35.7035602,139.6485865;
London;Project Vinyl;GB;no;0;;51.41870880;-0.08154900;;51.4187088,-0.081549;
Kirkcaldy;KCC Vinyl Record Store;GB;no;0;;56.11282600;-3.15508850;b24ae1243702a5f04d7966f5ed06f937;56.112826,-3.1550885;
Limoges;Techno Hard Core;FR;no;0;;45.82925650;1.26049760;71f7af53f7943979331b460bf00e7390;45.8292565,1.2604976;
Göttingen;Entertainment Store;DE;no;0;;51.53097153;9.93314171;ab6187e104b7153aaf4853b493e90f3c;51.53097153,9.93314171;
Lima;Classic Records - Tienda De Discos De Vinilo;PE;no;0;;-12.05083170;-77.03947120;8ee6652a3857e59e7d0491f8a583ac53;-12.0508317,-77.0394712;
Lima;Los Luchos del Vinilo;PE;no;0;;-12.05097294;-77.03947449;d41d8cd98f00b204e9800998ecf8427e;-12.05097294,-77.03947449;
Wrocław;Shopiq;PL;no;0;;51.10930634;17.02454185;ad0ea3180dd76bd46aa43c292e6c781d;51.10930634,17.02454185;
Moskva;2B Rekord;RU;no;0;;55.68712997;37.53455353;dce138ac1ec603a56f23ba55c782e84d;55.68712997,37.53455353;
Caracas;ARIAH RECORDS;VE;no;0;;10.49336910;-66.87586975;4c63aca38900436999cfcd0436373e75;10.4933691,-66.87586975;
Seoul;Hyundai Card Music Library;KR;no;0;;37.53662400;127.00068900;320964daeef6f43990ea6c1d16dc3c20;37.536624,127.000689;
Edmond;3 Dachshunds;US;no;0;OK;35.65256370;-97.51690480;899ca47b09c07c95a206d6bb5f3d8b55;35.6525637,-97.5169048;
New Bedford;Purchase Street Records;US;no;0;MA;41.63469970;-70.92605130;c519b028cadcce9b38455ab8cb37415e;41.6346997,-70.9260513;
New York;2 Bridges Music Arts;US;no;0;NY;40.71363700;-73.99413270;da598efca4978ee44da52864132f3e19;40.713637,-73.9941327;
Springfield;Elf Shelf Books & Music;US;no;0;IL;39.80082321;-89.65016174;52d87ea75fd8da9d3b52eab24ebe056b;39.80082321,-89.65016174;
Haarlem;De Platenslager;NL;no;0;;52.38010788;4.64454889;34543c3bf68ff5e1ec066a19855ce8ce;52.38010788,4.64454889;
Hamburg;Back Records - Vinyl in St. Pauli;DE;no;0;;53.55352230;9.96175890;cd7f2cda7ec21bbdf31b8faeb2364279;53.5535223,9.9617589;
Belfast;Octopus's Garden - Vintage Clothing, Records and CD's;GB;no;0;;54.59646606;-5.93292284;9ff6d915770fc04456612352cdbd9e23;54.59646606,-5.93292284;
Vilnius;Vinylomania;LT;no;0;;54.67805890;25.27991960;55cc71d70310967ba8b817bc2d7aaff7;54.6780589,25.2799196;
Hull;Wrecking Ball;GB;no;0;;53.74201390;-0.33935140;d41d8cd98f00b204e9800998ecf8427e;53.7420139,-0.3393514;
Odder;Books & Music;DK;no;0;;55.97209900;10.14375850;7c1915258d83fe4d75cd26bd8a4849b7;55.972099,10.1437585;
Jersey City;Iris Records;US;no;0;NJ;40.72273100;-74.05120000;200d5c18567cad8e3aec63669a283e5b;40.722731,-74.0512;
Ciudad de México;Delco Records;MX;no;0;;19.40330830;-99.16968270;c7fcdbc7d735715915e0a12e045479fd;19.4033083,-99.1696827;
Adelaide;Transition Records;AU;no;0;;-34.92650280;138.59589020;d41d8cd98f00b204e9800998ecf8427e;-34.9265028,138.5958902;
Stafford;Double Double Good Music Emporium Record Store;GB;no;0;;52.80512800;-2.11792590;ac8a491c4f1e95c91e38ae76314dfc42;52.805128,-2.1179259;
Helsinki;Pertin Valinta;FI;no;0;;60.19144650;24.94696600;88db48968c0016b302ae0c1a1e943829;60.1914465,24.946966;
Pensacola;Revolver Records;US;no;0;FL;30.43601060;-87.20515360;99f21f33ac0ef137206c36a85754bf5a;30.4360106,-87.2051536;
Poznań;K-Wax;PL;no;0;;52.40594690;16.92523250;d41d8cd98f00b204e9800998ecf8427e;52.4059469,16.9252325;
Dublin;InDub Reggae Store;IE;no;0;;53.34470110;-6.26345160;50159b05eb531bc463357d7f6baeb2f3;53.3447011,-6.2634516;
Pittsburgh;Vinyl Remains;US;no;0;PA;40.38031600;-80.04482740;8675f92e949d96c0b30cfba0e74335fc;40.380316,-80.0448274;
Duncan;Put The Needle On The Record;US;no;0;OK;34.50119760;-97.94655960;d41d8cd98f00b204e9800998ecf8427e;34.5011976,-97.9465596;
Great Yarmouth;Good Times;GB;no;0;;52.60775870;1.73466030;4d3553c9757ccd89a3725af5671d4938;52.6077587,1.7346603;
Luleå;Takt & Ton Scandinavia;SE;no;0;;65.58534920;22.15695350;874b8b4029618fcc30ccb9cd2dddaebd;65.5853492,22.1569535;
Seoul;우주만물 宇宙萬物 CosmosWholesale;KR;no;0;;37.56766740;126.99071990;34603b4fca46aee04bcfcc75cb35c4a5;37.5676674,126.9907199;
Clermont;Triangle Vinyl;US;no;0;FL;28.55552900;-81.76706400;a2296ded0e99813c89f899d23744530d;28.555529,-81.767064;
Portsmouth;Reflex Records;GB;no;0;;50.78638150;-1.08750530;613732ad4beb18161b6986b500340707;50.7863815,-1.0875053;
Nizhnij Novgorod;Musicali Bomond - Музыкальный бомонд;RU;no;0;;56.31661370;43.99952190;0243a002505d430b7b9bf62b79863327;56.3166137,43.9995219;
Coimbra;DMN Supply - Coimbra;PT;no;0;;40.20027400;-8.43171900;b6ea5091cb54a60718bd3f0b013602ad;40.200274,-8.431719;
Canandaigua;Canandaigua Record Exchange;US;no;0;NY;42.88551340;-77.27896870;91fc109865e94cd1351804065e4dd71b;42.8855134,-77.2789687;
Hopkins;Retro Wanderlust;US;no;0;MN;44.92402800;-93.41549940;9c2e767de65cf3150db02b9b5c42eb97;44.924028,-93.4154994;
Wiesbaden;Plattenbox Vinyl An- und Verkauf;DE;no;0;;50.07872350;8.23251700;b6809364e0ec0299629a9655847bb5e2;50.0787235,8.232517;
Glens Falls;Rock Hill Bakehouse & Cafe;US;no;0;NY;43.31300060;-73.63620800;01e2f4656211ada4c858eda11086e625;43.3130006,-73.636208;
Fort Worth;Record Town;US;no;0;TX;32.74298100;-97.32908790;333b2f01e095e03a9d886f137ca9fd4c;32.742981,-97.3290879;
Leicester;Freemens Common Antiques Centre;GB;no;0;;52.61957670;-1.13259560;fe374c256095c8d3f9e8b688f59198ce;52.6195767,-1.1325956;
Pittsburgh;The Exchange Buy- Sell-Trade;US;no;0;PA;40.44103040;-79.95813040;fff97e704ae04dd20b3c10e8343354e0;40.4410304,-79.9581304;
Chalon-sur-Saône;Sympathy For The Vinyl;FR;no;0;;46.78243000;4.85722550;d41d8cd98f00b204e9800998ecf8427e;46.78243,4.8572255;
Liverpool;Dig At The Dock;GB;no;0;;53.40006600;-2.99369010;45c4824a464a748b66343d8ffbc2f60e;53.400066,-2.9936901;
Paris;Vinyl9;FR;no;0;;48.88886320;2.30587010;a7ea40f4dbcc3719e9117c83dd6c847c;48.8888632,2.3058701;
Salem;Medusa Records;US;no;0;VA;37.29250000;-80.06027780;c73c91c8044c7b029e0f70858d2dd7ec;37.2925,-80.0602778;
St. Catharines;Roly Poly Records & Vintage;CA;no;0;;43.16154870;-79.24063290;f234e40911344de0427d3780c631747e;43.1615487,-79.2406329;
Hasselt;Major Tom Record Store;BE;no;0;;50.93392563;5.32416582;652c48643d8c4ce714f7744d35707c9d;50.93392563,5.32416582;
Fort Lauderdale;Vinyl Destination;US;no;0;FL;26.13671790;-80.12123740;7163feb26dc82a06117625bdaeb53f4e;26.1367179,-80.1212374;
Bussum;Gooisch Vinyl;NL;no;0;;52.27088000;5.16623400;3b869e32c6b218651ebabd3cd489a34f;52.27088,5.166234;
Evansville;Hard Copies;US;no;0;IN;37.98452759;-87.49549103;d41d8cd98f00b204e9800998ecf8427e;37.98452759,-87.49549103;
Lučenec;Thirteenth Music;SK;no;0;;48.32935333;19.66745758;a32c3927a96e16dc9081f04a5ea84f4e;48.32935333,19.66745758;
San Antonio;CD Exchange - Evers;US;no;0;TX;29.48619090;-98.59496150;d21a90e40ab5127485ca38b85a7d11c9;29.4861909,-98.5949615;
Paris;FNAC;FR;no;0;;48.86219150;2.34752850;86d8846bf7a3282e89cd74f7273533ad;48.8621915,2.3475285;
San Francisco;Green Apple Books;US;no;0;CA;37.78304500;-122.46471500;eb150bc8729b856a4ee3b83ea4d77e68;37.783045,-122.464715;
Caruaru;O Canto da Música;BR;no;0;;-8.28753185;-35.97454071;06c586c804bfa229ac7a39c678959792;-8.28753185,-35.97454071;
Yuba City;Sound Attitude;US;no;0;CA;39.13783880;-121.60779780;a3f7a6ba382c3174d863b5af23a07694;39.1378388,-121.6077978;
Osaka;Root Down;JP;no;0;;34.67002270;135.49781430;44ba6a3a6cd377c30939df07edb99c06;34.6700227,135.4978143;
Guadalajara;La Perla Records & Books;MX;no;0;;20.67564850;-103.36911910;7eb4ceb33693fb9487039dd21f9a3891;20.6756485,-103.3691191;
Welland;Old Speakers;CA;no;0;;42.98481369;-79.25096130;e69d20a453a7a4d13b1d2df1610f336d;42.98481369,-79.2509613;
Sankt-Peterburg;Top100 Rocks;RU;no;0;;59.94239426;30.34319496;d41d8cd98f00b204e9800998ecf8427e;59.94239426,30.34319496;
Lages;Discos Fitas Viola de Ouro;BR;no;0;;-27.81639671;-50.32861328;08fc2fd8384299dde7728ef062920c1c;-27.81639671,-50.32861328;
Montréal;Le Rappel;CA;no;0;;45.56308190;-73.65641710;8a6e60b68d12961e194091c3cf110971;45.5630819,-73.6564171;
Moncton;Franks Music;CA;no;0;;46.11460710;-64.82349570;0b7900f98665bee3edb3a310d2a646aa;46.1146071,-64.8234957;
Wageningen;BARTOVSKY;NL;no;0;;51.96491623;5.66471720;c122b6af6f74ca745517fbb57a1b45b0;51.96491623,5.6647172;
Palma;Disco Loco;ES;no;0;;39.57161510;2.66383790;354c82a4fff8cf9e439aa4ec53f69070;39.5716151,2.6638379;
Sapporo;Beat Records - ビートレコーズ;JP;no;0;;43.05779820;141.35166080;2110d6974ea6d58c80d1dea66320db3a;43.0577982,141.3516608;
Zonhoven;Nextgenfono;BE;no;0;;50.99671630;5.33732300;3ab952ae343849c9cf27c65b75ff172f;50.9967163,5.337323;
Edmonds;Aurora Antique Pavilion Inc;US;no;0;WA;47.78032450;-122.34362320;7a2988b78d3107142baa9d65c176eef4;47.7803245,-122.3436232;
Spokane Valley;Pirate Traders;US;no;0;WA;47.65616800;-117.23787890;df5a4375da0ee73c6c82400085263d29;47.656168,-117.2378789;
Dundee;Le Freak Records;GB;no;0;;56.45619670;-2.99275050;2146a39a1623f4d79b2777877618a3b2;56.4561967,-2.9927505;
Ryde;Rainy Days;GB;no;0;;50.73130538;-1.16221510;d41d8cd98f00b204e9800998ecf8427e;50.73130538,-1.1622151;
Lima;Sensei Records;PE;no;0;;-12.05099180;-77.03947650;5f70665c898a1cbd040028deec5fc46e;-12.0509918,-77.0394765;
Hamilton;Needle In The Hay;NZ;no;0;;-37.78473360;175.27966130;f1252d2294062f3b9a402bd13b6e7ab9;-37.7847336,175.2796613;
Tacoma;Golden Oldies Records Tapes;US;no;0;WA;47.25544160;-122.48335970;f14ee71a26b17d24547c0a161e473d3d;47.2554416,-122.4833597;
London;Dr. Vinyl;GB;no;0;;51.42891290;-0.16633270;d41d8cd98f00b204e9800998ecf8427e;51.4289129,-0.1663327;
San Diego;Digital Gym CINEMA;US;no;0;CA;32.75497460;-117.13088440;7a54844c62ed574284090e02fcaaad6a;32.7549746,-117.1308844;
Nagoya;K House - ケー・ハウス;JP;no;0;;35.16051000;136.90480700;aad952bd3d94ec1e79b14873aa7b2494;35.16051,136.904807;
Ljubljana;Pulz Second Hand - clothes & vinyls;SI;no;0;;46.05595260;14.51506670;43d4432cff5438a46b8a8d83253e890a;46.0559526,14.5150667;
Frankfurt am Main;Antiquariat Orban & Streu * Frankfurt;DE;no;0;;50.12195650;8.68634200;525743e5c641618d93f8b4151717ef44;50.1219565,8.686342;
Peterborough;ZAP Records;CA;no;0;;44.30659570;-78.32030580;d1af5f153137d4b2d33333060ae96e55;44.3065957,-78.3203058;
Mesa;Uncle Aldo's Attic;US;no;0;AZ;33.45208700;-111.70038500;3b236f3a2cc6fc280e3873283723566b;33.452087,-111.700385;
Alba;Vinylstrong Alba;IT;no;0;;44.70118300;8.03767800;207c63d5e4b3d84dba0f6257d774e987;44.701183,8.037678;
Buenos Aires;Hâus Records;AR;no;0;;-34.58601500;-58.39260680;d41d8cd98f00b204e9800998ecf8427e;-34.586015,-58.3926068;
Singapore;White Label Records;SG;no;0;;1.28072600;103.84578700;acd84c59aaf69f2f73d404ae46701aa5;1.280726,103.845787;
Kitakyushu;Fan Fan - ファンファン;JP;no;0;;33.87299960;130.71930610;00995e8c2bbd4c4cbdea42d94fc45957;33.8729996,130.7193061;
Santiago;Back On Vinyl;CL;no;0;;-33.41223920;-70.59897020;a349e2708135066f4703babaa5b2af73;-33.4122392,-70.5989702;
Winston-Salem;McKay's Winston-Salem;US;no;0;NC;36.09069370;-80.28128750;0a5cb0b37e7cc7cb4d5ae6a5e94f2de0;36.0906937,-80.2812875;
Atlanta;Moods Music;US;no;0;GA;33.76452100;-84.35015860;5bc47a40cd7f388f60a53f76bd9a5d0e;33.764521,-84.3501586;
Limerick;Golden Discs;IE;no;0;;52.66368540;-8.62521610;a625ed5fb5680a1140514bf9b1e00cf6;52.6636854,-8.6252161;
Kamoshidacho;Tachibana - 中古レコードのタチバナ;JP;no;0;;35.56038900;139.50587000;4c380692d3b984fb5d8bc48f4d19439a;35.560389,139.50587;
Tokyo;Tact;JP;no;0;;35.69707900;139.75737500;db9c9967d3cb26d0e5f0b6fc3a6a6829;35.697079,139.757375;
Paris;The Troc;FR;no;0;;48.86637980;2.37311000;e62b7110f85c130e1893352f13371d59;48.8663798,2.37311;
Winchester;Back To The Media - Video Games Records & Movies;US;no;0;VA;39.18326270;-78.16616280;74431f428c22e602c16e468c62774fdb;39.1832627,-78.1661628;
Baguio;Third Street Vinyl Records Store;PH;no;0;;16.40811720;120.60124090;d41d8cd98f00b204e9800998ecf8427e;16.4081172,120.6012409;
Gdańsk;Galeria Winylowo;PL;no;0;;54.34788030;18.65142550;27251c88c3c2e1746848109ce5371a3c;54.3478803,18.6514255;
Gifu-shi;slow room;JP;no;0;;35.41219500;136.76182450;b08054bf0c1c912f1b102e54da81a889;35.412195,136.7618245;
Fürth;da capo;DE;no;1;;49.46952820;10.98867360;6111ced386cb64825ee7a84a9a3e1821;49.4695282,10.9886736;
Westerville;A Gal Named Cinda Lou;US;no;0;OH;40.12648120;-82.93145250;ed79e8562ceb5b96db8d4a8914d66426;40.1264812,-82.9314525;
Egaleo;Metal Throne Record Store;GR;no;0;;38.00341480;23.67795980;ab79e03306cf3379b6c22443aca1d918;38.0034148,23.6779598;
Thunder Bay;Moon Money Vintage;CA;no;0;;48.43537190;-89.21933040;d41935a467a44250b627afdfb87421d2;48.4353719,-89.2193304;
Fort Wayne;FYE;US;no;0;IN;41.11558070;-85.13883130;6f7b677a04878238f0173a6bf510e0f1;41.1155807,-85.1388313;
Jensen Beach;FYE;US;no;0;FL;27.24343770;-80.27519170;faa93c601351157180045089e940e30c;27.2434377,-80.2751917;
Milford;FYE;US;no;0;CT;41.23597930;-73.03553760;27ff0aa4e19e1e2f6b76850655d62249;41.2359793,-73.0355376;
Charleston;FYE;US;no;0;WV;38.35417880;-81.63779170;8f5a55d1ba13529ae128d4fb06ffb41a;38.3541788,-81.6377917;
Salt Lake City;FYE;US;no;0;UT;40.72495370;-111.87057670;e08db6e325299cf4612bbc402ee32b68;40.7249537,-111.8705767;
El Paso;FYE;US;no;0;TX;31.78359030;-106.41352740;ac43d789a84cf21b958fba6fb55f6d4e;31.7835903,-106.4135274;
Overland Park;FYE;US;no;0;KS;38.95388810;-94.72139050;4cca844ecac768802c4937b79f41e0cf;38.9538881,-94.7213905;
Greensboro;FYE;US;no;0;NC;36.03968690;-79.83855020;57b3f99ff51647505b7491d9998693b9;36.0396869,-79.8385502;
Johnson City;FYE;US;no;0;NY;42.12903770;-75.97448010;717706f2af1c35c3403655c7b054009c;42.1290377,-75.9744801;
Gaithersburg;FYE;US;no;0;MD;39.15410530;-77.20485060;10d8e73a185954b2bb6e8cd26e3d087d;39.1541053,-77.2048506;
Monroe;FYE;US;no;0;LA;32.49858720;-92.06079480;3dd5988db2f0c0f8362d8b2fd3301a8c;32.4985872,-92.0607948;
Lexington;FYE;US;no;0;KY;37.98684940;-84.52955720;f42fedec3fd875d1f6d1620134683883;37.9868494,-84.5295572;
Beirut;Voice of Stars;LB;no;0;;33.89259170;35.53810770;82d286122dcad0670c25455015dd0d45;33.8925917,35.5381077;
Sapporo;楽音舎;JP;no;0;;43.08249040;141.34356500;c23ae25297d9b0dbf9cc71f76b40c690;43.0824904,141.343565;
Yahaba;ビッグガレージ;JP;no;0;;39.61107870;141.17105010;26a1ba0e568372fed709578263557eeb;39.6110787,141.1710501;
Mito;Lights Out Records;JP;no;0;;36.37511610;140.47182330;204ba0964f92fd1881635135f99f9492;36.3751161,140.4718233;
Kanazawa;Beach Party Records - レコード・ビーチ・パーティ;JP;no;0;;36.56088210;136.65540410;648f999ad18737c3e1713835b02bf9ad;36.5608821,136.6554041;
Nagoya;WILD HONEY;JP;no;0;;35.16901420;136.93516460;c1b3c002d4309ba65f1ac856f93a8153;35.1690142,136.9351646;
Nara;Django;JP;no;0;;34.68091000;135.82887000;0a51b1f76d80cbd319e81261ca34acad;34.68091,135.82887;
Clacton-on-Sea;Music Mania;GB;no;0;;51.79010460;1.15448480;7bbd5cbf5cd314b89bb0fa3dabc2020d;51.7901046,1.1544848;
Tokyo;CHILL OUT COFFEE &...RECORDS;JP;no;0;;35.69488670;139.80073860;c6a2b7d09be0feb7d601e7f6fd0a7a96;35.6948867,139.8007386;
Campinas;Riva Rock Discos;BR;no;0;;-22.90067230;-47.05889990;d7c5d03f49bf7fd311a52a5c9d6101e6;-22.9006723,-47.0588999;
Pudahuel;Punto Musical;CL;no;0;;-33.39661840;-70.79198460;784827546c531f0f5670baeb5daf9927;-33.3966184,-70.7919846;
Annecy;Vinyl & Coffee;FR;no;0;;45.89724770;6.12204770;cbe8eb7ecdac1f5eaabda44bb9019412;45.8972477,6.1220477;
Albuquerque;LongHair Records;US;no;0;NM;35.09095500;-106.58673890;48e479658e5bd32ff0a8c19d491f35e0;35.090955,-106.5867389;
York;Mothership York;US;no;0;PA;39.95908030;-76.69565210;72d0836cb8e99ad5bec436dc2bb66a98;39.9590803,-76.6956521;
Tokyo;level 9 bootleg CDs and DVDs;JP;no;0;;35.69429590;139.69873980;ea4ea4497ac757385c6ab332c7bc6a0c;35.6942959,139.6987398;
Rochester;Decktronix;GB;no;0;;51.38340400;0.51591300;f5e624cab3a65966a53f1031f311a709;51.383404,0.515913;
Shoreham-by-Sea;Go Discs;GB;no;0;;50.83274170;-0.27228610;d41d8cd98f00b204e9800998ecf8427e;50.8327417,-0.2722861;
Bedford;Rocking Revolutions;GB;no;0;;51.96883279;-0.43437217;d41d8cd98f00b204e9800998ecf8427e;51.96883279,-0.43437217;
London;Music & Video Exchange;GB;no;0;;51.48114014;-0.00996300;43f486e64c523416913efc1e956cdc38;51.48114014,-0.009963;
London;Rough Trade West;GB;no;0;;51.51608658;-0.20452100;de8547102f27dad4b3dbbb355b6b1b09;51.51608658,-0.204521;
Berlin;Soultrade Recordstore;DE;no;0;;52.49235916;13.42346001;eabbba287370edaaf1cc14fb9cca2ad7;52.49235916,13.42346001;
San Diego;Nickelodeon Records;US;no;0;CA;32.76322300;-117.12213700;5facdd8bed0c6142ecbf8d59846775f6;32.763223,-117.122137;
Budapest;Wave;HU;no;0;;47.50093079;19.05533218;666ba34d43cde735bc1701119403526b;47.50093079,19.05533218;
Manchester;Kingbee Records;GB;no;0;;53.44237137;-2.27143598;e5a5b3186a1eb721646ee7c09a15b1a4;53.44237137,-2.27143598;
Calgary;Sloth Records;CA;no;0;;51.03795130;-114.07899570;edd9858bb819da857b91a5881625e9dd;51.0379513,-114.0789957;
Columbus;Colleen's Collectibles;US;no;0;OH;40.03227997;-82.97402191;153eb35baf581156a21e0af03f79d7e9;40.03227997,-82.97402191;
Wallingford;Redscroll Records;US;no;0;CT;41.45721990;-72.82400280;94e71ff5ef407c7d7049848038f1c469;41.4572199,-72.8240028;
Grand Prairie;Forever Young Records;US;no;0;TX;32.69499470;-97.06165920;d0e768bfa5ef867bdd03082f3c4ef0e0;32.6949947,-97.0616592;
Fort Lauderdale;Radio-Active Records;US;no;0;FL;26.13484840;-80.13788630;f3f2cfeca20513eaf89b674c5ed8e0f8;26.1348484,-80.1378863;
Brisbane;Rocking Horse Records;AU;no;0;;-27.46905950;153.02491410;5d1e319ffda4f4c3674b4d66d2ac3207;-27.4690595,153.0249141;
Aachen;Plattenbau;DE;no;0;;50.77217484;6.10736799;87672115693ed9526109f488bacb75b9;50.77217484,6.10736799;
Hannover;Rockers;DE;no;0;;52.37285960;9.70543410;68f0545453c409522f0e3d44ba9bf053;52.3728596,9.7054341;
Leeds;Jumbo Records;GB;no;0;;53.80099690;-1.54360100;89a42f120b5b5fce3953973b047a93f4;53.8009969,-1.543601;
London;Flashback Records;GB;no;0;;51.57807159;-0.12357400;97a0f0e44e75bf52a7f4511f2d9665b0;51.57807159,-0.123574;
Barcelona;Discos Paradiso;ES;no;0;;41.38217926;2.16589499;bd3f9b426a15f6b3adf73fdca4fb807d;41.38217926,2.16589499;
Kilkenny;Rollercoaster Records;IE;no;0;;52.65303421;-7.25327396;1afe7c7d0106762941afb9557c2174c0;52.65303421,-7.25327396;
Cork;Plugd;IE;no;0;;51.89874268;-8.47618675;6dfd9ab4ba15c5c467e0cceeb5180f7f;51.89874268,-8.47618675;
Montréal;Musique-Disque Sonik;CA;no;0;;45.52173233;-73.57511139;55bdd96c8c16aaae80cb74471336f33b;45.52173233,-73.57511139;
Hamburg;Crypt Records (Cool & Crazy);DE;no;0;;53.55568314;9.94018936;f38ae37449502d9010db3e258ab5b411;53.55568314,9.94018936;
Barre;Exile On Main Street;US;no;0;VT;44.19784450;-72.50242720;bbbd6ab192e2e40da2fb4d06cda47805;44.1978445,-72.5024272;
Malmö;Rundgång;SE;no;0;;55.59236110;13.00966350;2763d8beacc9512332490b32ca022b71;55.5923611,13.0096635;
Reading;The Sound Machine;GB;no;0;;51.45713806;-0.97161603;73f9572ccc7eb7fdd7ea87aae2848185;51.45713806,-0.97161603;
Houston;Sig's Lagoon Record Shop;US;no;0;TX;29.73871040;-95.37977600;41bbcdbe62796da6707bc1a99d7f3917;29.7387104,-95.379776;
Willimantic;Willimantic Records;US;no;0;CT;41.71221130;-72.22023410;028d1d837a030568aac719858b9860d1;41.7122113,-72.2202341;
Berlin;Static Shock Music;DE;no;0;;52.49341965;13.42517281;a1c9bcf0ea37ac48919f317da19d019f;52.49341965,13.42517281;
Madrid;Killer's Discos;ES;no;0;;40.41881943;-3.70202208;cfc724778ff99deed01c965bfd66991f;40.41881943,-3.70202208;
Jerez de la Frontera;Mala Música;ES;no;0;;36.68265915;-6.13426495;63abe6405f37f7a3f3d2c53b3c2ef44e;36.68265915,-6.13426495;
València;Discocentro SL;ES;no;0;;39.46420670;-0.37293899;b0800a855b4569708bd093b8d83bef6c;39.4642067,-0.37293899;
València;Ultrasound;ES;no;0;;39.46030045;-0.37575299;ea0f84d3ff50ff976d672ecf0fcabdfe;39.46030045,-0.37575299;
Le Havre;Atmosphère Music;FR;no;0;;49.48934555;0.10661400;a30640015b84160b1501afd6d2e9947f;49.48934555,0.106614;
Marseille;Lollipop Music Store;FR;no;0;;43.29124451;5.38325691;1079b9a19869a81909ec1bc49b6948d8;43.29124451,5.38325691;
Buenos Aires;El Gallo Cantor;AR;no;0;;-34.60430908;-58.38620758;185458175be8588b5e5b321006edf3fe;-34.60430908,-58.38620758;
Dungarvan;Dungarvan Music Shop (Ben O'Neill);IE;no;0;;52.08947754;-7.62386799;c7fbeb0a9e769c79778cf058f5215a22;52.08947754,-7.62386799;
Whitstable;Gatefield Sounds;GB;no;0;;51.35855865;1.02445900;908ec693565ffab9a5c3cfe9cecb7074;51.35855865,1.024459;
Göteborg;Skivhallen Majorna;SE;no;0;;57.68616486;11.91807747;a964e74b05e5dd56d9cba81dab2d3a92;57.68616486,11.91807747;
Hamburg;Stilbruch Wandsbek;DE;no;0;;53.58632440;10.09552570;ed90fce6cdef8ee6b8f18b5943904975;53.5863244,10.0955257;
Hamburg;Borgweg Records;DE;no;0;;53.58956909;10.01552010;47085065c88139f655176148d2b17a3f;53.58956909,10.0155201;
New York;Record Runner;US;no;0;NY;40.73239100;-74.00204100;86a7a4f9794625593d7fb2eda9ea4107;40.732391,-74.002041;
Lewes;Union Music Store;GB;no;0;;50.87193890;0.01275830;48d4233b383bab710366c5f4087a4183;50.8719389,0.0127583;
Firenze;Dischi Fenice;IT;no;0;;43.77786636;11.25572014;524eafe684d2b28de020eac54b95af75;43.77786636,11.25572014;
Rennes;Les Troubadours Du Chaos;FR;no;0;;48.11672211;-1.68074703;f56f7fd2a6e9bec61debe38af8ad173c;48.11672211,-1.68074703;
Lisboa;Vinil Experience;PT;no;0;;38.71072769;-9.14510059;90931369b8b9c82e5e91db9c6fc3fe08;38.71072769,-9.14510059;
München;Public Possession;DE;no;0;;48.13249207;11.57708073;bacdeecdc2fff46af9f179355c3a0f82;48.13249207,11.57708073;
Nantes;La Boutique du Collectionneur;FR;no;0;;47.21635260;-1.55849540;1c82a23586297123f56ace496078d3cf;47.2163526,-1.5584954;
Bochum;CD + Plattenladen;DE;no;0;;51.44391251;7.25986004;d41d8cd98f00b204e9800998ecf8427e;51.44391251,7.25986004;
Saint-Étienne;FORUM disques;FR;no;0;;45.43815120;4.38667380;38cd95cc11c609185fd1e888f9174f2b;45.4381512,4.3866738;
Glasgow;Love Music;GB;no;0;;55.86267471;-4.25191689;82619148090e2b4d48e45b41c6e32e22;55.86267471,-4.25191689;
Katowice;12 Cali VinylShop;PL;no;0;;50.25838600;19.02494890;ade4b38daf884fa57ccc72884680a2ab;50.258386,19.0249489;
Canterbury;Canterbury Rock;GB;no;0;;51.28435750;1.07048890;d6d42afe7a60d42a6d27a7efba8d4184;51.2843575,1.0704889;
Sankt-Peterburg;Allsizemusic (Rock Island);RU;no;0;;59.94420624;30.35265350;;59.94420624,30.3526535;
Buffalo;Black Dots;US;no;0;NY;42.92392140;-78.89020950;d4dcb4770829856e8100ef4972dd3faf;42.9239214,-78.8902095;
Long Beach;Third Eye Records;US;no;0;CA;33.77157270;-118.16479950;ad58c3a43dcb0cbed19d110c3396a61b;33.7715727,-118.1647995;
Long Beach;Bagatelle Records;US;no;0;CA;33.77030182;-118.18482971;d5353dadb110cee5f86e4de7e67400a9;33.77030182,-118.18482971;
Bern;Take Five Records;CH;no;0;;46.94168854;7.43166780;cb0e0a6e0215a637449a817a30c4c956;46.94168854,7.4316678;
München;Gutfeeling Recordstore;DE;no;1;;48.13108010;11.56401110;429df4a68fc8980f9f9409d7a02d0491;48.1310801,11.5640111;
Norwich;Circular Sound;GB;no;0;;52.63084412;1.29105902;5863de50300157971eee9903aecf9848;52.63084412,1.29105902;
Fredericksburg;Magic Bullet Records & Skateboards;US;no;0;VA;38.30002975;-77.45752716;7e2d69da51df34a559d39690a9c61a4c;38.30002975,-77.45752716;
New York;Shiree Record Shop;US;no;0;NY;40.71212006;-73.94132233;;40.71212006,-73.94132233;
Calgary;Lukes Drug Mart;CA;no;0;;51.05309600;-114.05133690;7b75be3ff8f1de5fa9b370167efc90f6;51.053096,-114.0513369;
Berlin;Schallplanet;DE;no;0;;52.51211166;13.46045971;5f7b259561c2295d085f96153853efcc;52.51211166,13.46045971;
Chicago;Record Dugout Comics;US;no;0;IL;41.77761130;-87.77362620;85d8f6ee284e08a952350ff898862841;41.7776113,-87.7736262;
Decatur;Wuxtry Records;US;no;0;GA;33.79115360;-84.30568870;bf0c635b6dfc0ecc725885cab9149efd;33.7911536,-84.3056887;
Seattle;Holy Cow Records;US;no;0;WA;47.60862880;-122.34116880;eb7dc0ede6910ac14fdd8a21dc877fcd;47.6086288,-122.3411688;
Riverside;Mad Platter;US;no;0;CA;33.97622540;-117.33799960;a2a179c982fdb0b573230f8e19032740;33.9762254,-117.3379996;
Memphis;Goner Records;US;no;0;TN;35.11972809;-89.99042511;2703f5d2a979e235c49cfa193327e139;35.11972809,-89.99042511;
El Cerrito;Mod Lang;US;no;0;CA;37.90071830;-122.30141760;021281ee4179d8e4fc5e2be90d09e5cd;37.9007183,-122.3014176;
Valdese;Play It Again;US;no;0;NC;35.74379730;-81.56367040;984fe60fa94768b5844ad92a5cc5937e;35.7437973,-81.5636704;
York;Earworm Records;GB;no;0;;53.96145630;-1.07970500;8714d8f24bb58f68fd44b530d6fd9066;53.9614563,-1.079705;
Ocean Springs;Maynard's Music;US;no;0;MS;30.41374870;-88.81152250;2cb8094a0180568a3e10d9e1cf31f9c0;30.4137487,-88.8115225;
Orléans;Planète Claire;FR;no;0;;47.90406670;1.90554660;84e86bbb976cee139a16dc3def341991;47.9040667,1.9055466;
Austin;Breakaway Records;US;no;0;TX;30.31830978;-97.72444153;9fdb3adb61f9616f33f38d32e7ae4d53;30.31830978,-97.72444153;
New York;Fifth Avenue Record Shop;US;no;0;NY;40.66929700;-73.98602820;868330918931f515bfd4785c87a4a991;40.669297,-73.9860282;
Waco;Spin Connection;US;no;0;TX;31.53001730;-97.16073090;947e1995042113f366a18e78b11c7d79;31.5300173,-97.1607309;
Jefferson City;Slackers CDs & Games;US;no;0;MO;38.58592580;-92.25179160;54ed728211da8bcc3280aff081f2736f;38.5859258,-92.2517916;
Oklahoma City;Guestroom Records OKC;US;no;0;OK;35.50799500;-97.53004890;9068f708e891040f99afbb49c48004bd;35.507995,-97.5300489;
Montevideo;Museo del Vinilo;UY;no;0;;-34.90668060;-56.19483230;7df84e34e8dad962f4c74f4b5b69d822;-34.9066806,-56.1948323;
Buenos Aires;Zivals;AR;no;0;;-34.60461780;-58.39205400;d6befca76e138593d91d03da65625c91;-34.6046178,-58.392054;
Paris;WALRUS disquaire café;FR;no;0;;48.88100433;2.35052991;88498240dbfae147584193bc83f8345e;48.88100433,2.35052991;
Paris;illogicall-music records store;FR;no;0;;48.88193900;2.33160000;987e5986aa479af51863cb2680110ea6;48.881939,2.3316;
Genova;Black Widow Records;IT;no;0;;44.41230920;8.92902020;41d764f8f3577aaa652603612c23e5ea;44.4123092,8.9290202;
Hong Kong;Time Traveler;HK;no;0;;22.27762794;114.17688751;;22.27762794,114.17688751;
Hong Kong;White Noise Records;HK;no;0;;22.32248790;114.16752760;7258ae0e20c334c5dcce93d35ede9dcb;22.3224879,114.1675276;
Treviso;Indie.it;IT;no;0;;45.66669410;12.24467930;d8bbed88c35f06e91687dc97440eedfc;45.6666941,12.2446793;
Pavia;Matrix Music Store;IT;no;0;;45.18501080;9.15359390;46f30bb11c97e51bf4cd44b39684101c;45.1850108,9.1535939;
Tilburg;Diggers Record Store;NL;no;0;;51.55331421;5.07871580;aad3e4dac278092bab204d2c01cd00f0;51.55331421,5.0787158;
Norwich;Mare's Nest Music, Row A, No34, Norwich Market;GB;no;0;;52.62833786;1.29272294;;52.62833786,1.29272294;
Athina;To Diskadiko - Τo Δισκάδικο;GR;no;0;;37.97783050;23.72579920;8b960424a626e79adc0cff762d816279;37.9778305,23.7257992;
München;M2 Music 2nd Hand GmbH;DE;no;0;;48.12773700;11.59559500;0f5d28c14d732eb6bdb64e35ab8287cc;48.127737,11.595595;
Freital;Musik-Schubert;DE;no;0;;51.00271950;13.65315150;a7f0dd798a87da70b9aa7fa7d20cd3be;51.0027195,13.6531515;
Paris;Plastic Soul Records;FR;no;0;;48.85186250;2.37629390;7248353a7ee1f8544faa87f3e8af4ff0;48.8518625,2.3762939;
Paris;French Connection;FR;no;0;;48.90230942;2.34198999;;48.90230942,2.34198999;
Chicago;606 Records;US;no;0;IL;41.85759310;-87.65783200;55d3b828876a42999e11debb9b660509;41.8575931,-87.657832;
Sheffield;Record Junkee;GB;no;0;;53.37596230;-1.47260100;a11a6bf640b87236e57c2f215368da68;53.3759623,-1.472601;
São Paulo;Dynasty Raridades;BR;no;0;;-23.54365349;-46.64019775;;-23.54365349,-46.64019775;
São Paulo;Cel som discos;BR;no;0;;-23.54363170;-46.64009870;575718a16c330fc3d520faac9a4dd100;-23.5436317,-46.6400987;
San Francisco;Thrillhouse Records;US;no;0;CA;37.74194150;-122.42253480;dd602faef5cd6b56d4e93ac62eb710b0;37.7419415,-122.4225348;
Zweibrücken;Musikladen Philippi;DE;no;0;;49.24610010;7.36472400;50dc90513929829c90e904e765fa64ec;49.2461001,7.364724;
Marburg;A-Dur Marburg;DE;no;0;;50.80643082;8.77192974;853d48470a35d71f5023a84bab9d2569;50.80643082,8.77192974;
Mainz;Overdrive Record Store;DE;no;0;;50.00309753;8.26468086;82daeb23afbc2f29955b70bb96523d7d;50.00309753,8.26468086;
München;TOPKAUFMUNICH Thomas Thiermeyer;DE;no;0;;48.11347961;11.55018997;31d79a1f6d88c85aaca3d85fb45a91e0;48.11347961,11.55018997;
Naperville;Purple Dog Records;US;no;0;IL;41.77930832;-88.14640808;13214bde0192ad28e00060eab31fc0e6;41.77930832,-88.14640808;
Fort Wayne;Wooden Nickel Records;US;no;0;IN;41.10979350;-85.13642260;cfa5ca2c4483c77c6e4fd70a75cf1533;41.1097935,-85.1364226;
Pisa;Gap Record Store Pisa;IT;no;0;;43.71313670;10.40494850;bbf0603d92fa662e7d0ac5cb4153039c;43.7131367,10.4049485;
Minneapolis;The Record Spot;US;no;0;MN;44.93397900;-93.28467130;26a7db4a3ac531cb53df6bffa39077a8;44.933979,-93.2846713;
San Diego;Folk Arts Rare Records;US;no;0;CA;32.75564194;-117.12834167;15c9d6ed124891904bb047cdae5c8e53;32.75564194,-117.12834167;
Saint Paul;Cheapo Records;US;no;0;MN;44.94359110;-93.16743480;6b77b4ad0382bf952b40654d129fcf1e;44.9435911,-93.1674348;
Austin;End of An Ear;US;no;0;TX;30.22903870;-97.78433750;b5e24ad37129a0c6088cf7f820e59cf7;30.2290387,-97.7843375;
London;If Music;GB;no;0;;51.51463130;-0.13630290;60e9e9cb3961ea7c6beb7f9b25ab85f7;51.5146313,-0.1363029;
New York;Rock and Soul DJ Equipment and Records;US;no;0;NY;40.75055850;-73.98404610;1939f5f60b5229431d4b168a613269b8;40.7505585,-73.9840461;
Móstoles;Citadel Records;ES;no;0;;40.32525500;-3.86309080;38562da522b2c92530c149689c177737;40.325255,-3.8630908;
Istanbul;Kivilcim Muzik;TR;no;0;;41.02825420;28.97440320;257ea7bd4e2440caa3a9c5f5a8ca99b6;41.0282542,28.9744032;
Los Angeles;Cosmic Vinyl;US;no;0;CA;34.07770920;-118.26498413;4890c6c8212bf37d3739295af9bc1333;34.0777092,-118.26498413;
Fortaleza;Full Vinyl Store;BR;no;0;;-3.73381080;-38.49523120;4d5cfe55300a89e5432e820b4ea42b93;-3.7338108,-38.4952312;
Saarbrücken;Humpty Records Saarbrücken;DE;no;0;;49.23593120;6.99860800;27fe017fc5dcb92a584f86d9c7490c04;49.2359312,6.998608;
Çorlu;D&R Çorlu;TR;no;0;;41.15196670;27.83132600;32db8d025d123e0505498e9bd72af8dd;41.1519667,27.831326;
Aigle;DCM;CH;no;0;;46.31647900;6.96805300;e829d8f7dc67b0a3f158eb481606ac80;46.316479,6.968053;
Münsingen;Vinylsound;CH;no;0;;46.87973670;7.56001080;96dade0cca7d05c04963aa24a8067bf1;46.8797367,7.5600108;
Silly;Initiales CD;BE;no;0;;50.64585080;3.92122780;287cc8da5e9c6657e27a536368c52696;50.6458508,3.9212278;
Brugge;Rombaux;BE;no;0;;51.20946830;3.22760540;d67ceaa3bfa8c25c07826c923ced8e91;51.2094683,3.2276054;
Oudenaarde;Music House;BE;no;0;;50.84314240;3.60788790;b4ed4e9f0b1aa8cbc603ecdd704cbebe;50.8431424,3.6078879;
Lyon;BOUL'DINGUE OCCASIONS;FR;no;0;;45.76242660;4.82782340;53100fbfaf134065ae248c404ef7f3bf;45.7624266,4.8278234;
Lyon;Librairie La Bourse;FR;no;0;;45.76668660;4.83164310;810d5af5a09a62d5d155d42b6acefbeb;45.7666866,4.8316431;
Fukuoka;Juke Records;JP;no;0;;33.59263992;130.39572144;;33.59263992,130.39572144;
Fukuoka;Ticro Market - チクロマーケット;JP;no;0;;33.58713900;130.39585320;9c5931abde84e1c754fbc370e0a4d186;33.587139,130.3958532;
Gmunden;Good Things;AT;no;0;;47.91969299;13.79888153;5b9b1ca78f96ecc1234de1a1e2af97ff;47.91969299,13.79888153;
Fukuoka;bonjour records;JP;no;0;;33.59097780;130.39859750;0e57c239a5e359fb5603c69aa5bc9e11;33.5909778,130.3985975;
Toronto;Song & Script Music Store;CA;no;0;;43.67050590;-79.38715640;73a2c7cd6990bc4de3ea569094393ad5;43.6705059,-79.3871564;
Thessaloniki;Stereodisc;GR;no;0;;40.63310242;22.94184875;350e333ac01cee70f323781e1b0ef5f9;40.63310242,22.94184875;
Melbourne;A Fan's Notes;AU;no;0;;-37.78088000;144.97755900;1c3482543dac3220ffdf255f6d5ca786;-37.78088,144.977559;
Margaret River;Soundwaves Music & More;AU;no;0;;-33.95227050;115.07340890;c8161d3cdbebbfb65347c99a24a2391b;-33.9522705,115.0734089;
Adelaide;Underground Records;AU;no;0;;-34.89002620;138.59405640;64978039b850093d12aed82d597c742f;-34.8900262,138.5940564;
Richmond;Richmond Records & Cafe;AU;no;0;;-33.59771370;150.75309330;d900741097dbc45b30277c620a4b67fa;-33.5977137,150.7530933;
Calgary;Blackbyrd Myoozik;CA;no;0;;51.03799280;-114.08814340;7b9191a6665d891019d17aa11bed0754;51.0379928,-114.0881434;
Lugo;Flexi Dischi Record Store;IT;no;0;;44.42301559;11.91465855;541c1332a48e79cd383ca6f581559aa6;44.42301559,11.91465855;
Kitchener;X-Disc-C Music;CA;no;0;;43.44869840;-80.48449920;af0ca1b097044e7c66407c94c3964f1e;43.4486984,-80.4844992;
Domessin;Les Sillons et Bulles de Peps;FR;no;0;;45.53292450;5.70531280;8987a47ec9d29faa5bf192a5509f55ed;45.5329245,5.7053128;
Vimercate;Lullabies;IT;no;0;;45.61338043;9.37286568;b163cad36b41803e10a92fee196b9715;45.61338043,9.37286568;
Philadelphia;Discolandia Records;US;no;0;PA;39.93590490;-75.15867300;10e436d2b137bdfb80491f0a83a3f194;39.9359049,-75.158673;
Granby;Sensation Musicale;CA;no;0;;45.40162540;-72.72200840;27fe77c3b199f1c3556865b34df8c762;45.4016254,-72.7220084;
Taupo;My Music;NZ;no;0;;-38.68678060;176.06982650;c1f8da64d6d9d1c2fce09629005349d6;-38.6867806,176.0698265;
Caen;Espace Disc;FR;no;0;;49.18170929;-0.36730599;2602999244f7f5c7387be21aa74e1797;49.18170929,-0.36730599;
Seattle;Daybreak Records;US;no;0;WA;47.65964380;-122.34979770;518bb1c30b598c7c6ee020bcc011d0e8;47.6596438,-122.3497977;
Thionville;La Belle Ecoute;FR;no;0;;49.35580770;6.16264810;e0d9745fc07a9db41c2d57a24e82fbb4;49.3558077,6.1626481;
Köln;Groove Attack;DE;no;0;;50.93830490;6.93553782;3ab18c533e3410e8640ca42497386eb8;50.9383049,6.93553782;
Zürich;6pack Records;CH;no;0;;47.37107390;8.51982040;fba523efd09f4b0ce19710a411f651c5;47.3710739,8.5198204;
Paris;Parallèles;FR;no;0;;48.86091614;2.34527111;8e4a5cfba3dfd4cd91ac50bd21458a5d;48.86091614,2.34527111;
Zwolle;Plato Zwolle;NL;no;0;;52.51414490;6.09627104;31b1e66312297d4eff59d3ae5138b41f;52.5141449,6.09627104;
Hannover;25 Music;DE;no;0;;52.38156350;9.74374580;5671fa44b4e9107017a63c762ba5be64;52.3815635,9.7437458;
Frankfurt am Main;analogetontraeger;DE;no;1;;50.12827520;8.70729010;935a31eb21dcefe8885fed15548e27ff;50.1282752,8.7072901;
Dundee;Groucho's Record Store;GB;no;0;;56.45809174;-2.97394896;abf0139cb7088813017fbf290a63c8df;56.45809174,-2.97394896;
Manhattan;Sisters Of Sound Music;US;no;0;KS;39.18616910;-96.57553560;c8a9995c8ff62d2a522ab354e45f5843;39.1861691,-96.5755356;
Winnipeg;Sound Exchange;CA;no;0;;49.88962173;-97.15531921;89babad8f14a6d0bc46c15516bc91dc0;49.88962173,-97.15531921;
Nijmegen;Vinylarchief;NL;no;0;;51.84825897;5.85887289;bcf10033b11a85e968703aca89112d37;51.84825897,5.85887289;
Aachen;TAM TAM RecordShop;DE;no;0;;50.76959991;6.08566093;b7a3de8acecd33a0fc560f2ac3fb02b0;50.76959991,6.08566093;
København;Route 66;DK;no;0;;55.68864800;12.55963280;e563b3907afd7ca66ef7f46a489c58fb;55.688648,12.5596328;
Rosenheim;Bebop Schallplatten & CDs;DE;no;0;;47.85371017;12.12129021;749a878e580d6053a5c67d1501be1745;47.85371017,12.12129021;
Hamilton;Dr. Disc;CA;no;0;;43.25905000;-79.86716300;c130ec1ff619b09ace0bd83c2d05fd46;43.25905,-79.867163;
Boston;Skippy White's Records;US;no;0;MA;42.31530580;-71.09816420;602878ada4cc8ba6c7addbdc80f01924;42.3153058,-71.0981642;
Boston;Cheapo Records;US;no;0;MA;42.36422660;-71.10229920;5828c66a5ef4d849c61d9c4d2be4e2e2;42.3642266,-71.1022992;
Helsinki;Digelius Music Oy;FI;no;0;;60.16098260;24.94195680;82771e4177e37eebcb1729ce2bd0e4ce;60.1609826,24.9419568;
Milano;Massive Music Store;IT;no;0;;45.48207474;9.19787884;3297506f1ab0a4a7e519ef67d512a5da;45.48207474,9.19787884;
Malmö;Lilla Torgs Seriemagasin;SE;no;0;;55.60489655;12.99826717;12848d6d2bb0b5d4bd19d1ec815c3320;55.60489655,12.99826717;
Ankara;OZZYTURK;TR;no;0;;39.90266600;32.86064200;ca0c7a08b47742df02ada7192454def8;39.902666,32.860642;
San Francisco;Grooves;US;no;0;CA;37.77141190;-122.42352295;4c01c29b312b5b82d04ea3e6bbbdac23;37.7714119,-122.42352295;
Santa Barbara;Warbler Records & Goods;US;no;0;CA;34.42179800;-119.69759850;2f18437ea96abb8d983c10df8f4d7e2a;34.421798,-119.6975985;
Madrid;Radio City;ES;no;0;;40.42651367;-3.71099496;21fd7ebc3405bac99384119a517942ca;40.42651367,-3.71099496;
Zagreb;Free Bird Music;HR;no;0;;45.80163130;15.95883360;1ad1e56dafc26cb49c991f0ca5d378a3;45.8016313,15.9588336;
Madrid;La Integral;ES;no;0;;40.41311264;-3.69910598;2a8d69aa97a799b96f4d3242fd8bfe48;40.41311264,-3.69910598;
Granada;Festival Discos;ES;no;0;;37.17454147;-3.59931898;e27ccc7430eeff2477d68459674afdcd;37.17454147,-3.59931898;
Granada;Subterranea;ES;no;0;;37.17642060;-3.60434750;cb224d3b5840da8b9434532ea433ffa3;37.1764206,-3.6043475;
Roma;Radiation Records;IT;no;1;;41.89130900;12.53201800;9b7f64e23b4ef6be90a01c5354bdfe94;41.891309,12.532018;
Paris;Patate Records;FR;no;0;;48.85341644;2.37897706;62f3f8ab90c81505c55aea9d26d54111;48.85341644,2.37897706;
Seattle;Golden Oldies Records;US;no;0;WA;47.66119270;-122.32707590;fe5ecb221e288978e18e748982214c1c;47.6611927,-122.3270759;
Karlstad;Knastret;SE;no;0;;59.37984300;13.50510830;0e3312bf0202b11afe650ecd110a274a;59.379843,13.5051083;
Sydney;Red Eye Records;AU;no;0;;-33.87250520;151.20635020;1a17e4ffdf675c1d59d9d71e0e15314a;-33.8725052,151.2063502;
Ashland;Music Coop;US;no;0;OR;42.19533960;-122.71192340;8f0974ad143f7cf39786e2892c6a2e34;42.1953396,-122.7119234;
Paris;Heartbeat Vinyl;FR;no;0;;48.85551453;2.38114405;219bd0e3eee879006d099a196f4c9522;48.85551453,2.38114405;
Venlo;Sounds Venlo;NL;no;0;;51.36828232;6.17055321;4f4393f8030b1c6d286ca88bc1e37184;51.36828232,6.17055321;
Istanbul;Zihni Muzik;TR;no;0;;40.98920441;29.02308273;6238637aa890f98faefc34ec4ca02a72;40.98920441,29.02308273;
Budapest;Lemezkuckó CD Store;HU;no;0;;47.50374222;19.06652832;73c6471870b23fe87cc2fd5a95d2a12f;47.50374222,19.06652832;
Nottingham;Rob's Record Mart;GB;no;0;;52.95444489;-1.15252304;26f5b0cccb83a7514287ded2c3f45c5b;52.95444489,-1.15252304;
Antwerpen;Tune Up;BE;no;0;;51.22039032;4.40249586;6e2bc54aeda1e45fdbaa41b7b7e87581;51.22039032,4.40249586;
Rotterdam;Vinylspot;NL;no;0;;51.91620850;4.46682540;8e2dd4a188f38252da31617456455a5b;51.9162085,4.4668254;
København;CAN;DK;no;0;;55.67373770;12.55145170;f62d00c5c3f19fa65807b30fcd2c90ed;55.6737377,12.5514517;
New York;Westsider Rare & Used Books;US;no;0;NY;40.78465390;-73.97896430;5f10b1ca4cf5bf3de3cc9fbe16f49d68;40.7846539,-73.9789643;
Asheville;Voltage Records;US;no;0;NC;35.59787850;-82.55360970;495520ececf42c5d251f9e1b1ee36f30;35.5978785,-82.5536097;
Wien;Dynamicrecords;AT;no;0;;48.19733429;16.34908295;ba078f07c6586c786c443e9bba6aa3b1;48.19733429,16.34908295;
Sault Ste. Marie;The Rad Zone;CA;no;0;;46.52058792;-84.27408600;f6b2010ead768def03f3dbdf0362b4e4;46.52058792,-84.274086;
Asbury Park;Hold Fast;US;no;0;NJ;40.21614110;-74.01104030;893dec305aef74f943ccd687aa65de43;40.2161411,-74.0110403;
London;Sounds That Swing;GB;no;0;;51.53754250;-0.14541950;e95a1b456db0bb9a1e4946bfdc069b7e;51.5375425,-0.1454195;
Vancouver;Vinyl Records;CA;no;0;;49.28312480;-123.11024900;4fbde4aa1073bf8d2b4903aebf1f1c73;49.2831248,-123.110249;
Osaka;Root Down Records;JP;no;0;;34.67418430;135.49847700;9f5c2fb612c19ff2938c57bdebf3073c;34.6741843,135.498477;
Nizhnij Novgorod;Kladovka - КЛАДОВКА;RU;no;0;;56.32436970;44.00305600;616f0677a04f756740ab40f958903466;56.3243697,44.003056;
Marlborough;Sound Knowledge;GB;no;0;;51.41975610;-1.73275510;c46737592fb625406579094af347fca2;51.4197561,-1.7327551;
Changwon;"Ggumnamu (""Dreamtree"")";KR;no;0;;35.22964859;128.68066406;;35.22964859,128.68066406;
DeLand;Groovy Records;US;no;0;FL;29.03037800;-81.30365400;4488df0a956e6e1522b71edf7d4472a6;29.030378,-81.303654;
Luxembourg;CD Buttek Beim Palais Sarl;LU;no;0;;49.61108780;6.13231897;ad23cff54875b915d940a2c1d36c497c;49.6110878,6.13231897;
Stockholm;Bengans;SE;no;0;;59.33034270;18.06527640;f585ba25ddc0274d6cbbe3ecb0b7bfb2;59.3303427,18.0652764;
San Sebastian;Libdisks;ES;no;0;;43.32228470;-1.97384405;b88ff5f301eed094b233fb1bf4ad00a1;43.3222847,-1.97384405;
New Delhi;Shah Music Centre;IN;no;0;;28.65226600;77.23494890;d86994cde43447e93c548ee9544e5b45;28.652266,77.2349489;
Cape Town;Kandi Records;ZA;no;0;;-33.94885250;18.48083610;1b0d7e8a7f2be328028dd65a333052a6;-33.9488525,18.4808361;
Ann Arbor;Underground Sounds;US;no;0;MI;42.27963450;-83.74638620;07b4e933c8304acaba391dcb86ee51d6;42.2796345,-83.7463862;
Bridgwater;West Quay Records;GB;no;0;;51.12948608;-3.00177908;9f21b2de8ae4fedf5fb1653c01f2546c;51.12948608,-3.00177908;
Columbia;Hitt Records;US;no;0;MO;38.95071793;-92.32521057;fcad7d31b4142dc55ba95ca8d9da2839;38.95071793,-92.32521057;
Singapore;For The Record;SG;no;0;;1.29191899;103.85013580;;1.29191899,103.8501358;
Austin;Antone's Record Shop;US;no;0;TX;30.29613720;-97.74256090;b149825709ed8756292b213746f4475e;30.2961372,-97.7425609;
El Paso;All That Music;US;no;0;TX;31.77635070;-106.38944970;963d44b94da4f71e5f9a3cfef6c428f5;31.7763507,-106.3894497;
Norfolk;Skinnies Records;US;no;0;VA;36.86949860;-76.29090840;cae865d6558ca5f8ddb8f39ef2633b21;36.8694986,-76.2909084;
Villefranche-sur-Saône;Underground Store;FR;no;0;;45.98892460;4.71634370;d8c6c174db5cb7c2a57f985bd89a5517;45.9889246,4.7163437;
Santo Domingo;Musicalia;DO;no;0;;18.47185175;-69.89037014;d41d8cd98f00b204e9800998ecf8427e;18.47185175,-69.89037014;
Port of Spain;Trinidad Music Store, Ltd.;TT;no;0;;10.66213894;-61.52388763;;10.66213894,-61.52388763;
Beijing;Indie Music;CN;no;0;;39.90402985;116.40752411;;39.90402985,116.40752411;
London;Eldica;GB;no;0;;51.54867940;-0.07642160;717ecbb4f8b6f1f86cda0d3981df2a05;51.5486794,-0.0764216;
Barcelona;Barranko Records;ES;no;0;;41.37481308;2.16787410;;41.37481308,2.1678741;
Napoli;Tattoo Records;IT;no;0;;40.84851074;14.25600338;a4a6dc959931c7afa6b704284bfa338f;40.84851074,14.25600338;
Singapore;Loong Records Shop;SG;no;0;;1.29201530;103.84986180;8499a659649a6f7ce68d3c6e3ce3cc80;1.2920153,103.8498618;
Surrey;Liquidation Treasures;CA;no;0;;49.10694240;-122.73481560;9280f4e14bca6dcc91c003e35e0cb36e;49.1069424,-122.7348156;
Potsdam;Silverspeed Records;DE;no;0;;52.40090000;13.05176010;e64332893b99413571b442d198a3c915;52.4009,13.0517601;
Bangor;Dr. Records;US;no;0;ME;44.79975050;-68.79349910;3739379dd7d71e37467ed8867d38c5d2;44.7997505,-68.7934991;
Norwich;Fine City Sounds;GB;no;0;;52.62999730;1.29128360;e80f8dd8ba01455007e24d24d0385434;52.6299973,1.2912836;
Izola;h.o.m.e. - house of music eternity;SI;no;0;;45.53710556;13.66466999;cc38b75720197985a6af1def47cb156d;45.53710556,13.66466999;
Lörrach;Secondhand Undercover;DE;no;0;;47.61408310;7.66086500;e08263d5bef453a464f139726fb30078;47.6140831,7.660865;
São José dos Campos;Sebo Estação Cultural;BR;no;0;;-23.18625690;-45.88501090;6f2d0d495b1fadf48180401c9fd5b3c4;-23.1862569,-45.8850109;
Málaga;Librería Códice;ES;no;0;;36.72308200;-4.42040180;ea93cda3c6bede8388b1962876c6d570;36.723082,-4.4204018;
São Paulo;Sebo Luis Borges;BR;no;0;;-23.54571342;-46.63968277;;-23.54571342,-46.63968277;
Marburg;Second-Hand ONSALE;DE;no;0;;50.82118988;8.77245140;b599f63f1d44cc9bc3caabcb52a07575;50.82118988,8.7724514;
Farmers Branch;Josey Records;US;no;0;TX;32.91118110;-96.88467960;884e49623400ffec8dc59ba3f3d0908e;32.9111811,-96.8846796;
Jesi;Transylvania Dischi;IT;no;0;;43.52257190;13.24412500;346d8b97318719597804594c1063ec7e;43.5225719,13.244125;
Augsburg;Pits Record Store;DE;no;0;;48.36735916;10.89997005;4a7f62ecaf8c115a545f36cf018732ee;48.36735916,10.89997005;
Den Haag;Bennies Fifties Store;NL;no;0;;52.11243300;4.29483300;64042264074ad826e634d0170a0c6f4c;52.112433,4.294833;
Leeuwarden;Bigbadwolfrecords;NL;no;0;;53.20280075;5.80871201;cc36ba55f3aa46fc46f0d4d045bb39ae;53.20280075,5.80871201;
León;Elektra Comics León;ES;no;0;;42.59341049;-5.57430792;19ae4e3f84afbe55bbac8aadadfb2a66;42.59341049,-5.57430792;
Paris;Born Bad Record Shop;FR;no;0;;48.85525513;2.37188697;c7b5a66afe467f364aed2a9de2a11934;48.85525513,2.37188697;
Tacoma;Turntable Treasures;US;no;0;WA;47.25576500;-122.46926610;67a210fc14abd806bd7dd06c73386dde;47.255765,-122.4692661;
Helsinki;Fuga Oy;FI;no;0;;60.17372894;24.93504906;dc034a31a3a16e2fe7abc0002e0c0762;60.17372894,24.93504906;
Columbus;Hippie Hut Guitars & Things;US;no;0;OH;39.99004364;-83.00624847;3bca612242a371396931ed16fcfa2e11;39.99004364,-83.00624847;
Würzburg;musicland CD-LP-Bücher;DE;no;0;;49.78924470;9.93192530;ef5c389f735086c9350d6ad6d7f9cc1b;49.7892447,9.9319253;
Luzern;Music & Art M. Akardas;CH;no;0;;47.04584885;8.30598068;ec3e5da3174f11ac77bd56a0e145dc6c;47.04584885,8.30598068;
Koog aan de Zaan;De Muziek Freak;NL;no;0;;52.46231842;4.81072187;e2da0912095b2f79fc893009f85dcaa3;52.46231842,4.81072187;
Vlissingen;De Platenbaas;NL;no;0;;51.44276047;3.57355499;42ed3a96235a0696cad81ca97b3ec80e;51.44276047,3.57355499;
Laakdal;Vdp Records;BE;no;0;;51.06969970;4.98696360;accb033b8a11f5ac12ffeee5f3935464;51.0696997,4.9869636;
København;Ooh Aah Records;DK;no;0;;55.69544540;12.57194590;839127209731966acbf6be4b7899b611;55.6954454,12.5719459;
Nagoya;Banana Records - （有）バナナレコード 名駅店;JP;no;0;;35.16988100;136.88599200;716078a61edfdaf3c69a57f8b51a7e2c;35.169881,136.885992;
Gifu-shi;Banana Records;JP;no;0;;35.41114050;136.76053600;0904cf47ac65d6c80cd9af7d31e6add8;35.4111405,136.760536;
Buenos Aires;Discos Opus - Todo En Discos Antiguos y Agotados;AR;no;0;;-34.62902710;-58.46570400;264cccfec8f0b12134993d0af44e9e9f;-34.6290271,-58.465704;
Kobe;Gapon Records;JP;no;0;;34.68948990;135.18898300;05a071a0ca0abfccb849e97308acb285;34.6894899,135.188983;
Hiroshima;Nordic Sound Hiroshima - ノルディックサウンド広島;JP;no;0;;34.39366300;132.46724100;98d7e95336c52512ba550a883ff919be;34.393663,132.467241;
Tokyo;Bonjour;JP;no;0;;35.67216492;139.76312256;;35.67216492,139.76312256;
Rorbas;Oldie-Radio Phonothek;CH;no;0;;47.53416270;8.57796380;d9b68c9cdc1482a259a1d859ec7df5ec;47.5341627,8.5779638;
Regina;T+A Vinyl and Fashion;CA;no;0;;50.44694900;-104.60365800;cb85e4f11254222c93b260bcfc812701;50.446949,-104.603658;
Victoria;Vinyl Envy;CA;no;0;;48.42947290;-123.35864590;c49a005bcd5f9a6d0986b4c2e9175be8;48.4294729,-123.3586459;
Helsinki;Divari Kaleva;FI;no;0;;60.18748093;24.95274925;0f1f35e7c3ec3fe08ff7c6cdac7e9519;60.18748093,24.95274925;
Glasgow;Palais de Danse;GB;no;0;;55.86494700;-4.25762400;3a85f542cd5cc3b3a19536f827e73d36;55.864947,-4.257624;
Bristol;Idle Hands Records;GB;no;0;;51.46244812;-2.58871007;346f81db04629cd4aff094e26a875b14;51.46244812,-2.58871007;
Genève;Urgence Disk Records;CH;no;0;;46.20398331;6.13607693;;46.20398331,6.13607693;
Paris;La Presse de Saint-Ouen;FR;no;0;;48.90560913;2.33664703;2e5389830879d408df35c225619c38af;48.90560913,2.33664703;
Pontivy;Fnac Pontivy;FR;no;0;;48.05261610;-2.95780910;a882152c7efcc824400f6f7b819831a4;48.0526161,-2.9578091;
Chiuduno;Centro Della Musica;IT;no;0;;45.65123840;9.84795290;6f97827f7a8dccd30b15e5c9e968fe8e;45.6512384,9.8479529;
Bangkok;Bungkumhouse Records;TH;no;0;;13.72971630;100.58093610;d014a2eed1a0b66217f444a7ac4ecff8;13.7297163,100.5809361;
Brisbane;Monster Robot Party;AU;no;0;;-27.45551370;153.00753330;3e2cf90299f6a67f78a377830ad5cf7f;-27.4555137,153.0075333;
Porto;Once Upon a Time in Port ...;PT;no;0;;41.14694214;-8.61501122;279ebd05e1f46f5c58f5ed87912964b8;41.14694214,-8.61501122;
Woodbridge;Whizzy Wallop Vinyl;GB;no;0;;52.09374990;1.31974290;773d194ce68bc6c9d0f999485c46f73c;52.0937499,1.3197429;
Gifu-shi;CD Zaurus - 中古CD・DVD ざうるす;JP;no;0;;35.43958470;136.73877000;1baf697e9882ec1ebb2b7806d13be774;35.4395847,136.73877;
Winston-Salem;Earshot Music;US;no;0;NC;36.07017670;-80.29519310;bee907b62758cf8ba6d8c045b2718528;36.0701767,-80.2951931;
Viljandi;Viljandi plaadimees;EE;no;0;;58.36762619;25.59406853;d0a7605bec6531e101021e6791921f74;58.36762619,25.59406853;
Hermitage;Melusina Records;US;no;0;PA;41.23436560;-80.43614890;2ca53d36213f68361ce0cda1f4c9a59f;41.2343656,-80.4361489;
New Delhi;Pagal Records Store;IN;no;0;;28.55367620;77.19465650;81501aa057e434a142fa038897085ce2;28.5536762,77.1946565;
Waynesboro;Chuck's R.I.P. Records;US;no;0;PA;39.74730830;-77.59014780;59d800db76df9b0964ac7c3dcc9ea807;39.7473083,-77.5901478;
Berlin;Voice of Stars;DE;no;0;;52.51910870;13.31847350;d5511e1844619e59dab1cc93a70cd8cc;52.5191087,13.3184735;
Winnipeg;Planet of Sound;CA;no;0;;49.93791450;-97.09251900;8b79f0c4141b90dcc20188d1e1824613;49.9379145,-97.092519;
Lewisville;Half Price Books;US;no;0;TX;33.00281430;-96.98145100;b00026594dce118d6bc65b104f737a73;33.0028143,-96.981451;
Mora;Vinyl & Ljudvintage;SE;no;0;;60.99989319;14.53739071;d41d8cd98f00b204e9800998ecf8427e;60.99989319,14.53739071;
Trento;Screen Studio S.r.l. - Apple Trento;IT;no;0;;46.05581284;11.11602020;a7106f4de13a96c2d3b328a5417e47e2;46.05581284,11.1160202;
Paris;Gabba Gabba Records;FR;no;0;;48.90201950;2.34191203;;48.9020195,2.34191203;
São Paulo;Dance Division Records;BR;no;0;;-23.56423759;-46.66700745;151ef5a605aea2d27e0d79c92f8487c4;-23.56423759,-46.66700745;
Osaka;Waxpend;JP;no;0;;34.67343140;135.49554443;6304404f5f66442e6852f636e46ecc45;34.6734314,135.49554443;
Frauenfeld;Underground Records;CH;no;0;;47.55772400;8.89900303;d41d8cd98f00b204e9800998ecf8427e;47.557724,8.89900303;
Burntwood;Retro Revolution;GB;no;0;;52.67157745;-1.93395698;d8bc71232cbd97a3a1347ca4f53b3bb0;52.67157745,-1.93395698;
Manchester;Hi-Tackle;GB;no;0;;53.49021149;-2.24944496;d41d8cd98f00b204e9800998ecf8427e;53.49021149,-2.24944496;
Lincoln;Lincoln Vintage Vinyl;US;no;0;NE;40.82180900;-96.62392990;241e4e2a98a4f08ffd3ab941e834b893;40.821809,-96.6239299;
Montevideo;Cucu Disquería 33 Revoluciones;UY;no;0;;-34.90744470;-56.20994960;f531e3bc04c4392b3684c6f484296041;-34.9074447,-56.2099496;
Scituate;Scituate Music Center;US;no;0;MA;42.19550770;-70.72505720;39055b4fefac649d27b6a65981e36b19;42.1955077,-70.7250572;
Tallinn;Biit Me Record Store / Oü Biitmii;EE;no;0;;59.43692780;24.74741173;c3f582f644fbc679ec5d237129bc4b2c;59.4369278,24.74741173;
Taunton;Blackcat Records;GB;no;0;;51.02259620;-3.10698710;83df30144af344a29194f0b9c081c4de;51.0225962,-3.1069871;
Lithonia;American Hardware Center;US;no;0;GA;33.70456590;-84.11456910;795e70750b13aa59af5fcaa44289cffb;33.7045659,-84.1145691;
Bonn;Mr. Music;DE;no;0;;50.73377610;7.09612460;6659b955ad3cffc2c8a45c1f316e245e;50.7337761,7.0961246;
Besançon;FULL COMPACT;FR;no;0;;47.23826100;6.02160380;594f1a9a5fa923dfdd13aad97e45a2a7;47.238261,6.0216038;
Rancho Cucamonga;Bob's Records;US;no;0;CA;34.11326940;-117.58204040;d41d8cd98f00b204e9800998ecf8427e;34.1132694,-117.5820404;
Perth;Rhubarb Records Vinyl Cafe;AU;no;0;;-31.93794870;115.84239840;8c82d712596b19a13013be7e6b5f2529;-31.9379487,115.8423984;
Rotterdam;JensDoRecords;NL;no;0;;51.93316650;4.48608390;e23fd9f4762809a0c0a2100ef0846056;51.9331665,4.4860839;
Fukuoka;Groovin' - グルーヴィン 福岡店;JP;no;0;;33.58596000;130.39100500;a23e3a1e65f9de74f27c49c26ec99b35;33.58596,130.391005;
Swansea;Vault Vintage;US;no;0;MA;41.73143690;-71.20441070;a63d47568939f9484468814fb735088e;41.7314369,-71.2044107;
Walsall;Revolution Records & Vapes;GB;no;0;;52.58573540;-1.98387970;6ed5ff594add8377923d0e42662c39ca;52.5857354,-1.9838797;
Budapest;Kalóz Records;HU;no;0;;47.49293400;19.06839100;848d438e64dfb9ce34e1504b57dfad97;47.492934,19.068391;
Bremen;ROCKland;DE;no;0;;53.07194180;8.82996930;0abe5348edc143ac5af464b6ffbbed73;53.0719418,8.8299693;
Sapporo;ROOTS RECORDS;JP;no;0;;43.05886950;141.34796260;8af0eef64b493faf37d219aa0a917e68;43.0588695,141.3479626;
Leicester;Out Of Joint Records;GB;no;0;;52.63524250;-1.13483360;deba885048828a20e51a7cfa6624c33f;52.6352425,-1.1348336;
Bristol;Specialist Subject Records;GB;no;0;;51.45557950;-2.58278960;570510c8bc2298f69167ee9f71a33481;51.4555795,-2.5827896;
Nice;Fnac Nice;FR;no;0;;43.70338120;7.26659780;9f543fe34156e8a5d4a5e0596f44c4fb;43.7033812,7.2665978;
Istanbul;Velvet Indieground Plak / Records;TR;no;0;;41.05677650;28.98263000;eb00e842d8c1e76e6befc3e3ea9dd80c;41.0567765,28.98263;
Schleswig;Haithabu-Vinyl;DE;no;0;;54.51505300;9.55472040;0369c38acd30dd8cc8760d6bddc6721b;54.515053,9.5547204;
Moscow;Paradise Ridge C D's & Tapes;US;no;0;ID;46.73219900;-117.00045920;a30f485f3ad611d2515d09cceddb79a2;46.732199,-117.0004592;
Fukuoka;70sRECORDS GARAGELAND;JP;no;0;;33.58602950;130.39568540;3d43555bbdcdb953546e131fbda93453;33.5860295,130.3956854;
Kansas City;Sister Anne's;US;no;0;MO;39.07042160;-94.57374730;a15f19fd9697fa4cec449876cf17a2ca;39.0704216,-94.5737473;
Cork;Golden Discs;IE;no;0;;51.88040920;-8.50753080;80ffcfb03e3a31e0bacfb41b8041d917;51.8804092,-8.5075308;
Oxley;Relove Vinyl;AU;no;0;;-27.56944810;152.98105000;d431304cd69371ed8eb635dfb93b4114;-27.5694481,152.98105;
Tokyo;Cultural Hall - 文化堂;JP;no;0;;35.70862620;139.66625190;d41d8cd98f00b204e9800998ecf8427e;35.7086262,139.6662519;
Barcelona;El Genio Equivocado, la botiga;ES;no;0;;41.40075950;2.15221620;d01640b79c59bd9b155ed0ba0d566d26;41.4007595,2.1522162;
Castel Guelfo di Bologna;We Rock;IT;no;0;;44.43790600;11.60865700;ef5e7f6606788e9c343d022fda5c7a4b;44.437906,11.608657;
Toledo;Candem Rock Toledo;ES;no;0;;39.85962910;-4.02072340;ba527a77e948f0f9422681727ce289b2;39.8596291,-4.0207234;
Dunedin;Taste Merchants;NZ;no;0;;-45.87498960;170.50729710;54f6c5d9df16fcc536caf873bd0dcfbb;-45.8749896,170.5072971;
Waterbury;FYE;US;no;0;CT;41.54958110;-73.02578930;bdbf3be9ab161d9cd10518fa65f16307;41.5495811,-73.0257893;
Trumbull;FYE;US;no;0;CT;41.22964910;-73.22649220;83963021e743e090309365c7b49094ea;41.2296491,-73.2264922;
Selinsgrove;FYE;US;no;0;PA;40.82542630;-76.84819670;95f145377de4b97532a16b6d2981ba30;40.8254263,-76.8481967;
Albuquerque;FYE;US;no;0;NM;35.19762780;-106.65657460;de65096e71f9ca2b392786952f1bbb8c;35.1976278,-106.6565746;
Livingston;FYE;US;no;0;NJ;40.77686930;-74.35384870;1c37f4eb96d834b41629c557d9fb8e1f;40.7768693,-74.3538487;
Louisville;FYE;US;no;0;KY;38.14205170;-85.67205390;bb4fb8e8e2bdcce1b0f35e1ac4a5616e;38.1420517,-85.6720539;
Portland;Hawthorne Game Exchange;US;no;0;OR;45.51235810;-122.62670240;f418d7b6c68da1d8d5267120e074baeb;45.5123581,-122.6267024;
Harpers Ferry;Talisman Records;US;no;0;WV;39.32648560;-77.74374650;d41d8cd98f00b204e9800998ecf8427e;39.3264856,-77.7437465;
Taipei;Eslite Dunnan Store;TW;no;0;;25.03921190;121.54958290;e14f8a0c69e2730e7e75cb95f0536554;25.0392119,121.5495829;
Tokyo;ディスクユニオン新宿ラテン・ブラジル館;JP;no;0;;35.69064100;139.70385500;9cb1d968c520bef2940290c551dd4c89;35.690641,139.703855;
Kyoto;Roman Shouten;JP;no;0;;35.01381140;135.77538740;723cf6133858ad273b76f51fdc0e6180;35.0138114,135.7753874;
Osaka;Hanky Panky Records - ハンキーパンキーレコード;JP;no;0;;34.67458460;135.50203040;f004d7849b9adf523845a80582b5417c;34.6745846,135.5020304;
Oud-Beijerland;De Vinyl Garage;NL;no;0;;51.82411720;4.40907380;4f35973a1dc401494a260c07cee97e94;51.8241172,4.4090738;
Nyons;Jungle Groove;FR;no;0;;44.36034310;5.14064160;d41d8cd98f00b204e9800998ecf8427e;44.3603431,5.1406416;
Yokohama;Hot Vinyl;JP;no;0;;35.41044700;139.59632100;61d8fcfb4b298a4ef12a5929f85ba281;35.410447,139.596321;
Tokyo;Sawaddee Shop;JP;no;0;;35.69427000;139.69618100;8a266b1eabea34455aa48b8f5e1c6eb1;35.69427,139.696181;
Tokyo;ヨーロピアンパパ;JP;no;0;;35.70803200;139.65160800;128fd2da075aeb8443bc099b675e9447;35.708032,139.651608;
Hull;Warren Record Store;GB;no;0;;53.74590220;-0.33457050;d41d8cd98f00b204e9800998ecf8427e;53.7459022,-0.3345705;
Guangzhou Shi;The Vinyl House;CN;no;0;;23.12832700;113.32699000;d41d8cd98f00b204e9800998ecf8427e;23.128327,113.32699;
Berlin;The Beauty and the Beat;DE;no;0;;52.53910960;13.20598770;a84561a1ec0887f5968e13b15bc8d74e;52.5391096,13.2059877;
Kortrijk;Kortom;BE;no;0;;50.82747300;3.26948500;46647df81914bac411d012f908074b5c;50.827473,3.269485;
Auckland;Holiday Records;NZ;no;0;;-36.84902320;174.75858590;c2333b55b1853429c908fc146bce2535;-36.8490232,174.7585859;
Fullerton;Half Off Books Records Films;US;no;0;CA;33.87249930;-117.92552570;d1fa7f6af90be3fe2b957f0a1e5f2422;33.8724993,-117.9255257;
Plovdiv;Hot.shot.vinyl;BG;no;0;;42.14534390;24.75732240;80d979dba178bcf205e4f0c05bfeb131;42.1453439,24.7573224;
Lima;Mundo Vinyl Korea Peru Esquina Vinilo;PE;no;0;;-12.07229424;-77.05052948;;-12.07229424,-77.05052948;
Zaragoza;Out Of Business;ES;no;0;;41.64352798;-0.88801301;;41.64352798,-0.88801301;
Manacor;Baba Discos i Jocs Manacor;ES;no;0;;39.56637250;3.21045690;684e33ea1e0235faa89194b29a7410fe;39.5663725,3.2104569;
San Giovanni Valdarno;Musicomania;IT;no;0;;43.56567764;11.52935410;711fb47bebfa6497ef708951b65b51fb;43.56567764,11.5293541;
Nottingham;Rough Trade Nottingham;GB;no;0;;52.95391083;-1.14401305;ddd237328ecc62410de5b0003e4239aa;52.95391083,-1.14401305;
Barcelona;Decibel;ES;no;0;;41.38149490;2.17995150;478fb9985e4698d71b2f717779053ae8;41.3814949,2.1799515;
Bexhill-on-Sea;The Record Shop;GB;no;0;;50.83978271;0.47000301;c3a4ff98b466a171c581be90328c2811;50.83978271,0.47000301;
Birmingham;Ignite Records (Level 2);GB;no;0;;52.48141861;-1.89464605;63a8ac2d1892ce5eca7bc10dd7f415f6;52.48141861,-1.89464605;
Recife;Vinil Alternativo;BR;no;0;;-8.06206180;-34.88374980;d497fc073a7711a6637d8ffae8479c17;-8.0620618,-34.8837498;
Caerphilly;Eds Attic Records;GB;no;0;;51.57272720;-3.22054410;07a20b1d449fb33bd5114925c0938826;51.5727272,-3.2205441;
Wrocław;Vinyl Cafe;PL;no;0;;51.11171830;17.03263350;c8649a43750119c51408df9fe0152eed;51.1117183,17.0326335;
Coventry;hmv;GB;no;0;;52.40862980;-1.51330270;0eb5bcd8c1b0d160110054c89ac4e515;52.4086298,-1.5133027;
Liverpool;hmv;GB;no;0;;53.40399920;-2.98711140;1e895af9c8512789260e554153adbf22;53.4039992,-2.9871114;
Olney;Oxfam;GB;no;0;;52.15251890;-0.70264420;b92cbac30db7fb363ae513c8ab0d78a1;52.1525189,-0.7026442;
Oxford;Oxfam Shop;GB;no;0;;51.75413510;-1.25717620;2e13958d8bdceb6004cac57de7fee847;51.7541351,-1.2571762;
Ramsgate;Vinyl Head Record Shop;GB;no;0;;51.33160330;1.41389050;049e18a9a3549ef7b40b491390119767;51.3316033,1.4138905;
Hamburg;Smallville Records;DE;no;0;;53.55837500;9.96850350;262419530620696e312769f061089027;53.558375,9.9685035;
Maesteg;Backtrack Records;GB;no;0;;51.63195801;-3.65894198;711ea0a490f199e8583cbbf57ecc1f4c;51.63195801,-3.65894198;
Southend-on-Sea;Leigh Record Exchange;GB;no;0;;51.54763031;0.63720202;6b105902e7187a1d1d546aca15c59dca;51.54763031,0.63720202;
Lansing;The Record Lounge;US;no;0;MI;42.72218300;-84.55212110;7e820faa6b022ee9af461c34a6f9db85;42.722183,-84.5521211;
Bossier City;2nd & Charles;US;no;0;LA;32.53023540;-93.70558700;89e2236152075b10b19a04d8e1db18b9;32.5302354,-93.705587;
Hong Kong;Zoo Records;HK;no;0;;22.31641950;114.17023940;c5815b427d4aca71a8b9fed61dc5c3be;22.3164195,114.1702394;
Bratislava;Vinyloveplatne;SK;no;0;;48.14516449;17.10772705;;48.14516449,17.10772705;
Buena Park;Bionic Records;US;no;0;CA;33.81567340;-118.02764670;8d0d4f7d28f1309529ee4eb0dcf6ddb7;33.8156734,-118.0276467;
Nashville;Boulevard Record Shop;US;no;0;TN;36.13203830;-86.79519560;c106b6219a85f4148f3b9dd56856959c;36.1320383,-86.7951956;
Lilburn;Book Nook;US;no;0;GA;33.89803696;-84.13687897;39a512e49645541c8be1aa85b0ac1c5e;33.89803696,-84.13687897;
Grand Haven;Off The Record;US;no;0;MI;43.06087290;-86.21500720;16f4676e0d7f27e2656ff5883228afd1;43.0608729,-86.2150072;
Scranton;Embassy Vinyl;US;no;0;PA;41.40927840;-75.65972300;853a92c78c1e7f5bf07f28d5c37162ca;41.4092784,-75.659723;
Haddonfield;Haddonfield Record Exchange;US;no;0;NJ;39.90328630;-75.03956110;85d0a5cb38f63d0face71de894bf1b92;39.9032863,-75.0395611;
Austin;Groovers Paradise;US;no;0;TX;30.40589860;-97.87395160;b52d86b153b747d698d6048ca01ed5ee;30.4058986,-97.8739516;
York;Iko's Music Trade;US;no;0;PA;39.97293900;-76.68099700;c0531ccb1fb1d69b90a8bf00156dc905;39.972939,-76.680997;
Seattle;Light In The Attic Record Shop;US;no;0;WA;47.62274980;-122.35497600;825d49305c8d45827c9512a1d6c55858;47.6227498,-122.354976;
Richmond;Virginia's Memory Lane Records;US;no;0;VA;37.63032450;-77.50284830;0666d1f4f0a4180b001355feed849ecd;37.6303245,-77.5028483;
San Clemente;Power Plant Records;US;no;0;CA;33.43617249;-117.62081909;759c80ada24c165c380654a3cad22885;33.43617249,-117.62081909;
Redding;PLUTOS;US;no;0;CA;40.56311090;-122.36326190;6a1c595d9c22afa53e2633d54d78002f;40.5631109,-122.3632619;
Lincoln;Roots Music Shop;US;no;0;NE;40.81563900;-96.69441400;27fdaada50323b962a9734899cffb5f8;40.815639,-96.694414;
Collinsville;Rich's Record and Audio;US;no;0;IL;38.66982470;-89.98735350;701f24872f5ec473d4fa88050f892f8a;38.6698247,-89.9873535;
Owosso;Round Midnight Records;US;no;0;MI;42.99778120;-84.18278190;918d1eee516076e401ef3b9d28a1bdef;42.9977812,-84.1827819;
New York;Stray Vintage;US;no;0;NY;40.74645233;-73.91572571;909db6bdb7b35bcdc3efe6e6f67781bd;40.74645233,-73.91572571;
Cleveland;The Exchange;US;no;0;OH;41.50926800;-81.58017000;a15e7ee0da2412f21760821dd58e1cba;41.509268,-81.58017;
Warszawa;Vinyl Tamka;PL;no;0;;52.23263168;21.01566124;23faabd4913494bb6f5bd1e2d2162990;52.23263168,21.01566124;
Białystok;Winylownia Białystok;PL;no;0;;53.12188339;23.16763115;2d029bc739ff2aba6eb5fca842972839;53.12188339,23.16763115;
Leeds;Tribe Records;GB;no;0;;53.79623970;-1.53858850;5fbe72bf4cb566bb594c4d6fd9ef5f2d;53.7962397,-1.5385885;
Santiago;Kali Yuga Distro;CL;no;0;;-33.42302322;-70.60995483;80df3de0bca4d631a28b580f910ff3f4;-33.42302322,-70.60995483;
Derby;BPM Records;GB;no;0;;52.92328420;-1.47963050;ee8f1c7807ce7a30393e4484dcd4cc48;52.9232842,-1.4796305;
Prague;Bazaar CD DVD Vinyl PRAGUE;CZ;no;0;;50.07995750;14.42377630;2c2e353bfaf75864975c4ad28e80f492;50.0799575,14.4237763;
Orlando;Uncle Tony's Donut Shoppe;US;no;0;FL;28.55332184;-81.37905884;7e8adaf6c9f51349355ff207c4ac9e7d;28.55332184,-81.37905884;
Peißenberg;Die Schlachtplatte;DE;no;0;;47.79103851;11.06239986;;47.79103851,11.06239986;
Reykjavík;Hljómsýn;IS;no;0;;64.13411713;-21.87521553;720d7eec3e10ec4aea5a52f77b07053b;64.13411713,-21.87521553;
Dundalk;Classified Records;IE;no;0;;54.00291530;-6.40334810;2689015e52dd36067b71ffa00f6a2b1c;54.0029153,-6.4033481;
Kyoto;TRANSIT RECORDS KYOTO;JP;no;0;;35.01951400;135.76918700;b8da82a4ce54414fd8c7c8389cab1b19;35.019514,135.769187;
Newcastle upon Tyne;Long Play Café;GB;no;0;;54.96841200;-1.60875070;e0e68f895377797ae86364c722f023d9;54.968412,-1.6087507;
Petersfield;Vinyl Matters;GB;no;0;;51.00534030;-0.93808170;7bc5eeac8694d9b8ec4d6ba9d7922b8f;51.0053403,-0.9380817;
Kuala Lumpur;Crossroads Records Kota Damansara;MY;no;0;;3.15248895;101.60046387;a4b94ac24a2656f8af99516495c404e0;3.15248895,101.60046387;
Toulouse;Vicious Circle;FR;no;0;;43.60359192;1.44247198;b288cfe77a860d36df2571d525ac82cc;43.60359192,1.44247198;
Latina;Vinileria;IT;no;0;;41.47320010;12.90811880;f43e869114defed1b9358d904090a7ac;41.4732001,12.9081188;
Assen;Cd-afdeling Warenhuis Vanderveen Assen;NL;no;0;;52.99441910;6.56080103;524f485e7facc4e8ab90aadd0a4be429;52.9944191,6.56080103;
Osaka;Panda Panda;JP;no;0;;34.66978760;135.49814120;d5c43b0249dc483ee95f56c4dbfcc73a;34.6697876,135.4981412;
Braunschweig;Buchhandlung Graff GmbH;DE;no;0;;52.26512146;10.52168465;849cadbc2851e98c35fd0425061554e7;52.26512146,10.52168465;
Lima;Disqueria;PE;no;0;;-12.05070340;-77.03952410;06157739f6792af80068e9913152590a;-12.0507034,-77.0395241;
București;Music Box;RO;no;0;;44.47616577;26.10478592;9b21ef1592409f0c17d2b566c8004d5c;44.47616577,26.10478592;
Moskva;Deficit Records;RU;no;0;;55.74575424;37.64632034;d41d8cd98f00b204e9800998ecf8427e;55.74575424,37.64632034;
Ho Chi Minh;Darkroom Cafe;VN;no;0;;10.77759460;106.68657330;6c8c349b1eaeba92656b252bfb277f05;10.7775946,106.6865733;
Taipei;Metal Gate 揺滾帝国/金属極境;TW;no;0;;25.05058861;121.56827545;39fc633f9b71e67f29a5e07a2f72e75d;25.05058861,121.56827545;
Cedar Rapids;Analog Vault;US;no;0;IA;41.97066800;-91.65941480;5a169f72ffcde1856f68d8a8bf9c9544;41.970668,-91.6594148;
Nashville;Vinyl Tap;US;no;0;TN;36.18852250;-86.72949570;c27607358a4c3ee6db64cad3517110bc;36.1885225,-86.7294957;
San Francisco;Stranded SF;US;no;0;CA;37.75609970;-122.42084503;453e56fc4b3003a1d45335bbdc07c4c6;37.7560997,-122.42084503;
Eureka Springs;MoJo's Records;US;no;0;AR;36.40439100;-93.73767700;c5636f67d9cd95beb12429b5ecd8c920;36.404391,-93.737677;
Dublin;Mojos Records;IE;no;0;;53.34576970;-6.26287720;43e23a9fb2f7f675be30517934150834;53.3457697,-6.2628772;
Buenos Aires;Oldies Music DISQUERIA;AR;no;0;;-34.75959778;-58.40041733;22bd42410e1486cdc3b0551da2e5681b;-34.75959778,-58.40041733;
Palma;El Corte Inglés;ES;no;0;;39.57344980;2.65657440;424416c3aab12ee2efe9dfe3b31c166e;39.5734498,2.6565744;
Araranguá;Loja Billy Willy;BR;no;0;;-28.93611145;-49.48466873;ba7c47bb08bde800c82b23902ff4ecac;-28.93611145,-49.48466873;
Belfast;Timeslip Records;GB;no;0;;54.58794785;-5.93267107;6a83b80f6e1073cf5893c1b80009ab46;54.58794785,-5.93267107;
Carouge;Monokini Records;CH;no;0;;46.18520460;6.14202470;fa2a279461ce30c66eeb7c96ecb3f287;46.1852046,6.1420247;
Yucca Valley;Vista Music;US;no;0;CA;34.11975590;-116.42312830;9a062c9445b9f65aa17a1fbbea5a8939;34.1197559,-116.4231283;
Nancy;Glorieuses;FR;no;0;;48.69567320;6.19445400;1560ea85e9bf3d2af4ecdffa6ae92d04;48.6956732,6.194454;
Langueux;Cultura;FR;no;0;;48.49534170;-2.72995580;64e10bfd6d5053938ce49a81ae3e628c;48.4953417,-2.7299558;
Silverdale;Kitsap Audio Video;US;no;0;WA;47.65482490;-122.68837850;31c13599739824b74f654c4524f7b5af;47.6548249,-122.6883785;
Toruń;Vinylove;PL;no;0;;53.01473730;18.61117240;b449f2af86b0d3811eeb00500360bbae;53.0147373,18.6111724;
Negril;Anthony Able Record Shop;JM;no;0;;18.27899530;-78.34893400;d41d8cd98f00b204e9800998ecf8427e;18.2789953,-78.348934;
Santiago;Baltazar Vinyl;CL;no;0;;-33.42960810;-70.62193730;d41d8cd98f00b204e9800998ecf8427e;-33.4296081,-70.6219373;
Hartlepool;Northern Rocks Vintage Vinyl;GB;no;0;;54.67994150;-1.21989630;d41d8cd98f00b204e9800998ecf8427e;54.6799415,-1.2198963;
Dieppe;Le Cercle;FR;no;0;;49.92533680;1.07417770;d41d8cd98f00b204e9800998ecf8427e;49.9253368,1.0741777;
Taipei;Music House - 泽龙唱片;TW;no;0;;25.04247390;121.50675190;944f37511fb2b795e1e2db80da3e987b;25.0424739,121.5067519;
Rockland;Deep Grooves Record Co.;US;no;0;MA;42.12644390;-70.91450820;e6d26151db38a994d3370ae4a4cfc9c4;42.1264439,-70.9145082;
Southampton;Overdraft Records;GB;no;0;;50.91936830;-1.42936530;01586978c5c23e45bd14d71184467052;50.9193683,-1.4293653;
Provo;3hive Record Lounge;US;no;0;UT;40.24013230;-111.65754850;a9e5a01a10404092fa5bef4d4342bde3;40.2401323,-111.6575485;
Humble;David’s Record Shop;US;no;0;TX;29.99755580;-95.26168980;d41d8cd98f00b204e9800998ecf8427e;29.9975558,-95.2616898;
New York;Etiquette;US;no;0;NY;40.71074680;-73.96627170;ff87903fe282aa828320240196daaa24;40.7107468,-73.9662717;
Hameln;Buchhandlung Seifert & Leseratte;DE;no;0;;52.10431000;9.35926000;3ce1f979f6c37b9c2d22a758bf9fbb85;52.10431,9.35926;
Gießen;Music-Attack;DE;no;0;;50.58483960;8.67113060;160a591dff22cc7db7c0ccb5c079389b;50.5848396,8.6711306;
Cleveland;A Separate Reality Records;US;no;0;OH;41.48255900;-81.76575600;1cdadb46871c3de96bc9d1f4dfd6523d;41.482559,-81.765756;
Evansville;Space Monkey Records;US;no;0;IN;37.95151930;-87.54339890;29e26f983f530286d47d14af154a492d;37.9515193,-87.5433989;
Kyiv;LongPlay Community;UA;no;0;;50.45282260;30.50633820;0d575ec6dec443fd7ca244684df3013a;50.4528226,30.5063382;
Toulouse;Casemate Record Shop;FR;no;0;;43.61233680;1.43820250;d41d8cd98f00b204e9800998ecf8427e;43.6123368,1.4382025;
Sankt-Peterburg;Diez;RU;no;0;;59.92547800;30.35185200;7709a45e5fc178d2aaa1b3cba8607b1d;59.925478,30.351852;
Tokyo;レコファン秋葉原SEEKBASE期間限定バザール;JP;no;0;;35.70071570;139.77330310;2a16ab0af712e320d6c3b7900d57a8ac;35.7007157,139.7733031;
Hong Kong;Infree Records;HK;no;0;;22.31598290;114.17194240;d5f996466227b4c1590ea76cb97a0363;22.3159829,114.1719424;
Ankara;Ada Muzik;TR;no;0;;39.88233880;32.68535290;84bd25ddd3007d851f180a3f1868c831;39.8823388,32.6853529;
Maracaibo;La Yeya Record;VE;no;0;;10.66430550;-71.61786470;7f09ed318338cdf73b47512e537c673a;10.6643055,-71.6178647;
Stourbridge;Record Culture;GB;no;0;;52.45676420;-2.14773850;ef06c34b708f2b18c432c5ac6eba6a0a;52.4567642,-2.1477385;
Hull;Out of the Attic Music;GB;no;0;;53.74378250;-0.34204500;9e3e72b0da3a263eb1023d64045d49db;53.7437825,-0.342045;
Varberg;Backlist Company Games & Records, Varberg;SE;no;0;;57.10735200;12.24995160;d751b7d11d9a4c4a2f7073a22fac59df;57.107352,12.2499516;
Nitro;Modern Vintage Vinyl;US;no;0;WV;38.42202210;-81.84103760;48f499995a2b2a61357fe41047c1332d;38.4220221,-81.8410376;
Curitiba;Discos de Vinil Feira Largo da Ordem de Curitiba;BR;no;0;;-25.42775630;-49.27220610;6f5828ea3250f7d5a7e295f88b600553;-25.4277563,-49.2722061;
Boston;Nuggets;US;no;0;MA;42.34857178;-71.09447479;8a3532f57d25a1774a1c000d8fdcb212;42.34857178,-71.09447479;
Stuttgart;Cheap Trash Records;DE;no;0;;48.77561569;9.14974499;e4468f4ba0ffeced504278ee5a97214f;48.77561569,9.14974499;
Wiesbaden;Schallplatten-Antiquariat;DE;no;0;;50.08119750;8.24091340;a72ca28a139da11ff0f52e9360bd5c38;50.0811975,8.2409134;
Amsterdam;Record Palace Weteringschans;NL;no;0;;52.36209106;4.88497496;64096d8629c5705e9e725de652b13fdf;52.36209106,4.88497496;
Porthmadog;Cob Records;GB;no;0;;52.92453384;-4.12650919;90129d9f96ae07ff49f4992d6c25481e;52.92453384,-4.12650919;
Chester;Grey n Pink Records;GB;no;0;;53.19492722;-2.88634205;77d80e6a59200b239838e0e1d6b41a6c;53.19492722,-2.88634205;
Berlin;33 rpm Store;DE;no;0;;52.49994278;13.43906784;18962dd809e98a11b83a50a192edd81a;52.49994278,13.43906784;
Minneapolis;Extreme Noise;US;no;0;MN;44.94824720;-93.28461620;69dc855d1fbdba1956da432395cbf27f;44.9482472,-93.2846162;
Dallas;Bill's Records;US;no;0;TX;32.76808330;-96.79649620;059c4bb0ab4625c0436f8facd30f6c8d;32.7680833,-96.7964962;
Saginaw;Records & Tapes Galore;US;no;0;MI;43.42231690;-83.97114790;fbeced6d94530c8278e6b21f4d94ffb7;43.4223169,-83.9711479;
Seattle;Sonic Boom Records;US;no;0;WA;47.66849300;-122.38514070;0d02f1b6900bf3e5ca5f6667c9dd7472;47.668493,-122.3851407;
Chicago;Gramaphone Records;US;no;0;IL;41.93397190;-87.64567400;e94ed346808d92e749b413852f6244c0;41.9339719,-87.645674;
Bologna;Discobolandia;IT;no;0;;44.50109482;11.37047768;1f9fd0ffe4b0acad89f4d8ef47c0862e;44.50109482,11.37047768;
London;Alan's Records;GB;no;0;;51.59330370;-0.16699600;97148c85f2e5e6c2986f0158d54314cc;51.5933037,-0.166996;
Manchester;Eastern Bloc;GB;no;0;;53.48281180;-2.23384960;d89ab004aa3bd006d487610d0a9b6541;53.4828118,-2.2338496;
Augsburg;TONTRÄGER;DE;no;0;;48.36653137;10.89961529;6bd3b95f4cf299faecc346e6276d6c52;48.36653137,10.89961529;
Athina;Habeat Records;GR;no;0;;37.97821600;23.72535100;d7fc56619d8fe734c8c600f245ac49b6;37.978216,23.725351;
Malmö;Skivesset Records;SE;no;0;;55.59323883;13.02054691;3181e175a0e422f420a42ee074462343;55.59323883,13.02054691;
Madrid;Rock & Roll Circus;ES;no;0;;40.41908210;-3.70756880;58990a3f93fbe8236f6af08f0229e465;40.4190821,-3.7075688;
Madrid;Club Amigos del Disco;ES;no;0;;40.43541336;-3.71749496;adf021967abdc3b7b3b112ef1bc459d1;40.43541336,-3.71749496;
Alicante;Discos Naranja Y Negro;ES;no;0;;38.34805860;-0.48878450;54ccafd25662c30747f42a7ef73c883c;38.3480586,-0.4887845;
Poitiers;Plexus Records;FR;no;0;;46.58282000;0.34485700;0e13101ff158058cd253713b74418af8;46.58282,0.344857;
Manchester;Clampdown Records;GB;no;0;;53.48014832;-2.23311210;ec0a6943dd2955ae5e80c2c4613693b3;53.48014832,-2.2331121;
Bolton;X Records;GB;no;0;;53.58132935;-2.42852902;d1c2c35dee391bf52a67e7227c713bcc;53.58132935,-2.42852902;
Hengelo;PopEye;NL;no;0;;52.26477432;6.79596710;4e00ff7bb40ae2621fddcb82157df293;52.26477432,6.7959671;
Osijek;Ezop Antikvarijat;HR;no;0;;45.55756040;18.67587990;de9fd59ef6f41ff8b837487833ad7e22;45.5575604,18.6758799;
Stockholm;Sound Pollution;SE;no;0;;59.32467800;18.06825710;716b24fb7b236421f43a66ada0c7f16c;59.324678,18.0682571;
New York;Original Records;US;no;0;NY;40.69224690;-73.76575130;717f4a0cc90b84a12cbe24c6e9d26c40;40.6922469,-73.7657513;
Freiburg im Breisgau;Mono Tonträger;DE;no;0;;47.99203110;7.84788179;83be65b0320d47be57cbf1642f432eb2;47.9920311,7.84788179;
Karlsruhe;Tom's Oldie Records + Poster;DE;no;0;;49.00724411;8.40301895;94768f977cf849e4f27fb66b2550edd6;49.00724411,8.40301895;
Athina;Music Machine Records;GR;no;0;;37.98314260;23.73689400;7a169c3dbe21888590c3aa026a9545f7;37.9831426,23.736894;
Birmingham;2nd & Charles;US;no;0;AL;33.38287230;-86.80479270;17a8cdfd5ea39f092d1bf0f09d657c13;33.3828723,-86.8047927;
Detroit;Record Graveyard;US;no;0;MI;42.40530490;-83.06640190;b8041580808093c5895dd1143145ad92;42.4053049,-83.0664019;
Phoenix;Tracks In Wax;US;no;0;AZ;33.50706570;-112.07337530;de73b7badf6139b1b79bbd795c60d961;33.5070657,-112.0733753;
Budapest;Rockin' Box;HU;no;0;;47.49989700;19.05643272;9d4dd52f626c441c22e6d8ea16a88ba5;47.499897,19.05643272;
Chicago;Dave's Records;US;no;0;IL;41.92982020;-87.64336140;e21717f4131c23f51646deda11c4687d;41.9298202,-87.6433614;
Porto;Porto Calling;PT;no;0;;41.15013030;-8.61362110;c6847b0126309e112df56318f46de4ca;41.1501303,-8.6136211;
Vancouver;Audiopile;CA;no;0;;49.26692880;-123.06952340;9892adf9ffaa8027320833c2c6aabda5;49.2669288,-123.0695234;
Lille;Notes En Bulles;FR;no;0;;50.63079834;3.05534005;c5f73446720464a637b65d2a59c011ac;50.63079834,3.05534005;
Wrocław;Winylove;PL;no;0;;51.10173035;17.02919388;59354679a88b19c746f5a6b879db3d40;51.10173035,17.02919388;
Newcastle upon Tyne;Reflex;GB;no;0;;54.97222900;-1.61496699;6d46e7c4ac32a261bf817a316c9c5dd3;54.972229,-1.61496699;
Santa Rosa Beach;Central Square Records;US;no;0;FL;30.32045746;-86.13701630;bc2470c8eff0682fa58b92ae4b974553;30.32045746,-86.1370163;
Toronto;Circus Books & Music;CA;no;0;;43.68003090;-79.34006180;ec35bd47a76bb77e578ad51750484966;43.6800309,-79.3400618;
Albuquerque;Nob Hill Music;US;no;0;NM;35.08011800;-106.60612400;e3fbc68481ff108172bd0a7bf9394745;35.080118,-106.606124;
Berlin;A&V Records;DE;no;0;;52.48806620;13.42820760;670054ddc0dbca310df9cc6de86266f6;52.4880662,13.4282076;
Chicago;Groovin High Inc;US;no;0;IL;41.93973541;-87.65594482;35bc2a1b88a924cc5c53f5119128f633;41.93973541,-87.65594482;
Los Angeles;Headline Records;US;no;0;CA;34.08355331;-118.35772705;05fb2409b08c7f6b98016ac702f7421d;34.08355331,-118.35772705;
Kozhikode;Voice Of Kerala;IN;no;0;;11.24940070;75.78028290;8458ea412688a7874914e4f94ed142e5;11.2494007,75.7802829;
Chicago;Bric-a-Brac Records & Collectibles;US;no;0;IL;41.93213760;-87.70724320;72c1a16aa8722dbc2041f6be41230dd7;41.9321376,-87.7072432;
Ma'abarot;Hasrita - קיבוץ מעברות;IL;no;0;;32.36419678;34.90573120;;32.36419678,34.9057312;
Claremont;Rhino Records;US;no;0;CA;34.09634220;-117.71807490;6652aa11279acf927980cbe9c5058531;34.0963422,-117.7180749;
Mumbai;Music Circle;IN;no;0;;19.21290920;72.86745930;6fbdd0ee611bc14538fdb6040f95795e;19.2129092,72.8674593;
Burnley;Astonishing Sounds;GB;no;0;;53.78954315;-2.24066210;b6f14aa549fa11c4f157bb261c99e873;53.78954315,-2.2406621;
Aarhus;Bogshoppen;DK;no;0;;56.16076279;10.20960712;e82ef4a09b5808cd4574961bfbb82b76;56.16076279,10.20960712;
Clarksdale;Cat Head Delta Blues & Folk Art;US;no;0;MS;34.20172800;-90.57433200;fc9084d46be7c80514ecfca3e3fb6cd0;34.201728,-90.574332;
Houston;Soundwaves;US;no;0;TX;29.74102630;-95.39105120;62cfcc9c4928302a237ba808c5b90ff6;29.7410263,-95.3910512;
Macau;Pin-to Livros & Musica 边度有書･有音樂;MO;no;0;;22.19954380;113.54173240;c1283eca6d01e591059e839d8b677c38;22.1995438,113.5417324;
Athens;Wuxtry Records;US;no;0;GA;33.95866520;-83.37593730;f08d297c4106bd3bac1fe858bdf826a7;33.9586652,-83.3759373;
Norman;Guestroom Records Norman;US;no;0;OK;35.22165880;-97.44238670;8120d2afa2c22897e74bc178ab00e66b;35.2216588,-97.4423867;
Long Beach;MAKE Collectives;US;no;0;CA;33.76793720;-118.18683830;1d0f0720f75e7b72fc0304b009174699;33.7679372,-118.1868383;
Olivet;E-Leclerc Cultural Center in Olivet;FR;no;0;;47.84250830;1.91666900;f9dd8d1f21b73c8348f5098a4fa6c51b;47.8425083,1.916669;
Anacortes;The Business;US;no;0;WA;48.52012830;-122.61283010;55d99eb695c3568adf25e39889452c92;48.5201283,-122.6128301;
Shepherdstown;Admiral Analog's Audio Assortment;US;no;0;WV;39.43146090;-77.80717570;a2e1868d1a64d24dbfcd617c14c00c23;39.4314609,-77.8071757;
Liège;Livre aux Trésors;BE;no;0;;50.64279938;5.56771994;2e00dd4ea783cc0966307e69f78739a6;50.64279938,5.56771994;
Normal;North Street Records;US;no;0;IL;40.50937271;-88.98537445;473f35a50419c602c75f318fd1a9dc5c;40.50937271,-88.98537445;
Normal;Mother Murphy's;US;no;0;IL;40.50926700;-88.98512600;04b565a9b934de17b2ad572a03450bf3;40.509267,-88.985126;
Johannesburg;Record Mad;ZA;no;0;;-26.14093260;27.99235850;ab97245a9d6aa36b90114a43746c953e;-26.1409326,27.9923585;
Llano;Records & Thing Strange;US;no;0;TX;30.75673320;-98.67451030;5aa5ca33e44bef58bd0155991b7284e2;30.7567332,-98.6745103;
Casper;Sonic Rainbow Compact Discs;US;no;0;WY;42.84927030;-106.32534160;216a2023a266d3f9837157a837dbc676;42.8492703,-106.3253416;
Pueblo;Pueblo Records & Tapes;US;no;0;CO;38.24609340;-104.66266130;db174c6c079baee6c854581d21efc1b8;38.2460934,-104.6626613;
Clarksville;Oddball Media;US;no;0;TN;36.62316240;-87.31757570;1af9fa71c361f9f1699a2af7b4c10e2f;36.6231624,-87.3175757;
Apt;Arpège Musique;FR;no;0;;43.87629120;5.39312580;055d2441b186da7c956fe84f1c3d3eb4;43.8762912,5.3931258;
Bergen;Playcom;NO;no;0;;60.46550920;5.32214590;41573cbd2840b3dee9b43ab930beef90;60.4655092,5.3221459;
Hiroshima;Dumb Records;JP;no;0;;34.38998040;132.46130030;2efb1358ce739779b10784952442ea06;34.3899804,132.4613003;
Hiroshima;Stereo Records;JP;no;0;;34.39015920;132.46074010;febf4726484f43d327fc8aacc855bb93;34.3901592,132.4607401;
Stockholm;MJ Retro;SE;no;0;;59.31500730;18.03228900;e3a3e6992c418800a3e1cb2aa4ad302a;59.3150073,18.032289;
Taubaté;Beco do Disco;BR;no;0;;-23.02471070;-45.55588330;bf5b9e6a5c75aa1f7e035aa71118a8db;-23.0247107,-45.5558833;
Bari;Centro Musica;IT;no;0;;41.12588160;16.86476490;2d4d0d8d03f279c09719d5bdbc1dcb52;41.1258816,16.8647649;
Beograd;Triumvirate CD & Vinil Shop;RS;no;0;;44.80227250;20.47127940;f690c86fb4dde014b2c6df783ee6b58f;44.8022725,20.4712794;
Frodsham;Convoy Records;GB;no;0;;53.27646100;-2.69827720;720d7f58626be9c6359c1ac029c012a6;53.276461,-2.6982772;
Amsterdam;Independent Outlet Skateboards Amsterdam;NL;no;0;;52.36444100;4.89273010;8327f21152952b5d6e714f00b8ecb65b;52.364441,4.8927301;
Kyiv;Vinyla — Vinyl Music Corner;UA;no;0;;50.46603710;30.52025090;a27e422816b95f94e650318f78c92068;50.4660371,30.5202509;
São Leopoldo;Embaixada Do Rock;BR;no;0;;-29.76633910;-51.14824910;fcdb7fa969cbc979f99015eaf490b861;-29.7663391,-51.1482491;
Cape Town;Revolution Records;ZA;no;0;;-33.93998600;18.46899500;69202f3097cc7eba45d706a359a8dbae;-33.939986,18.468995;
Liverpool;Dig Vinyl;GB;no;0;;53.40375530;-2.97929840;d76139abfd212c4931b36686f2eb49dd;53.4037553,-2.9792984;
Thessaloniki;playground record shop;GR;no;0;;40.62914658;22.94967079;;40.62914658,22.94967079;
Hamburg;Selecta Reggae Record Shop;DE;no;0;;53.56044670;9.96359930;64e4f7505f3304b0114fea55cdd73ac1;53.5604467,9.9635993;
São Paulo;Augusta Discos;BR;no;0;;-23.55566025;-46.65784073;d1b20b1adb2978d77eae09ab8da35101;-23.55566025,-46.65784073;
São Paulo;Sampa Discos LTDA;BR;no;0;;-23.54287690;-46.63964829;;-23.5428769,-46.63964829;
São Paulo;Nostalgia;BR;no;0;;-23.54399109;-46.63959122;;-23.54399109,-46.63959122;
São Paulo;Araça Azul Discos;BR;no;0;;-23.54334700;-46.63871200;dea49628b86c327b31615a503a929bd1;-23.543347,-46.638712;
São Paulo;Mr. CD/DVD;BR;no;0;;-23.54408264;-46.63965988;;-23.54408264,-46.63965988;
Liverpool;The Jacaranda;GB;no;0;;53.40240500;-2.97957500;ab5f0e62a5e70ee8a3ac64f48c1c5fce;53.402405,-2.979575;
Siegen;ROLLIN' STONE;DE;no;0;;50.87640910;8.02813390;8e377fba12c47b85ae511d74d09dbb58;50.8764091,8.0281339;
Heerlen;Didi Muziek- en Striphal;NL;no;0;;50.89482880;5.95604706;ac557290aed82383178393019c08e2bd;50.8948288,5.95604706;
Ramat Gan;Record Store;IL;no;0;;32.07065964;34.82260895;;32.07065964,34.82260895;
Hamilton;Crash Landing Music;CA;no;0;;43.24776680;-79.81837050;1b8d28b6761b0722a0ecd6f9c473b766;43.2477668,-79.8183705;
Cheyenne;Phoenix Books & Music;US;no;0;WY;41.13322530;-104.81589670;046a3fc5e6c0428b08d48eaefcb2c5fa;41.1332253,-104.8158967;
Salzburg;Minerva Records;AT;no;0;;47.80487442;13.05053139;d74a9608b0fdff5c832ff2d80b297f51;47.80487442,13.05053139;
Biarritz;Jetrecords;FR;no;0;;43.48093033;-1.55904400;b4e463327bcafeaa3ed84be8ff575554;43.48093033,-1.559044;
Poughkeepsie;Darkside Records;US;no;0;NY;41.69640480;-73.89199760;e4b3c959ff25e1482f1bf6d8c93f3bb1;41.6964048,-73.8919976;
Ottawa;The ODDs & SODs Shoppe;CA;no;0;;45.35677120;-75.73647280;f561ce05be828cef45ffb68860561f02;45.3567712,-75.7364728;
Rødovre;Run For Cover;DK;no;0;;55.66590680;12.47299150;ae6879373792a75e2cf3826a4ef30824;55.6659068,12.4729915;
Bend;Ranch Records Bend;US;no;0;OR;44.05913660;-121.31277430;1ffdf375a2deb301e1b3f01b90fb4ae8;44.0591366,-121.3127743;
Sandbach;backtrax music;GB;no;0;;53.14457703;-2.36318207;52ffbbc4b9f47b6cbc49d79b06cb2165;53.14457703,-2.36318207;
Kennewick;Groovy Records;US;no;0;WA;46.20411301;-119.11654663;e4ad36624edc6964c5e44c7e4172d996;46.20411301,-119.11654663;
London;Mike's Record Shop unit 29-31;GB;no;0;;51.58855370;-0.00442190;14064f7bd81b1d53aa59460210b36c78;51.5885537,-0.0044219;
Los Angeles;Caveman Vintage Music;US;no;0;CA;34.06625880;-118.20653790;dd66d5476046a0589d347efd7367a4e8;34.0662588,-118.2065379;
St. Catharines;Mindbomb Records;CA;no;0;;43.15845290;-79.24507030;bf44b072f65f7b3714e88af8ad6543a1;43.1584529,-79.2450703;
Mainz;Lautstark Mainz;DE;no;0;;49.99639330;8.27549260;f370f8dfd9ceed282eb4b38bb6e9eb4c;49.9963933,8.2754926;
Sakarya;D&R Sakarya Serdivan;TR;no;0;;40.77886160;30.36549920;dd587ed8e48e848f98d32de92e4c48e6;40.7788616,30.3654992;
Appleton;Appleton Imports;US;no;0;WI;44.26203880;-88.41407540;a829b2f07c30979999bced048c7c2a05;44.2620388,-88.4140754;
Milano;Mariposa;IT;no;0;;45.46461420;9.19191430;6990d15c471c7e740f45606893300487;45.4646142,9.1919143;
Buenos Aires;Abraxas;AR;no;0;;-34.59566300;-58.38509820;f781068b9960d82f171470ecbd9ecba8;-34.595663,-58.3850982;
Santiago;Needle Barrio Italia;CL;no;0;;-33.44781630;-70.62492070;504b4c2738c4e1f6f571927a701a7443;-33.4478163,-70.6249207;
Rouen;Les Mondes Perdus;FR;no;0;;49.44510020;1.08710260;ba9b3a6b4fa4b5528beb6d79f862897e;49.4451002,1.0871026;
Lyon;Kraspek Myzik;FR;no;0;;45.77128601;4.83577585;e9fd1d87910e0f2e3460d7ddf8d77c2b;45.77128601,4.83577585;
Rotterdam;De Oorzaak;NL;no;0;;51.93007250;4.47496370;d7f5d324978d6b47e0b384d429e3d205;51.9300725,4.4749637;
Buenos Aires;Eureka Records;AR;no;0;;-34.62284930;-58.37137850;1cf627c4a8dd16161df40bb913b25597;-34.6228493,-58.3713785;
Osaka;disk union Osaka Store;JP;no;0;;34.70452050;135.50324550;ca36a2dc76001b7f139c47154c012e3e;34.7045205,135.5032455;
Chiba;Disk Union;JP;no;0;;35.61056200;140.11800600;7d7f8d83df8edaf5ab5b6064b7ba4da6;35.610562,140.118006;
Namur;Juke Box;BE;no;0;;50.46450043;4.86372089;bcc56f144e97ae787c1d9dcfe85f7180;50.46450043,4.86372089;
Midland;Midland Records;AU;no;0;;-31.88897030;116.00173930;6b55448ee796c7b375822f595840551a;-31.8889703,116.0017393;
Burlington;The Beat Goes On;CA;no;0;;43.35464478;-79.78398895;5ad652a41e2d7d3043fcc1f1d1cd755d;43.35464478,-79.78398895;
Cobourg;ZAP Records;CA;no;0;;43.96016250;-78.16359530;7e726e077d5f814cb9056b7dabd0e458;43.9601625,-78.1635953;
Penzance;Here's Julie's the Vinyl Years;GB;no;0;;50.11866379;-5.53867102;;50.11866379,-5.53867102;
Oakville;PCV Records;CA;no;0;;43.43371480;-79.70147910;cef3aa3e07c9a429eae337753b7e8b06;43.4337148,-79.7014791;
Ottawa;Possible Worlds;CA;no;0;;45.41068000;-75.70730940;b9d1d999dbcf7b6103a5803c1aa11a75;45.41068,-75.7073094;
Pincourt;Marché du Disque;CA;no;0;;45.38462250;-73.99470760;d52fab9ed17d07ece167b97b9b821305;45.3846225,-73.9947076;
Thorold;Our Favourite Shop Records;CA;no;0;;43.12387848;-79.20085907;;43.12387848,-79.20085907;
Tampere;Antikvariaatti Aikakone;FI;no;0;;61.49883120;23.78270430;ad6b97e88e4739748dddb52481b267e4;61.4988312,23.7827043;
Turku;Kaakko;FI;no;0;;60.44813080;22.25507690;cdb3be16339001bf76cd9b33b664b16e;60.4481308,22.2550769;
Sofia;Vintage Stereo;BG;no;0;;42.69537735;23.32146454;0ab8ffd7402a669b91a6e9319e90ba95;42.69537735,23.32146454;
Bari;Wanted Record;IT;no;0;;41.11248180;16.87190540;d3703886359beded6267f39d92ac23a7;41.1124818,16.8719054;
Besozzo;Musical Box;IT;no;0;;45.84416080;8.66333660;0ea9f4ca1021a24f6531508e33a13a09;45.8441608,8.6633366;
Bratislava;Hummel Music Shop - Divyd Ltd.;SK;no;0;;48.14421600;17.11023460;55cf4a5bda5e939ae94abf0d10b7e675;48.144216,17.1102346;
Montebello della Battaglia;Media World;IT;no;0;;44.99936140;9.07413600;e8612fbf6ed33bf543e570830e5fa855;44.9993614,9.074136;
Cardiff;Kellys Records;GB;no;0;;51.47993851;-3.17880988;f2f99d6e529f3e0246245a017dc7e690;51.47993851,-3.17880988;
Gallarate;Caru' - Libreria Dischi;IT;no;0;;45.66111550;8.79144260;45d0a0024e483cf6aae3e5b80aaff3a8;45.6611155,8.7914426;
Gatineau;Vinyle Scene;CA;no;0;;45.42490670;-75.71913990;d41d8cd98f00b204e9800998ecf8427e;45.4249067,-75.7191399;
Sarreguemines;Livre Musique Culture;FR;no;0;;49.11627579;7.09560108;43051de0d06f230ab1b4b738454c161a;49.11627579,7.09560108;
Delta;Sunrise Records;CA;no;0;;49.03841930;-123.08341690;35874e6de5621f9fd60bd701152fd146;49.0384193,-123.0834169;
Easton;Easton Record Exchange;US;no;0;PA;40.69148620;-75.20902690;9887ac795ece026190c383f4cee04a75;40.6914862,-75.2090269;
St. Cloud;Uff Da Records;US;no;0;MN;45.55168152;-94.19730377;d590ed0eee63ff88d10e80aeaf34c5de;45.55168152,-94.19730377;
Lismore;Music Bizarre;AU;no;0;;-28.80900680;153.27661480;c92eea587acbd10a3c351ea9d1a0b549;-28.8090068,153.2766148;
Porto;Vinyl Disc;PT;no;0;;41.14916710;-8.61198750;9a01a0839b72ff282e569383f844c450;41.1491671,-8.6119875;
Sandpoint;7B Grooves;US;no;0;ID;48.27646255;-116.55387878;d41d8cd98f00b204e9800998ecf8427e;48.27646255,-116.55387878;
Hamburg;Nostalgie-Shop;DE;no;0;;53.57970740;10.06182250;6ed1925688888604d26d6cfc25cbac2b;53.5797074,10.0618225;
Lancaster;Super Marche;GB;no;0;;54.04820380;-2.80250200;af9d93e1a4a54c8b5229edfcf86f6441;54.0482038,-2.802502;
Niš;Vinyl Cafe;RS;no;0;;43.31798740;21.89482920;db6f6185ac36277bf4320d9af41149e9;43.3179874,21.8948292;
Lancaster;Pulp Reality;US;no;0;OH;39.71653370;-82.60431450;93aa502752605146df23ded5e1eee5dc;39.7165337,-82.6043145;
Lewes;"Vintage Vinyl by ""Yesterday's Fish""";US;no;0;DE;38.73959732;-75.14739990;e118e3bfd9c2293aacffa66d654220a4;38.73959732,-75.1473999;
Prescott;Trax Records;US;no;0;AZ;34.53876495;-112.47040558;c0c5ed495bda75768baa396ae9c807cd;34.53876495,-112.47040558;
Dublin;Vinyl Dublin;IE;no;0;;53.28959656;-6.13017416;b31727bf1144eba4f1573f85b6874f2d;53.28959656,-6.13017416;
Beirut;The Groovy Owl;LB;no;0;;33.89574080;35.47724410;6fc86ec837f0075b8074635ac2e3cb28;33.8957408,35.4772441;
Providence;Symposium Records;US;no;0;RI;41.82277380;-71.41253790;95e35b9b3199a2c81f9849e3deb1fdf6;41.8227738,-71.4125379;
Albacete;Tres Bonobos;ES;no;0;;38.99100876;-1.86024499;b73c36334539bd3c95f4f60850c111cd;38.99100876,-1.86024499;
Dee Why;Sandy's Music Centre;AU;no;0;;-33.75369644;151.28552246;557371ff502f9ec9dab1dbfe6da93b63;-33.75369644,151.28552246;
Massapequa Park;Infinity Records;US;no;0;NY;40.67657089;-73.45670319;92ca405ac6806a554fa1680b181f8348;40.67657089,-73.45670319;
Blanes;Cara B discos;ES;no;0;;41.67557144;2.79123592;63cf9137885943c8dcfa3f7b98b3d1c3;41.67557144,2.79123592;
Dallas;14 Records + Cassette Museum;US;no;0;TX;32.82752490;-96.70912020;13ccf5d1d0592ee48786894633ecf551;32.8275249,-96.7091202;
Makati;Vinyl on Vinyl Gallery;PH;no;0;;14.54563190;121.01654860;71ab877763b2dd3a00b6d95959812c2f;14.5456319,121.0165486;
Kingsport;PD's Records;US;no;0;TN;36.54604950;-82.56168490;73b77e0009893e29489f0c98b52a2451;36.5460495,-82.5616849;
Freilassing;Vinylea;DE;no;0;;47.84176190;12.98060750;128bfbe03ef537fc576a7da74b2ec2bc;47.8417619,12.9806075;
Lexington;Turntable City;US;no;0;SC;33.98322910;-81.23876050;c5ec335953a5af8ab138c1bd4ebfd3e8;33.9832291,-81.2387605;
Coventry;Visual Vinyl;GB;no;0;;52.39516300;-1.43122740;d41d8cd98f00b204e9800998ecf8427e;52.395163,-1.4312274;
São Paulo;Pop's Discos;BR;no;0;;-23.55789600;-46.67751300;fd46ed227191ea3e8e098bf68a5230b2;-23.557896,-46.677513;
Berlin;laut und kreativ;DE;no;0;;52.59697000;13.33293610;ad3db85ce00adc79a27d5c8639a29303;52.59697,13.3329361;
New York;Fool's Gold Records;US;no;0;NY;40.71492980;-73.96197040;a8e39fbe2ecfff8ea7b1e0a1b73549c0;40.7149298,-73.9619704;
Bangkok;Heaven & Hell;TH;no;0;;13.79889175;100.55056267;d41d8cd98f00b204e9800998ecf8427e;13.79889175,100.55056267;
Toronto;TreaJah Isle;CA;no;0;;43.69779540;-79.44125520;4cf74aeb1268d2a664b59f8773af6568;43.6977954,-79.4412552;
Valparaiso;Galactic Greg's;US;no;0;IN;41.46811800;-87.04353280;e467ea2b5b6a6efbd66fdbae3d371797;41.468118,-87.0435328;
Melbourne;Lost and Found Market;AU;no;0;;-37.79877000;144.97850120;9e453be621e0990123a85b1c4810a323;-37.79877,144.9785012;
Kitakyushu;Border Line Records - ボーダーライン小倉店;JP;no;0;;33.88820890;130.88213500;3bc5bac18d0e350f694b5785266ec305;33.8882089,130.882135;
Tokyo;ELLA RECORDS 下北沢店;JP;no;0;;35.66230670;139.66714830;2f06252671a11e0acbf1d827b46f259b;35.6623067,139.6671483;
Dubuque;Moondog Music;US;no;0;IA;42.49301460;-90.71992500;7a49e8f694bd2a951fca4437e1a34eb4;42.4930146,-90.719925;
Minneapolis;Grimm Bebop;US;no;0;MN;44.93424740;-93.24699040;3122c111437b89e78accffeccb9d4bae;44.9342474,-93.2469904;
Savannah;Coastal Empire Records;US;no;0;GA;32.01893480;-80.97488610;c529903fedeb3b1cee027a3cf30f07db;32.0189348,-80.9748861;
Ishpeming;Vinyl Destination Records;US;no;0;MI;46.49003520;-87.66638490;28b1cafa864e15fea626f8ed44723e16;46.4900352,-87.6663849;
Clonmel;Golden Discs;IE;no;0;;52.35481600;-7.69143450;74c737ed5b03a827b8dc6c7b212c2f9d;52.354816,-7.6914345;
Hanoi;Rita Records @ RAND Moroc & Coffee;VN;no;0;;21.01551700;105.85950300;a07cc044ffd4ec54894de663f645f8aa;21.015517,105.859503;
Tokyo;Ballroom Records;JP;no;0;;35.70150600;139.58297600;1e6c60fde02327db04c8b51389034bbb;35.701506,139.582976;
Tokyo;月光社;JP;no;0;;35.70473200;139.62228100;8cfbcaa602cb42789b078432517af106;35.704732,139.622281;
Tokyo;Nishiogi Unknown Record;JP;no;0;;35.70615700;139.59616300;fa61a5b95354e32ca38cb4706a774754;35.706157,139.596163;
Tokyo;高田書房 常盤台店;JP;no;0;;35.75939400;139.68796340;de2f5862187cc6ac59b7aa1e25217368;35.759394,139.6879634;
Inuyama;Penny Lane - ペニーレイン−犬山キャスタ店;JP;no;0;;35.38114640;136.94698730;4622401c4d4a6f8ef7f315b3ca6f46fb;35.3811464,136.9469873;
Tirana;Tulla Culture Center;AL;no;0;;41.31853170;19.80705670;2e674a2e30ccbf6aa220e628c1b1938b;41.3185317,19.8070567;
Birmingham;Entertainment World;GB;no;0;;52.46436710;-1.77593000;9d9653ec5e3e66238ecce88c06c997ae;52.4643671,-1.77593;
Alajuela;Decibeles;CR;no;0;;10.01553290;-84.20856560;d2382ea17a0cb22c0f6423a6d9eaf1d3;10.0155329,-84.2085656;
Syracuse;Syracuse Vintage Vinyl;US;no;0;NY;43.06392910;-76.07325250;93ee9fd2652d98ecd413f75dd79cca09;43.0639291,-76.0732525;
Hanoi;LP Club;VN;no;0;;21.02115140;105.84693860;915ff751549ab99a431c48cd30123d6c;21.0211514,105.8469386;
Sapporo;Ongaku Soko - 音楽創庫タナカ;JP;no;0;;43.03087850;141.34809940;088c022ec2bf37cc244520b5fcd9f609;43.0308785,141.3480994;
Muncie;FYE;US;no;0;IN;40.22194410;-85.37546400;9b78ca464a9a151bc29e0c2aa7736124;40.2219441,-85.375464;
Yuba City;FYE;US;no;0;CA;39.14301720;-121.63264350;cbf2944948235dc065abb342fc9a09d8;39.1430172,-121.6326435;
Camp Hill;FYE;US;no;0;PA;40.22323790;-76.93178520;252cb29a807c1457bb3adc6836313e52;40.2232379,-76.9317852;
Allentown;FYE;US;no;0;PA;40.63084990;-75.48018340;85b8729087b99e96a2a807dab7abb47c;40.6308499,-75.4801834;
Winston-Salem;FYE;US;no;0;NC;36.06749210;-80.30142580;9fd64792e1aec4edeeb1682d8fb854bb;36.0674921,-80.3014258;
Kingston;FYE;US;no;0;NY;41.96716240;-73.98379620;78aceff486286875828a36ea4505133c;41.9671624,-73.9837962;
Lake Grove;FYE;US;no;0;NY;40.86555720;-73.13054210;7f360a659716850e8c301ce37a202a77;40.8655572,-73.1305421;
East Brunswick;FYE;US;no;0;NJ;40.42365430;-74.38295250;fa8c5a2acb18e577e5e9765687fe3148;40.4236543,-74.3829525;
Newington;FYE;US;no;0;NH;43.09708160;-70.80567340;982bfbfa75019f144788b8a6acc69620;43.0970816,-70.8056734;
Omaha;Tradepost Entertainment;US;no;0;NE;41.11907690;-95.92413060;e4df947f319e9b3a8beea0ffc4e60665;41.1190769,-95.9241306;
Brockport;Trader Shag's Music Emporium;US;no;0;NY;43.21490100;-77.93909600;7e00783dead9dfe79bf56fec51bcf503;43.214901,-77.939096;
Värnamo;Värnamo Musik;SE;no;0;;57.18212040;14.05752840;2089d4c44722714a2bbb9230e2c3dda0;57.1821204,14.0575284;
San Miguel de Allende;Obeah Vinyl Cafe;MX;no;0;;20.91605600;-100.76680600;d41d8cd98f00b204e9800998ecf8427e;20.916056,-100.766806;
Graham;HiFi Records;US;no;0;NC;36.06982890;-79.40003020;ab55d12480fe83135c32b43d20d75aac;36.0698289,-79.4000302;
Osaka;Maru Ka Batsu - マルかバツ堀江店;JP;no;0;;34.67388200;135.49646300;6b30b8185b438d100012ff81d6028d53;34.673882,135.496463;
Urla;Dipdibe Records - Plak;TR;no;0;;38.32187670;26.76463260;64d5c859282ff33cf250be347bd51a1a;38.3218767,26.7646326;
Adelaide;Clinic 116 PTY Ltd.;AU;no;0;;-34.92353300;138.60449330;05fa34766c826d9b5bdc0044e8695b17;-34.923533,138.6044933;
Tyler;El Guapo Records;US;no;0;TX;32.29184430;-95.30541090;2f74d45f1cffa6d89cf8d1ce93d189aa;32.2918443,-95.3054109;
Taipei;Waiting Room;TW;no;0;;25.04935290;121.52022250;43028a5ddbd0458f4a99a976b10dabf5;25.0493529,121.5202225;
București;Palatul Vechiturilor;RO;no;0;;44.43320330;26.13759500;6316ea4fbb92fc72358f242f363ed526;44.4332033,26.137595;
Tokyo;ディスクユニオン新宿パンクマーケット;JP;no;0;;35.69064010;139.70384180;5254a7688642174368d716bff92e0514;35.6906401,139.7038418;
Tokyo;ディスクユニオン新宿プログレッシヴロック館;JP;no;0;;35.69063170;139.70382760;b6e413c12c235d374cf7f91d2b6c5896;35.6906317,139.7038276;
Sapporo;ビヴァリー・レコード・ＪＡＺＺ中古レコード店;JP;no;0;;43.05960400;141.35669900;896cd3619ba3be18186c8dd67c75be98;43.059604,141.356699;
Toyama;ディスクビート;JP;no;0;;36.68609800;137.22091200;47f5279a88e2b1c906803dc4b6c5f5ec;36.686098,137.220912;
Kyoto;Silk Records;JP;no;0;;35.01479440;135.76769320;4cff38531d20b5517e1e3f004ab840ca;35.0147944,135.7676932;
Osaka;K2 Record;JP;no;0;;34.66268840;135.50566010;dcfc63ec940fe422fb8bb0dc615a745c;34.6626884,135.5056601;
Criciúma;Dark Side Records;BR;no;0;;-28.66805280;-49.42448420;d41d8cd98f00b204e9800998ecf8427e;-28.6680528,-49.4244842;
Brasilia;Sebo Musical Center;BR;no;0;;-15.73893550;-47.88874140;43a5e4c2fa154ca2d03eccaa6e72736f;-15.7389355,-47.8887414;
Washington;Old City Market and Oven;US;no;0;DC;38.90282600;-76.99863600;56cf42090cdfd5a28b32c7623f72a0c2;38.902826,-76.998636;
Deggingen;Retrotrain - Vinyl & Games;DE;no;0;;48.59776500;9.72233490;d41d8cd98f00b204e9800998ecf8427e;48.597765,9.7223349;
Marburg;Music-Attack;DE;no;0;;50.81323000;8.76925000;fb2b2434a4f2e0a4c01c46127a5a6e6e;50.81323,8.76925;
Zürich;Antiquariat Im Seefeld;CH;no;0;;47.35430340;8.55801750;d8989265264c43d631d8b1ed560d1558;47.3543034,8.5580175;
Belper;Groove Records;GB;no;0;;53.02281120;-1.48216470;d41d8cd98f00b204e9800998ecf8427e;53.0228112,-1.4821647;
Buenos Aires;Tango Cerouno;AR;no;0;;-34.58852700;-58.39191700;5e6590a04385b8b094fdfd79a0caa440;-34.588527,-58.391917;
Madrid;Chopper Monster;ES;no;0;;40.42583440;-3.70185750;2e3a5d63bd1414326c0cfd75718868bf;40.4258344,-3.7018575;
Fujisawa;Novel Attraction - ノーベルアトラクションレコード;JP;no;0;;35.33744090;139.49172540;6760ef57c53998e67000f2d0a8c56b1a;35.3374409,139.4917254;
Kaohsiung City;Xiao Song Records - 小宋唱片行;TW;no;0;;22.61662770;120.30687930;766d89b1bc77cc1ff23ae694aa8cc4ec;22.6166277,120.3068793;
Fyshwick;Canberra Vinyl Records & Music;AU;no;0;;-35.32654580;149.16877510;b6cd375f74658c2e1dabe8580eca96d7;-35.3265458,149.1687751;
Miami;Retro City Collectibles;US;no;0;FL;25.74974160;-80.26028160;590afdba20409728af364286d82269db;25.7497416,-80.2602816;
Sankt-Peterburg;Vinilovyye Plastinki, Suveniry, Antikvariat;RU;no;0;;59.93276810;30.35846300;2eb6ee857244cc18f95df52e0cf0b616;59.9327681,30.358463;
Haverfordwest;Terminal Records;GB;no;0;;51.80263901;-4.96023989;;51.80263901,-4.96023989;
